~Version ---------------------------------------------------
VERS.   2.0 : CWLS log ASCII Standard -VERSION 2.0
WRAP.    NO : One line per depth step
DLM . SPACE : Column Data Section Delimiter
~Well ------------------------------------------------------
STRT..M    0.19040 : START DEPTH
STOP..M 1920.12700 : STOP DEPTH
STEP..M    0.19050 : STEP
NULL.     -9999.25 : NULL VALUE
COMP.              : COMPANY
WELL.              : WELL
FLD .              : FIELD
LOC .              : LOCATION
PROV.              : PROVINCE
CNTY.              : COUNTY
STAT.              : STATE
CTRY.              : COUNTRY
SRVC.              : SERVICE COMPANY
DATE.              : DATE
UWI .              : UNIQUE WELL ID
API .              : API NUMBER
~Curve Information -----------------------------------------
DEPTH..M       : Depth
ГК   .имп/мин  : описание 1
НГК  .усл. ед  : описание 2
~Params ----------------------------------------------------
..M    0.0 : Start depth
..M 1920.0 : Stop depth
..M    0.2 : Step
..   -9999 : Null value
~Other -----------------------------------------------------
~ASCII -----------------------------------------------------
# ...
  763.25190    0.78770  782.42530
  763.44230    0.87110  781.19510
  763.63280    0.93920  802.10900
  763.82320    0.99980  818.10190
  764.01360    1.02250  792.26710
  764.20410    1.06040  767.66260
  764.39450    1.11340  777.50440
  764.58490    1.18540  802.10900
  764.77530    1.31790  824.25310
  764.96580    1.39370  851.31810
  765.15620    1.35580  872.23200
  765.34660    1.24220  880.84360
  765.53710    1.21190  856.23900
  765.72750    1.32930  851.31810
  765.91790    1.49590  873.46220
  766.10840    1.64740  868.54130
  766.29880    1.84440  868.54130
  766.48920    2.02240  858.69950
  766.67970    2.31020  835.32510
  766.87010    2.56770  813.18100
  767.06050    2.48820  791.03690
  767.25100    2.07920  760.28120
  767.44140    1.84440  728.29530
  767.63180    1.90120  744.28820
  767.82230    1.74970  789.80670
  768.01270    1.43160  829.17400
  768.20310    1.06040  871.00180
  768.39360    0.90890  863.62040
  768.58400    0.92030  792.26710
  768.77440    0.97710  722.14410
  768.96490    1.13620  735.67660
  769.15530    1.29520  781.19510
  769.34570    1.37850  807.02990
  769.53620    1.27250  841.47630
  769.72660    1.17400  872.23200
  769.91700    1.04530  905.44820
  770.10740    1.01500  916.52020
  770.29790    1.07180  890.68540
  770.48830    1.08690  862.39020
  770.67870    1.01500  848.85760
  770.86920    1.03010  871.00180
  771.05960    1.16650  872.23200
  771.25000    1.43530  856.23900
  771.44050    1.59440  834.09490
  771.63090    1.49220  846.39720
  771.82130    1.48840  900.52720
  772.01180    1.51110  904.21790
  772.20220    1.43910  868.54130
  772.39260    1.35580  826.71350
  772.58310    1.54520  792.26710
  772.77350    1.76100  765.20210
  772.96390    1.77240  799.64850
  773.15440    1.70420  847.62740
  773.34480    1.61330  880.84360
  773.53520    1.51110  906.67840
  773.72570    1.44290  932.51320
  773.91610    1.40130  936.20390
  774.10650    1.43530  915.29000
  774.29700    1.52620  890.68540
  774.48740    1.61330  861.15990
  774.67780    1.74590  885.76450
  774.86830    1.67390  928.82250
  775.05870    1.55280  930.05270
  775.24910    1.45430  902.98770
  775.43950    1.37850  880.84360
  775.63000    1.31040  851.31810
  775.82040    1.31040  837.78560
  776.01080    1.34820  859.92970
  776.20130    1.27250  884.53430
  776.39170    1.24220  902.98770
  776.58210    1.35580  927.59230
  776.77260    1.38230  939.89460
  776.96300    1.32930  912.82950
  777.15340    1.26490  888.22500
  777.34390    1.30280  875.92270
  777.53430    1.31790  888.22500
  777.72470    1.28760  873.46220
  777.91520    1.24220  845.16700
  778.10560    1.21950  841.47630
  778.29600    1.23080  875.92270
  778.48650    1.23840  900.52720
  778.67690    1.20430  917.75040
  778.86730    1.13620  944.81550
  779.05780    1.06420  962.03870
  779.24820    0.98850  947.27590
  779.43860    0.97710  915.29000
  779.62910    1.03010  900.52720
  779.81950    1.10590  917.75040
  780.00990    1.12480  926.36200
  780.20040    1.15890  907.90860
  780.39080    1.21950  885.76450
  780.58120    1.28760  866.08080
  780.77160    1.28010  884.53430
  780.96210    1.25360  905.44820
  781.15250    1.28010  934.97360
  781.34290    1.34070  937.43410
  781.53340    1.41640  911.59930
  781.72380    1.42780  907.90860
  781.91420    1.38610  864.85060
  782.10470    1.61330  839.01580
  782.29510    1.58300  815.64150
  782.48550    1.42400  824.25310
  782.67600    1.24600  842.70650
  782.86640    1.05660  851.31810
  783.05680    0.95440  880.84360
  783.24730    0.91270  911.59930
  783.43770    0.91270  886.99470
  783.62810    0.96190  843.93670
  783.81860    1.10590  804.56940
  784.00900    1.23460  763.97190
  784.19940    1.43530  740.59750
  784.38990    1.50730  772.58350
  784.58030    1.41640  832.86470
  784.77070    1.33310  885.76450
  784.96120    1.27630  939.89460
  785.15160    1.30660  984.18280
  785.34200    1.39370  981.72230
  785.53240    1.43910  930.05270
  785.72290    1.38610  883.30400
  785.91330    1.31420  851.31810
  786.10370    1.23840  829.17400
  786.29420    1.15890  841.47630
  786.48460    1.07560  861.15990
  786.67500    0.99600  871.00180
  786.86550    0.90140  857.46920
  787.05590    0.87110  848.85760
  787.24630    0.89380  863.62040
  787.43680    0.88620  888.22500
  787.62720    0.86730  910.36910
  787.81760    0.90140  925.13180
  788.00810    0.97330  917.75040
  788.19850    1.06040  912.82950
  788.38890    1.12100  902.98770
  788.57940    1.16270  878.38310
  788.76980    1.25730  857.46920
  788.96020    1.36340  839.01580
  789.15070    1.39370  832.86470
  789.34110    1.24980  857.46920
  789.53150    1.15130  894.37610
  789.72200    1.08310  926.36200
  789.91240    0.99220  964.49910
  790.10280    0.94680 1007.55710
  790.29330    1.01500 1006.32690
  790.48370    1.14370  968.18980
  790.67410    1.30280  939.89460
  790.86450    1.39750  938.66430
  791.05500    1.31790  930.05270
  791.24540    1.21950  891.91560
  791.43580    1.11720  852.54830
  791.62630    1.13240  793.49740
  791.81670    1.23460  730.75570
  792.00710    1.27250  674.16520
  792.19760    1.08690  627.41650
  792.38800    0.93170  575.74690
  792.57840    0.76500  532.68890
  792.76890    0.51510  504.39370
  792.95930    0.46200  504.39370
  793.14970    0.56050  530.22850
  793.34020    0.64380  551.14240
  793.53060    0.76120  565.90510
  793.72100    1.05280  610.19330
  793.91150    1.30280  622.49560
  794.10190    1.42780  658.17220
  794.29230    1.40880  681.54660
  794.48280    1.34070  701.23020
  794.67320    1.36720  730.75570
  794.86360    1.46940  759.05100
  795.05410    1.48840  787.34620
  795.24450    1.30660  815.64150
  795.43490    1.15890  839.01580
  795.62540    1.08310  843.93670
  795.81580    1.09450  829.17400
  796.00620    1.15890  814.41120
  796.19660    1.24600  821.79260
  796.38710    1.32170  845.16700
  796.57750    1.40880  871.00180
  796.76790    1.50730  902.98770
  796.95840    1.52250  938.66430
  797.14880    1.42400  970.65030
  797.33920    1.36720  992.79440
  797.52970    1.29520  959.57820
  797.72010    1.30280  923.90160
  797.91050    1.34820  893.14590
  798.10100    1.34070  861.15990
  798.29140    1.24220  843.93670
  798.48180    1.13990  834.09490
  798.67230    1.06420  804.56940
  798.86270    1.05280  779.96490
  799.05310    1.10590  779.96490
  799.24360    1.15890  760.28120
  799.43400    1.14370  733.21620
  799.62440    1.06800  702.46050
  799.81490    0.99220  679.08610
  800.00530    0.86350  654.48150
  800.19570    0.75370  632.33740
  800.38620    0.68930  615.11420
  800.57660    0.64380  597.89100
  800.76700    0.60600  573.28650
  800.95750    0.59840  588.04920
  801.14790    0.69680  634.79790
  801.33830    0.86350  671.70470
  801.52870    1.03390  715.99300
  801.71920    1.20430  760.28120
  801.90960    1.27250  787.34620
  802.10000    1.28760  800.87870
  802.29050    1.35960  835.32510
  802.48090    1.41640  871.00180
  802.67130    1.32930  905.44820
  802.86180    1.23840  930.05270
  803.05220    1.15130  947.27590
  803.24260    1.18160  930.05270
  803.43310    1.28390  885.76450
  803.62350    1.43160  837.78560
  803.81390    1.35580  792.26710
  804.00440    1.21190  750.43940
  804.19480    1.18920  711.07210
  804.38520    1.28010  730.75570
  804.57570    1.40130  784.88580
  804.76610    1.43160  836.55540
  804.95650    1.38610  868.54130
  805.14700    1.37850  845.16700
  805.33740    1.39370  807.02990
  805.52780    1.48840  768.89280
  805.71830    1.65120  719.68370
  805.90870    1.82540  677.85590
  806.09910    1.79510  645.86990
  806.28950    1.62470  612.65380
  806.48000    1.68150  592.97010
  806.67040    1.77620  592.97010
  806.86080    1.57930  642.17930
  807.05130    1.47700  713.53250
  807.24170    1.56790  767.66260
  807.43210    1.68910  811.95080
  807.62260    1.80270  841.47630
  807.81300    1.85570  852.54830
  808.00340    1.89360  791.03690
