~Version ---------------------------------------------------
VERS.   2.0 : CWLS log ASCII Standard -VERSION 2.0
WRAP.    NO : One line per depth step
DLM . SPACE : Column Data Section Delimiter
~Well ------------------------------------------------------
STRT..M    0.19040 : START DEPTH
STOP..M 1920.12700 : STOP DEPTH
STEP..M    0.19050 : STEP
NULL.     -9999.25 : NULL VALUE
COMP.              : COMPANY
WELL.              : WELL
FLD .              : FIELD
LOC .              : LOCATION
PROV.              : PROVINCE
CNTY.              : COUNTY
STAT.              : STATE
CTRY.              : COUNTRY
SRVC.              : SERVICE COMPANY
DATE.              : DATE
UWI .              : UNIQUE WELL ID
API .              : API NUMBER
~Curve Information -----------------------------------------
DEPTH..M       : Depth
ГК   .имп/мин  : описание 1
НГК  .усл. ед  : описание 2
~Params ----------------------------------------------------
..M    0.0 : Start depth
..M 1920.0 : Stop depth
..M    0.2 : Step
..   -9999 : Null value
~Other -----------------------------------------------------
~ASCII -----------------------------------------------------
# ...
 1886.61090    1.74970  531.45870
 1886.80130    1.74210  558.52370
 1886.99180    1.65120  553.60280
 1887.18220    1.68530  530.22850
 1887.37260    2.00720  484.71000
 1887.56310    2.09810  482.24960
 1887.75350    2.08300  460.10540
 1887.94390    2.06020  455.18450
 1888.13440    2.12460  484.71000
 1888.32480    2.36320  514.23550
 1888.51520    2.36320  514.23550
 1888.70570    2.26850  493.32160
 1888.89610    2.07160  478.55890
 1889.08650    1.82160  493.32160
 1889.27700    1.68910  513.00530
 1889.46740    1.70420  536.37960
 1889.65780    1.81790  536.37960
 1889.84820    1.87840  501.93320
 1890.03870    1.82540  515.46570
 1890.22910    1.81030  485.94020
 1890.41950    1.83680  516.69600
 1890.61000    1.82540  541.30050
 1890.80040    1.78760  527.76800
 1890.99080    1.87470  498.24250
 1891.18130    2.02990  527.76800
 1891.37170    2.02990  542.53080
 1891.56210    1.99210  548.68190
 1891.75260    2.01100  564.67490
 1891.94300    2.13600  573.28650
 1892.13340    2.08300  540.07030
 1892.32390    1.85570  484.71000
 1892.51430    1.88600  461.33570
 1892.70470    1.92390  472.40770
 1892.89520    1.99960  487.17050
 1893.08560    2.14360  474.86820
 1893.27600    2.31020  437.96130
 1893.46650    2.40110  429.34970
 1893.65690    2.49200  418.27770
 1893.84730    2.68510  396.13360
 1894.03780    2.70410  396.13360
 1894.22820    2.64350  413.35680
 1894.41860    2.77220  404.74520
 1894.60910    2.75330  396.13360
 1894.79950    2.58670  431.81020
 1894.98990    2.31780  537.60980
 1895.18030    1.94660  553.60280
 1895.37080    1.87090  676.62570
 1895.56120    1.78760  727.06500
 1895.75160    1.57170  706.15110
 1895.94210    1.30280  740.59750
 1896.13250    1.08310  730.75570
 1896.32290    0.96190  668.01410
 1896.51340    1.18160  605.27240
 1896.70380    0.93920  547.45170
 1896.89420    1.08310  501.93320
 1897.08470    1.20810  469.94730
 1897.27510    1.26870  474.86820
 1897.46550    1.28010  492.09140
 1897.65600    1.20430  487.17050
 1897.84640    1.21570  474.86820
 1898.03680    1.37480  469.94730
 1898.22730 -9999.00000  490.86120
 1898.41770    1.47320  506.85410
 1898.60810    1.35200  537.60980
 1898.79860    1.32930  618.80490
 1898.98900    1.02250  724.60460
 1899.17940    0.80670  779.96490
 1899.36990    0.71200  814.41120
 1899.56030    0.70060  809.49030
 1899.75070    0.74230  762.74170
 1899.94120    0.87480  738.13710
 1900.13160    0.97330  762.74170
 1900.32200    0.96570  821.79260
 1900.51240    0.87860  845.16700
 1900.70290    1.13620  803.33920
 1900.89330    0.85210  711.07210
 1901.08370    1.03010  638.48860
 1901.27420    1.06800  643.40950
 1901.46460    1.09070  647.10020
 1901.65500    1.18160  608.96310
 1901.84550    1.29900  544.99120
 1902.03590    1.46190  517.92620
 1902.22630    1.64360  528.99820
 1902.41680    1.71180  560.98420
 1902.60720    1.43910  605.27240
 1902.79760    1.13240  658.17220
 1902.98810    0.93920  690.15820
 1903.17850    0.91650  640.94900
 1903.36890    0.87860  647.10020
 1903.55940    0.81800  669.24430
 1903.74980    0.82560  676.62570
 1903.94020    0.89000  656.94200
 1904.13070    0.98470  613.88400
 1904.32110    1.07560  595.43060
 1904.51150    1.15130  570.82600
 1904.70200    1.17400  514.23550
 1904.89240    1.14370  497.01230
 1905.08280    1.17020  516.69600
 1905.27330    1.20430  548.68190
 1905.46370    1.09830  567.13530
 1905.65410    1.13990  556.06330
 1905.84450    1.30280  527.76800
 1906.03500    1.23840  533.91920
 1906.22540    1.18920  563.44460
 1906.41580    1.30280  570.82600
 1906.60630    1.51110  553.60280
 1906.79670    1.66260  527.76800
 1906.98710    1.79510  481.01930
 1907.17760    1.89360  447.80320
 1907.36800    2.27230  445.34270
 1907.55840    2.83280  481.01930
 1907.74890    3.41980  536.37960
 1907.93930    3.54480  546.22140
 1908.12970    3.61300  532.68890
 1908.32020    3.56000  514.23550
 1908.51060    3.45390  497.01230
 1908.70100    3.36680  484.71000
 1908.89150    3.34030  499.47280
 1909.08190    3.36680  527.76800
 1909.27230    3.47660  546.22140
 1909.46280    3.43880  538.84010
 1909.65320    3.33650  524.07730
 1909.84360    3.26460  521.61690
 1910.03410    3.23050  594.20040
 1910.22450    3.34030  615.11420
 1910.41490    3.39330  597.89100
 1910.60530    3.36680  572.05620
 1910.79580    3.27210  551.14240
 1910.98620    3.16610  533.91920
 1911.17660    3.19640  530.22850
 1911.36710    3.29860  546.22140
 1911.55750    3.46910  586.81900
 1911.74790    3.51450  590.50970
 1911.93840    3.46150  581.89810
 1912.12880    3.25700  605.27240
 1912.31920    3.17370  642.17930
 1912.50970    3.15090  624.95610
 1912.70010    3.25700  600.35150
 1912.89050    3.21910  607.73290
 1913.08100    3.16610  578.20740
 1913.27140    3.19640  560.98420
 1913.46180    3.37820  618.80490
 1913.65230    3.52970  627.41650
 1913.84270    3.56750  608.96310
 1914.03310    3.51830  601.58170
 1914.22360    3.35550  638.48860
 1914.41400    3.59400  644.63970
 1914.60440    3.67360  631.10720
 1914.79490    3.65090  602.81200
 1914.98530    3.39710  578.20740
 1915.17570    3.42360  586.81900
 1915.36620 -9999.00000  627.41650
 1915.55660    3.23050  653.25130
 1915.74700    3.18880  645.86990
 1915.93740    3.21150  616.34450
 1916.12790    3.20400  602.81200
 1916.31830    3.10550  627.41650
 1916.50870    3.11310  648.33040
 1916.69920    3.19260  637.25830
 1916.88960    3.36680  605.27240
 1917.08000    3.40850  615.11420
 1917.27050    3.35920  613.88400
 1917.46090    3.34030  602.81200
 1917.65130    3.32140  575.74690
 1917.84180    3.23050  570.82600
 1918.03220    3.13200  600.35150
 1918.22260    3.15090  623.72580
 1918.41310    3.24940  620.03510
 1918.60350    3.34030  612.65380
 1918.79390    3.43120  637.25830
 1918.98440    3.52970  658.17220
 1919.17480    3.56750  643.40950
 1919.36520    3.54100  612.65380
 1919.55570    3.46910  613.88400
 1919.74610    3.45390  629.87700
 1919.93650    3.49940  617.57470
 1920.12700    3.55620  595.43060
