~Version ---------------------------------------------------
VERS.   2.0 : CWLS log ASCII Standard -VERSION 2.0
WRAP.    NO : One line per depth step
DLM . SPACE : Column Data Section Delimiter
~Well ------------------------------------------------------
STRT..M    0.19040 : START DEPTH
STOP..M 1920.12700 : STOP DEPTH
STEP..M    0.19050 : STEP
NULL.     -9999.25 : NULL VALUE
COMP.              : COMPANY
WELL.              : WELL
FLD .              : FIELD
LOC .              : LOCATION
PROV.              : PROVINCE
CNTY.              : COUNTY
STAT.              : STATE
CTRY.              : COUNTRY
SRVC.              : SERVICE COMPANY
DATE.              : DATE
UWI .              : UNIQUE WELL ID
API .              : API NUMBER
~Curve Information -----------------------------------------
DEPTH..M       : Depth
ГК   .имп/мин  : описание 1
НГК  .усл. ед  : описание 2
~Params ----------------------------------------------------
..M    0.0 : Start depth
..M 1920.0 : Stop depth
..M    0.2 : Step
..   -9999 : Null value
~Other -----------------------------------------------------
~ASCII -----------------------------------------------------
# ...
 1392.24910    3.24940  476.09840
 1392.43960    2.68510  499.47280
 1392.63000    2.24960  488.40070
 1392.82040    2.07160  455.18450
 1393.01090    1.83680  440.42180
 1393.20130    1.34820  479.78910
 1393.39170    0.88620  543.76100
 1393.58220    0.66280  583.12830
 1393.77260    0.51130  589.27940
 1393.96300    0.49610  597.89100
 1394.15350    0.59080  576.97720
 1394.34390    0.78020  553.60280
 1394.53430    0.95060  546.22140
 1394.72480    1.20050  536.37960
 1394.91520    1.40500  535.14940
 1395.10560    1.79890  521.61690
 1395.29610    2.09050  485.94020
 1395.48650    2.35940  471.17750
 1395.67690    2.57910  469.94730
 1395.86740    2.71540  461.33570
 1396.05780    2.84040  440.42180
 1396.24820    2.95400  423.19860
 1396.43870    3.06010  413.35680
 1396.62910    3.09040  412.12650
 1396.81950    2.98430  421.96840
 1397.01000    2.91610  442.88220
 1397.20040    2.57530  467.48680
 1397.39080    2.02240  482.24960
 1397.58120    1.42400  490.86120
 1397.77170    0.99980  506.85410
 1397.96210    0.72710  531.45870
 1398.15250    0.61350  553.60280
 1398.34300    0.59840  575.74690
 1398.53340    0.61730  585.58880
 1398.72380    0.60220  580.66780
 1398.91430    0.58700  573.28650
 1399.10470    0.58700  565.90510
 1399.29510    0.58320  569.59580
 1399.48560    0.68170  579.43760
 1399.67600    0.87480  588.04920
 1399.86640    0.99220  580.66780
 1400.05690    1.03770  572.05620
 1400.24730    1.04530  562.21440
 1400.43770    1.17780  562.21440
 1400.62820    1.40880  572.05620
 1400.81860    1.66640  589.27940
 1401.00900    1.87470  602.81200
 1401.19950    2.11700  567.13530
 1401.38990    2.35180  497.01230
 1401.58030    2.51850  481.01930
 1401.77080    2.63590  477.32860
 1401.96120    2.65480  462.56590
 1402.15160    2.56010  437.96130
 1402.34210    2.31400  425.65910
 1402.53250    2.25340  425.65910
 1402.72290    2.30260  434.27070
 1402.91330    2.23070  445.34270
 1403.10380    2.00720  457.64500
 1403.29420    1.79130  460.10540
 1403.48460    1.77240  452.72410
 1403.67510    1.85570  447.80320
 1403.86550    1.84060  473.63800
 1404.05590    1.74210  514.23550
 1404.24640    1.76860  516.69600
 1404.43680    1.88980  466.25660
 1404.62720    2.00720  456.41480
 1404.81770    2.04130  469.94730
 1405.00810    1.99590  468.71700
 1405.19850    1.88600  455.18450
 1405.38900    1.79130  439.19160
 1405.57940    1.79510  445.34270
 1405.76980    1.84820  472.40770
 1405.96030    1.87840  515.46570
 1406.15070    1.84820  563.44460
 1406.34110    1.81790  578.20740
 1406.53160    1.70800  540.07030
 1406.72200    1.73450  453.95430
 1406.91240    1.78380  433.04040
 1407.10290    1.84440  450.26360
 1407.29330    1.81410  453.95430
 1407.48370    1.57550  431.81020
 1407.67410    1.36340  420.73810
 1407.86460    1.13620  442.88220
 1408.05500    0.92030  479.78910
 1408.24540    0.84830  514.23550
 1408.43590    0.84830  538.84010
 1408.62630    0.97710  563.44460
 1408.81670    1.15890  588.04920
 1409.00720    1.30280  610.19330
 1409.19760    1.37850  607.73290
 1409.38800    1.37100  575.74690
 1409.57850    1.32550  553.60280
 1409.76890    1.20810  565.90510
 1409.95930    1.19680  585.58880
 1410.14980    1.29520  606.50260
 1410.34020    1.37850  682.77680
 1410.53060    1.35580  590.50970
 1410.72110    1.28760  574.51670
 1410.91150    1.20050  589.27940
 1411.10190    1.14370  607.73290
 1411.29240    1.15130  601.58170
 1411.48280    1.22710  574.51670
 1411.67320    1.25730  546.22140
 1411.86370    1.17400  543.76100
 1412.05410    1.04150  563.44460
 1412.24450    0.91650  592.97010
 1412.43500    0.81800  627.41650
 1412.62540    0.75370  659.40250
 1412.81580    0.74230  697.53950
 1413.00620    0.77260  706.15110
 1413.19670    0.84830  685.23730
 1413.38710    0.95820  654.48150
 1413.57750    0.92410  588.04920
 1413.76800    0.81800  551.14240
 1413.95840    0.78770  574.51670
 1414.14880    0.72710  622.49560
 1414.33930    0.66280  675.39540
 1414.52970    0.58320  718.45340
 1414.72010    0.57190  739.36730
 1414.91060    0.62490  735.67660
 1415.10100    0.73470  633.56770
 1415.29140    0.79530  487.17050
 1415.48190    0.87860  418.27770
 1415.67230    0.83320  414.58700
 1415.86270    0.68550  425.65910
 1416.05320    0.62110  437.96130
 1416.24360    0.45070  433.04040
 1416.43400    0.33330  447.80320
 1416.62450    0.32190  485.94020
 1416.81490    0.33710  538.84010
 1417.00530    0.45070  611.42360
 1417.19580    0.31060  675.39540
 1417.38620    0.35980  680.31630
 1417.57660    0.42420  637.25830
 1417.76710    0.43170  579.43760
 1417.95750    0.43170  558.52370
 1418.14790    0.43930  573.28650
 1418.33830    0.46200  608.96310
 1418.52880    0.49230  642.17930
 1418.71920    0.47720  707.38140
 1418.90960    0.42040  755.36030
 1419.10010    0.37110  808.26010
 1419.29050    0.37110  850.08790
 1419.48090    0.34840  861.15990
 1419.67140    0.31060  841.47630
 1419.86180    0.28780  814.41120
 1420.05220    0.31060  831.63440
 1420.24270    0.33710  857.46920
 1420.43310    0.34840  819.33220
 1420.62350    0.32190  734.44640
 1420.81400    0.31810  680.31630
 1421.00440    0.34840  636.02810
 1421.19480    0.45830  604.04220
 1421.38530    0.48850  594.20040
 1421.57570    0.54540  671.70470
 1421.76610    0.51130  736.90690
 1421.95660    0.40900  807.02990
 1422.14700    0.33710  875.92270
 1422.33740    0.33330  942.35500
 1422.52790    0.35600  997.71530
 1422.71830    0.34460 1045.69420
 1422.90870    0.29540 1072.75920
 1423.09920    0.31810 1093.67310
 1423.28960    0.39390 1129.34970
 1423.48000    0.49230 1161.33570
 1423.67040    0.53020 1016.16870
 1423.86090    0.45450  922.67140
 1424.05130    0.34840  880.84360
 1424.24170    0.34460  920.21090
 1424.43220    0.42420  963.26890
 1424.62260    0.50370 1000.17570
 1424.81300    0.52260 1007.55710
 1425.00350    0.49990  900.52720
 1425.19390    0.44690  807.02990
 1425.38430    0.38630  821.79260
 1425.57480    0.35600  855.00880
 1425.76520    0.32950  891.91560
 1425.95560    0.34840  930.05270
 1426.14610    0.40520  973.11070
 1426.33650    0.48480 1013.70830
 1426.52690    0.47340 1055.53600
 1426.71740    0.37870  986.64320
 1426.90780    0.31810  926.36200
 1427.09820    0.34080  987.87350
 1427.28870    0.40520 1040.77330
 1427.47910    0.51510 1081.37080
 1427.66950    0.60970 1023.55010
 1427.86000    0.74990 1023.55010
 1428.05040    0.83320  916.52020
 1428.24080    0.81800  853.77860
 1428.43120    0.72710  763.97190
 1428.62170    0.52640  740.59750
 1428.81210    0.43550  752.89980
 1429.00250    0.43930  797.18800
 1429.19300    0.48480  845.16700
 1429.38340    0.45070  866.08080
 1429.57380    0.35600  863.62040
 1429.76430    0.27270  871.00180
 1429.95470    0.26130  902.98770
 1430.14510    0.26510  949.73640
 1430.33560    0.23480  981.72230
 1430.52600    0.46580  957.11780
 1430.71640    0.17800  937.43410
 1430.90690    0.18940  959.57820
 1431.09730    0.22720  996.48510
 1431.28770    0.23480 1042.00350
 1431.47820    0.22340 1035.85240
 1431.66860    0.21970  985.41300
 1431.85900    0.25750 1024.78030
 1432.04950    0.32570  925.13180
 1432.23990    0.37870 1060.45690
 1432.43030    0.38630 1017.39890
 1432.62080    0.55290 1048.15470
 1432.81120    0.32950 1012.47800
 1433.00160    0.37110  963.26890
 1433.19210    0.46960  985.41300
 1433.38250    0.58320  994.02460
 1433.57290    0.77260  994.02460
 1433.76330    0.98470  976.80140
 1433.95380    1.25360  751.66960
 1434.14420    1.40130  749.20910
 1434.33460    1.34070  533.91920
 1434.52510    1.11340  501.93320
 1434.71550    0.98090  499.47280
 1434.90590    0.83320  514.23550
 1435.09640    0.54160  536.37960
 1435.28680    0.36740  583.12830
 1435.47720    0.31810  675.39540
 1435.66770    0.27270  768.89280
 1435.85810    0.26510  875.92270
 1436.04850    0.31810  943.58520
 1436.23900    0.40520 1005.09670
 1436.42940    0.56050 1057.99650
 1436.61980    0.67410  909.13880
 1436.81030    0.47720  916.52020
 1437.00070    0.32950  751.66960
