~Version ---------------------------------------------------
VERS.   2.0 : CWLS log ASCII Standard -VERSION 2.0
WRAP.    NO : One line per depth step
DLM . SPACE : Column Data Section Delimiter
~Well ------------------------------------------------------
STRT..M    0.19040 : START DEPTH
STOP..M 1920.12700 : STOP DEPTH
STEP..M    0.19050 : STEP
NULL.     -9999.25 : NULL VALUE
COMP.              : COMPANY
WELL.              : WELL
FLD .              : FIELD
LOC .              : LOCATION
PROV.              : PROVINCE
CNTY.              : COUNTY
STAT.              : STATE
CTRY.              : COUNTRY
SRVC.              : SERVICE COMPANY
DATE.              : DATE
UWI .              : UNIQUE WELL ID
API .              : API NUMBER
~Curve Information -----------------------------------------
DEPTH..M       : Depth
ГК   .имп/мин  : описание 1
НГК  .усл. ед  : описание 2
~Params ----------------------------------------------------
..M    0.0 : Start depth
..M 1920.0 : Stop depth
..M    0.2 : Step
..   -9999 : Null value
~Other -----------------------------------------------------
~ASCII -----------------------------------------------------
    0.19040 -9999.00000 -9999.00000
    0.38090 -9999.00000 -9999.00000
    0.57130 -9999.00000 -9999.00000
    0.76170 -9999.00000 -9999.00000
    0.95220 -9999.00000 -9999.00000
    1.14260 -9999.00000 -9999.00000
    1.33300 -9999.00000 -9999.00000
    1.52350 -9999.00000 -9999.00000
    1.71390 -9999.00000 -9999.00000
    1.90430 -9999.00000 -9999.00000
    2.09480 -9999.00000 -9999.00000
    2.28520 -9999.00000 -9999.00000
    2.47560 -9999.00000 1288.04920
    2.66600 -9999.00000 -9999.00000
    2.85650    0.73470 -9999.00000
    3.04690    0.89760 -9999.00000
    3.23730    0.46200 -9999.00000
    3.42780    0.36360 -9999.00000
    3.61820    0.33330 -9999.00000
    3.80860    0.36360 -9999.00000
    3.99910    0.43170 -9999.00000
    4.18950    0.50370 -9999.00000
    4.37990    0.52260 -9999.00000
    4.57040    0.45450 -9999.00000
    4.76080    0.43930 -9999.00000
    4.95120    0.47720 -9999.00000
    5.14170    0.53780 -9999.00000
    5.33210    0.55290 -9999.00000
    5.52250    0.55290 -9999.00000
    5.71300    0.57570 -9999.00000
    5.90340    0.62870 -9999.00000
    6.09380    0.68930  601.58170
    6.28430    0.71200  439.19160
    6.47470    0.68170  308.78730
    6.66510    0.64380  295.25480
    6.85560    0.58700  301.40600
    7.04600    0.54910  281.72230
    7.23640    0.59080  273.11070
    7.42690    0.66650  289.10370
    7.61730    0.70060  292.79440
    7.80770    0.65900  294.02460
    7.99810    0.61730  303.86640
    8.18860    0.63620  324.78030
    8.37900    0.67030  312.47800
    8.56940    0.68930  302.63620
    8.75990    0.68170  329.70120
    8.95030    0.64760  323.55010
    9.14070    0.59840  301.40600
    9.33120    0.59080  300.17570
    9.52160    0.59080  319.85940
    9.71200    0.56050  339.54310
    9.90250    0.48480  310.01760
   10.09290    0.45450  308.78730
   10.28330    0.51510  329.70120
   10.47380    0.53780  322.31990
   10.66420    0.48480  305.09670
   10.85460    0.49230  291.56410
   11.04510    0.58320  306.32690
   11.23550    0.59840  295.25480
   11.42590    0.54540  278.03160
   11.61640    0.55290  268.18980
   11.80680    0.55670  312.47800
   11.99720    0.52260  337.08260
   12.18770    0.57570  318.62920
   12.37810    0.56050  290.33390
   12.56850    0.46960  265.72930
   12.75900    0.41660  246.04570
   12.94940    0.41660  269.42000
   13.13980    0.45450  291.56410
   13.33020    0.54160  279.26190
   13.52070    0.59080  258.34800
   13.71110    0.65900  268.18980
   13.90150    0.68550  282.95250
   14.09200    0.61350  285.41300
   14.28240    0.56050  289.10370
   14.47280    0.59840  301.40600
   14.66330    0.58320  314.93850
   14.85370    0.56810  317.39890
   15.04410    0.62870  322.31990
   15.23460    0.68170  311.24780
   15.42500    0.66280  292.79440
   15.61540    0.56810  282.95250
   15.80590    0.51130  290.33390
   15.99630    0.51880  305.09670
   16.18670    0.56430  307.55710
   16.37720    0.60600  314.93850
   16.56760    0.57940  338.31280
   16.75800    0.50750  334.62210
   16.94850    0.50750  317.39890
   17.13890    0.52640  323.55010
   17.32930    0.44690  337.08260
   17.51980    0.45830  339.54310
   17.71020    0.49230  345.69420
   17.90060    0.46960  364.14760
   18.09110    0.45450  373.98950
   18.28150    0.50750  351.84530
   18.47190    0.55290  333.39190
   18.66230    0.60970  303.86640
   18.85280    0.55670  291.56410
   19.04320    0.51510  317.39890
   19.23360    0.46580  334.62210
   19.42410    0.46960  349.38490
   19.61450    0.51130  364.14760
   19.80490    0.54910  366.60810
   19.99540    0.54540  351.84530
   20.18580    0.51130  335.85240
   20.37620    0.49990  321.08960
   20.56670    0.52260  311.24780
   20.75710    0.56050  329.70120
   20.94750    0.60220  332.16170
   21.13800    0.64000  310.01760
   21.32840    0.64380  300.17570
   21.51880    0.60970  307.55710
   21.70930    0.60220  319.85940
   21.89970    0.65140  332.16170
   22.09010    0.70060  327.24080
   22.28060    0.64000  342.00350
   22.47100    0.54910  429.34970
   22.66140    0.51510  324.78030
   22.85190    0.54910  319.85940
   23.04230    0.62110  338.31280
   23.23270    0.70440  334.62210
   23.42310    0.75740  319.85940
   23.61360    0.73470  310.01760
   23.80400    0.68930  321.08960
   23.99440    0.63620  337.08260
   24.18490    0.58700  329.70120
   24.37530    0.53780  318.62920
   24.56570    0.52260  307.55710
   24.75620    0.53020  296.48510
   24.94660    0.53780  303.86640
   25.13700    0.51510  319.85940
   25.32750    0.49230  326.01050
   25.51790    0.51510  316.16870
   25.70830    0.55290  302.63620
   25.89880    0.60970  292.79440
   26.08920    0.62870  311.24780
   26.27960    0.59840  307.55710
   26.47010    0.54540  294.02460
   26.66050    0.53020  282.95250
   26.85090    0.56050  275.57120
   27.04140    0.59080  287.87350
   27.23180    0.56050  306.32690
   27.42220    0.53400  314.93850
   27.61270    0.52260  310.01760
   27.80310    0.55290  306.32690
   27.99350    0.61350  313.70830
   28.18400    0.68930  329.70120
   28.37440    0.74990  337.08260
   28.56480    0.71960  317.39890
   28.75520    0.61350  292.79440
   28.94570    0.53780  285.41300
   29.13610    0.53780  284.18280
   29.32650    0.58320  294.02460
   29.51700    0.64000  307.55710
   29.70740    0.66650  319.85940
   29.89780    0.64000  316.16870
   30.08830    0.59840  314.93850
   30.27870    0.59080  314.93850
   30.46910    0.59080  428.11950
   30.65960    0.56050  311.24780
   30.85000    0.52260  332.16170
   31.04040    0.49610  344.46400
   31.23090    0.49610  339.54310
   31.42130    0.53020  329.70120
   31.61170    0.58700  334.62210
   31.80220    0.63250  343.23370
   31.99260    0.62490  340.77330
   32.18300    0.59840  332.16170
   32.37350    0.57570  324.78030
   32.56390    0.59460  327.24080
   32.75430    0.58320  328.47100
   32.94480    0.57190  323.55010
   33.13520    0.61730  316.16870
   33.32560    0.70440  307.55710
   33.51610    0.70060  297.71530
   33.70650    0.68550  290.33390
   33.89690    0.68930  301.40600
   34.08730    0.65900  310.01760
   34.27780    0.60600  297.71530
   34.46820    0.57570  285.41300
   34.65860    0.55670  292.79440
   34.84910    0.56810  306.32690
   35.03950    0.61730  322.31990
   35.22990    0.63250  322.31990
   35.42040    0.63620  310.01760
   35.61080    0.67030  301.40600
   35.80120    0.74990  292.79440
   35.99170    0.81050  297.71530
   36.18210    0.79530  313.70830
   36.37250    0.76500  317.39890
   36.56300    0.71580  305.09670
   36.75340    0.67410  294.02460
   36.94380    0.65140  292.79440
   37.13430    0.66650  302.63620
   37.32470    0.71200  318.62920
   37.51510    0.75370  322.31990
   37.70560    0.74990  329.70120
   37.89600    0.68930  327.24080
   38.08640    0.65140  310.01760
   38.27690    0.59460  297.71530
   38.46730    0.58320  298.94550
   38.65770    0.62870  307.55710
   38.84820    0.64380  319.85940
   39.03860    0.61350  335.85240
   39.22900    0.56810  332.16170
   39.41940    0.52260  412.12650
   39.60990    0.54160  327.24080
   39.80030    0.60970  334.62210
   39.99070    0.68550  323.55010
   40.18120    0.68930  305.09670
   40.37160    0.66280  302.63620
   40.56200    0.64000  318.62920
   40.75250    0.60600  317.39890
   40.94290    0.59840  302.63620
   41.13330    0.62110  287.87350
   41.32380    0.62870  300.17570
   41.51420    0.62110  307.55710
   41.70460    0.60970  280.49210
   41.89510    0.58700  260.80840
   42.08550    0.56810  255.88750
   42.27590    0.55290  264.49910
   42.46640    0.54540  276.80140
   42.65680    0.57570  290.33390
   42.84720    0.63620  301.40600
   43.03770    0.68930  302.63620
   43.22810    0.68170  297.71530
   43.41850    0.65140  306.32690
   43.60900    0.62110  321.08960
   43.79940    0.62110  319.85940
   43.98980    0.68930  310.01760
   44.18020    0.72340  301.40600
   44.37070 -9999.00000  484.71000
   44.56110    0.57940  310.01760
