~Version ---------------------------------------------------
VERS.   2.0 : CWLS log ASCII Standard -VERSION 2.0
WRAP.    NO : One line per depth step
DLM . SPACE : Column Data Section Delimiter
~Well ------------------------------------------------------
STRT..M    0.19040 : START DEPTH
STOP..M 1920.12700 : STOP DEPTH
STEP..M    0.19050 : STEP
NULL.     -9999.25 : NULL VALUE
COMP.              : COMPANY
WELL.              : WELL
FLD .              : FIELD
LOC .              : LOCATION
PROV.              : PROVINCE
CNTY.              : COUNTY
STAT.              : STATE
CTRY.              : COUNTRY
SRVC.              : SERVICE COMPANY
DATE.              : DATE
UWI .              : UNIQUE WELL ID
API .              : API NUMBER
~Curve Information -----------------------------------------
DEPTH..M       : Depth
ГК   .имп/мин  : описание 1
НГК  .усл. ед  : описание 2
~Params ----------------------------------------------------
..M    0.0 : Start depth
..M 1920.0 : Stop depth
..M    0.2 : Step
..   -9999 : Null value
~Other -----------------------------------------------------
~ASCII -----------------------------------------------------
# ...
 1257.42320    0.44690  964.49910
 1257.61360    0.47720  991.56410
 1257.80410    0.46960  939.89460
 1257.99450    0.43170  875.92270
 1258.18490    0.37870  839.01580
 1258.37540    0.34840  861.15990
 1258.56580    0.36360  863.62040
 1258.75620    0.42040  836.55540
 1258.94670    0.47340  847.62740
 1259.13710    0.50750  847.62740
 1259.32750    0.49610  831.63440
 1259.51800    0.42420  904.21790
 1259.70840    0.35980  976.80140
 1259.89880    0.38250  947.27590
 1260.08930    0.43550  902.98770
 1260.27970    0.49230  896.83660
 1260.47010    0.49990  896.83660
 1260.66060    0.44690  818.10190
 1260.85100    0.42040  803.33920
 1261.04140    0.46200  834.09490
 1261.23190    0.52260  841.47630
 1261.42230    0.50750  921.44110
 1261.61270    0.43170  837.78560
 1261.80320    0.39390  863.62040
 1261.99360    0.40140  866.08080
 1262.18400    0.37490  853.77860
 1262.37450    0.31430  867.31110
 1262.56490    0.27270  898.06680
 1262.75530    0.31430  889.45520
 1262.94570    0.37110  843.93670
 1263.13620    0.37110  824.25310
 1263.32660    0.33330  847.62740
 1263.51700    0.32570  899.29700
 1263.70750    0.28400  910.36910
 1263.89790    0.24620  877.15290
 1264.08830    0.26130  857.46920
 1264.27880    0.29540  843.93670
 1264.46920    0.34840  884.53430
 1264.65960    0.38630  910.36910
 1264.85010    0.37110  895.60630
 1265.04050    0.33710  916.52020
 1265.23090    0.29540  989.10370
 1265.42140    0.27650 1055.53600
 1265.61180    0.29920 1065.37790
 1265.80220    0.34840 1022.31990
 1265.99270    0.39390  959.57820
 1266.18310    0.38630  962.03870
 1266.37350    0.37110  933.74340
 1266.56400    0.42040  905.44820
 1266.75440    0.50370  917.75040
 1266.94480    0.54160  905.44820
 1267.13530    0.54540  866.08080
 1267.32570    0.57570  819.33220
 1267.51610    0.65140  814.41120
 1267.70650    0.68170  858.69950
 1267.89700    0.64000  843.93670
 1268.08740    0.56430  807.02990
 1268.27780    0.47720  799.64850
 1268.46830    0.47720  803.33920
 1268.65870    0.48100  784.88580
 1268.84910    0.44310  820.56240
 1269.03960    0.36360  825.48330
 1269.23000    0.34840  787.34620
 1269.42040    0.36360  804.56940
 1269.61090    0.40140  852.54830
 1269.80130    0.44690  874.69240
 1269.99170    0.44690  899.29700
 1270.18220    0.38630  949.73640
 1270.37260    0.32570  987.87350
 1270.56300    0.26510  974.34090
 1270.75350    0.26130  914.05980
 1270.94390    0.29160  839.01580
 1271.13430    0.33330  839.01580
 1271.32480    0.38630  848.85760
 1271.51520    0.45450  884.53430
 1271.70560    0.46200  927.59230
 1271.89610    0.44310  883.30400
 1272.08650    0.43930  829.17400
 1272.27690    0.38250  786.11600
 1272.46740    0.37110  744.28820
 1272.65780    0.24240  743.05800
 1272.84820    0.24240  731.98590
 1273.03860    0.27270  698.76980
 1273.22910    0.28780  679.08610
 1273.41950    0.26510  707.38140
 1273.60990    0.25750  724.60460
 1273.80040    0.28780  696.30930
 1273.99080    0.30300  686.46750
 1274.18120    0.28030  724.60460
 1274.37170    0.24620  750.43940
 1274.56210    0.24620  752.89980
 1274.75250    0.28030  795.95780
 1274.94300    0.31810  871.00180
 1275.13340    0.36740  949.73640
 1275.32380    0.40140 1003.86640
 1275.51430    0.39390 1003.86640
 1275.70470    0.33710  976.80140
 1275.89510    0.28400  890.68540
 1276.08560    0.24240  850.08790
 1276.27600    0.25000  891.91560
 1276.46640    0.31060  931.28300
 1276.65690    0.36360  905.44820
 1276.84730    0.35980  873.46220
 1277.03770    0.32190  878.38310
 1277.22820    0.34080  901.75750
 1277.41860    0.43930  946.04570
 1277.60900    0.48850  984.18280
 1277.79950    0.46960  994.02460
 1277.98990    0.41660  974.34090
 1278.18030    0.38630  970.65030
 1278.37070    0.39390  980.49210
 1278.56120    0.42420  948.50620
 1278.75160    0.45450  878.38310
 1278.94200    0.43930  840.24600
 1279.13250    0.39390  835.32510
 1279.32290    0.40900  866.08080
 1279.51330    0.43550  893.14590
 1279.70380    0.41660  893.14590
 1279.89420    0.37110  912.82950
 1280.08460    0.30300  947.27590
 1280.27510    0.29540  954.65730
 1280.46550    0.35600  938.66430
 1280.65590    0.40900  936.20390
 1280.84640    0.41280  957.11780
 1281.03680    0.35600  989.10370
 1281.22720    0.35600 1001.40600
 1281.41770    0.42040  991.56410
 1281.60810    0.49990  981.72230
 1281.79850    0.54540  989.10370
 1281.98900    0.54540  957.11780
 1282.17940    0.57570  885.76450
 1282.36980    0.62490  823.02280
 1282.56030    0.52640  777.50440
 1282.75070    0.33330  763.97190
 1282.94110    0.31810  776.27420
 1283.13160    0.36360  772.58350
 1283.32200    0.41660  749.20910
 1283.51240    0.39390  745.51850
 1283.70280    0.32570  777.50440
 1283.89330    0.26890  775.04390
 1284.08370    0.26890  743.05800
 1284.27410    0.29160  730.75570
 1284.46460    0.31060  750.43940
 1284.65500    0.31060  760.28120
 1284.84540    0.29160  735.67660
 1285.03590    0.26510  724.60460
 1285.22630    0.24620  751.66960
 1285.41670    0.25750  743.05800
 1285.60720    0.27270  712.30230
 1285.79760    0.30300  709.84180
 1285.98800    0.33330  713.53250
 1286.17850    0.35220  750.43940
 1286.36890    0.33330  773.81370
 1286.55930    0.28780  745.51850
 1286.74980    0.27270  703.69070
 1286.94020    0.28780  670.47450
 1287.13060    0.27650  676.62570
 1287.32110    0.24240  718.45340
 1287.51150    0.23860  730.75570
 1287.70190    0.28780  787.34620
 1287.89240    0.34080  797.18800
 1288.08280    0.34460  789.80670
 1288.27320    0.49610  855.00880
 1288.46360    0.25000  966.95960
 1288.65410    0.24620  998.94550
 1288.84450    0.27270  984.18280
 1289.03490    0.31060  942.35500
 1289.22540    0.32950  925.13180
 1289.41580    0.29920  885.76450
 1289.60620    0.26510  782.42530
 1289.79670    0.23100  783.65550
 1289.98710    0.22720  834.09490
 1290.17750    0.24240  802.10900
 1290.36800    0.23860  794.72760
 1290.55840    0.21210  851.31810
 1290.74880    0.17420  826.71350
 1290.93930    0.18180  815.64150
 1291.12970    0.21590  799.64850
 1291.32010    0.27270  847.62740
 1291.51060    0.37110  905.44820
 1291.70100    0.41660  898.06680
 1291.89140    0.47720  925.13180
 1292.08190    0.44690 1003.86640
 1292.27230    0.31060 1065.37790
 1292.46270    0.31810 1082.60110
 1292.65320    0.32570  984.18280
 1292.84360    0.29540  944.81550
 1293.03400    0.25000  902.98770
 1293.22450    0.20450  831.63440
 1293.41490    0.21590  830.40420
 1293.60530    0.25750  832.86470
 1293.79570    0.32570  810.72060
 1293.98620    0.39390  799.64850
 1294.17660    0.45450  816.87170
 1294.36700    0.38630  814.41120
 1294.55750    0.21970  773.81370
 1294.74790    0.42420  718.45340
 1294.93830    0.20450  660.63270
 1295.12880    0.25000  585.58880
 1295.31920    0.30680  548.68190
 1295.50960    0.31060  551.14240
 1295.70010    0.26890  580.66780
 1295.89050    0.23480  588.04920
 1296.08090    0.25000  578.20740
 1296.27140    0.31060  604.04220
 1296.46180    0.35220  664.32340
 1296.65220    0.32570  756.59050
 1296.84270    0.30680  834.09490
 1297.03310    0.32570  884.53430
 1297.22350    0.33330  889.45520
 1297.41400    0.56430  866.08080
 1297.60440    0.28780  866.08080
 1297.79480    0.32570  886.99470
 1297.98530    0.38630  859.92970
 1298.17570    0.40140  788.57640
 1298.36610    0.36360  782.42530
 1298.55660    0.33330  816.87170
 1298.74700    0.35600  836.55540
 1298.93740    0.39390  839.01580
 1299.12780    0.38630  873.46220
 1299.31830    0.37110  911.59930
 1299.50870    0.43930  910.36910
 1299.69910    0.46960  891.91560
 1299.88960    0.44690  893.14590
 1300.08000    0.46200  893.14590
 1300.27040    0.56810  839.01580
 1300.46090    0.80290  718.45340
 1300.65130    0.92030  647.10020
 1300.84170    0.74990  649.56060
 1301.03220    0.49610  741.82780
 1301.22260    0.43550  882.07380
 1301.41300    0.48480  973.11070
 1301.60350    0.52260  974.34090
 1301.79390    0.60600  918.98070
 1301.98430    0.43930  914.05980
 1302.17480    0.42800  939.89460
