~Version ---------------------------------------------------
VERS.   2.0 : CWLS log ASCII Standard -VERSION 2.0
WRAP.    NO : One line per depth step
DLM . SPACE : Column Data Section Delimiter
~Well ------------------------------------------------------
STRT..M    0.19040 : START DEPTH
STOP..M 1920.12700 : STOP DEPTH
STEP..M    0.19050 : STEP
NULL.     -9999.25 : NULL VALUE
COMP.              : COMPANY
WELL.              : WELL
FLD .              : FIELD
LOC .              : LOCATION
PROV.              : PROVINCE
CNTY.              : COUNTY
STAT.              : STATE
CTRY.              : COUNTRY
SRVC.              : SERVICE COMPANY
DATE.              : DATE
UWI .              : UNIQUE WELL ID
API .              : API NUMBER
~Curve Information -----------------------------------------
DEPTH..M       : Depth
ГК   .имп/мин  : описание 1
НГК  .усл. ед  : описание 2
~Params ----------------------------------------------------
..M    0.0 : Start depth
..M 1920.0 : Stop depth
..M    0.2 : Step
..   -9999 : Null value
~Other -----------------------------------------------------
~ASCII -----------------------------------------------------
# ...
  628.42600    0.94300  676.62570
  628.61640    0.89380  671.70470
  628.80680    0.79530  686.46750
  628.99730    0.68550  725.83480
  629.18770    0.62870  765.20210
  629.37810    0.67410  765.20210
  629.56860    0.77640  725.83480
  629.75900    0.91650  687.69770
  629.94940    0.96190  656.94200
  630.13980    0.87860  659.40250
  630.33030    0.81800  674.16520
  630.52070    0.85970  670.47450
  630.71110    0.85970  686.46750
  630.90160    0.78020  711.07210
  631.09200    0.70820  723.37430
  631.28240    0.66650  709.84180
  631.47290    0.74230  691.38840
  631.66330    0.78390  681.54660
  631.85370    0.65900  686.46750
  632.04420    0.53020  696.30930
  632.23460    0.56430  712.30230
  632.42500    0.71580  729.52550
  632.61550    0.83320  747.97890
  632.80590    0.87110  757.82070
  632.99630    0.95820  745.51850
  633.18680    0.91650  713.53250
  633.37720    0.70820  674.16520
  633.56760    0.71200  633.56770
  633.75810    0.92790  617.57470
  633.94850    1.02630  647.10020
  634.13890    0.92410  679.08610
  634.32940    0.83700  708.61160
  634.51980    0.87110  734.44640
  634.71020    1.05660  715.99300
  634.90070    1.24600  680.31630
  635.09110    1.33690  656.94200
  635.28150    1.18920  632.33740
  635.47190    1.03770  612.65380
  635.66240    0.89380  617.57470
  635.85280    0.81050  706.15110
  636.04320    0.85590  620.03510
  636.23370    1.04910  632.33740
  636.42410    1.20050  650.79090
  636.61450    1.22710  666.78380
  636.80500    1.16650  654.48150
  636.99540    1.10590  652.02110
  637.18580    1.09450  675.39540
  637.37630    1.10590  684.00700
  637.56670    1.06040  681.54660
  637.75710    0.97330  696.30930
  637.94760    0.93920  711.07210
  638.13800    0.90510  679.08610
  638.32840    0.84080  632.33740
  638.51890    0.72710  605.27240
  638.70930    0.59080  620.03510
  638.89970    0.56050  645.86990
  639.09020    0.59840  650.79090
  639.28060    0.66280  642.17930
  639.47100    0.78390  629.87700
  639.66150    0.87860  624.95610
  639.85190    0.88620  638.48860
  640.04230    0.84080  655.71180
  640.23280    0.78390  661.86290
  640.42320    0.79530  644.63970
  640.61360    0.88620  629.87700
  640.80400    1.01880  639.71880
  640.99450    1.13990  654.48150
  641.18490    1.20430  659.40250
  641.37530    1.28760  639.71880
  641.56580    1.53760  600.35150
  641.75620    1.65880  599.12130
  641.94660    1.46940  622.49560
  642.13710    1.30280  628.64670
  642.32750    1.12100  640.94900
  642.51790    0.96950  664.32340
  642.70840    0.86350  686.46750
  642.89880    0.83320  656.94200
  643.08920    0.84080  600.35150
  643.27970    0.90890  556.06330
  643.47010    1.04530  536.37960
  643.66050    1.16650  553.60280
  643.85100    1.10210  653.25130
  644.04140    0.87110  583.12830
  644.23180    0.79910  600.35150
  644.42230    0.77640  610.19330
  644.61270    0.72340  610.19330
  644.80310    0.63620  617.57470
  644.99360    0.56810  632.33740
  645.18400    0.54160  637.25830
  645.37440    0.56050  643.40950
  645.56480    0.61350  659.40250
  645.75530    0.66650  674.16520
  645.94570    0.73470  670.47450
  646.13610    0.80290  648.33040
  646.32660    0.84450  624.95610
  646.51700    0.81050  601.58170
  646.70740    0.74990  584.35850
  646.89790    0.81420  637.25830
  647.08830    0.90140  589.27940
  647.27870    0.93920  558.52370
  647.46920    0.90510  509.31460
  647.65960    0.86350  479.78910
  647.85000    0.92410  499.47280
  648.04050    1.03010  521.61690
  648.23090    1.14370  543.76100
  648.42130    1.25730  543.76100
  648.61180    1.36340  522.84710
  648.80220    1.32550  506.85410
  648.99260    1.04530  511.77500
  649.18310    0.92790  494.55180
  649.37350    0.81050  471.17750
  649.56390    0.85210  465.02640
  649.75440    0.96570  493.32160
  649.94480    1.04150  527.76800
  650.13520    1.03770  556.06330
  650.32570    1.10210  591.73990
  650.51610    1.21570  631.10720
  650.70650    1.33310  632.33740
  650.89690    1.45430  739.36730
  651.08740    1.49220  543.76100
  651.27780    1.28760  506.85410
  651.46820    0.98090  474.86820
  651.65870    0.78020  474.86820
  651.84910    0.67790  559.75400
  652.03950    0.60600  521.61690
  652.23000    0.58320  531.45870
  652.42040    0.64380  548.68190
  652.61080    0.74990  580.66780
  652.80130    0.82180  596.66080
  652.99170    0.91650  575.74690
  653.18210    1.02250  562.21440
  653.37260    1.09070  578.20740
  653.56300    0.91650  602.81200
  653.75340    0.92410  627.41650
  653.94390    1.05280  654.48150
  654.13430    1.15130  672.93500
  654.32470    1.28010  679.08610
  654.51520    1.36340  695.07910
  654.70560    1.22330  728.29530
  654.89600    1.14750  754.13010
  655.08650    1.15510  752.89980
  655.27690    1.20430  711.07210
  655.46730    1.25360  672.93500
  655.65780    1.21950  647.10020
  655.84820    1.12480  664.32340
  656.03860    1.00740  691.38840
  656.22900    0.89760  718.45340
  656.41950    0.82560  712.30230
  656.60990    0.74990  679.08610
  656.80030    0.70060  644.63970
  656.99080    0.62110  610.19330
  657.18120    0.59840  612.65380
  657.37160    0.67030  638.48860
  657.56210    0.80670  658.17220
  657.75250    0.83320  663.09310
  657.94290    0.73850  713.53250
  658.13340    0.64000  686.46750
  658.32380    0.55290  695.07910
  658.51420    0.56810  681.54660
  658.70470    0.61730  664.32340
  658.89510    0.64000  690.15820
  659.08550    0.66280  624.95610
  659.27600    0.74990  608.96310
  659.46640    0.84080  605.27240
  659.65680    0.85590  620.03510
  659.84730    0.79910  638.48860
  660.03770    0.71200  642.17930
  660.22810    0.61350  652.02110
  660.41860    0.60220  674.16520
  660.60900    0.65140  675.39540
  660.79940    0.72340  658.17220
  660.98990    0.80290  639.71880
  661.18030    0.86350  629.87700
  661.37070    0.93170  636.02810
  661.56110    0.98850  660.63270
  661.75160    0.93920  696.30930
  661.94200    0.82560  739.36730
  662.13240    0.74230  723.37430
  662.32290    0.71960  725.83480
  662.51330    0.78770  711.07210
  662.70370    0.84080  684.00700
  662.89420    0.86350  659.40250
  663.08460 -9999.00000  639.71880
  663.27500 -9999.00000  652.02110
  663.46550 -9999.00000  664.32340
  663.65590    0.90890  679.08610
  663.84630    0.81420  704.92090
  664.03680    0.70440  745.51850
  664.22720    0.57570  791.03690
  664.41760    0.57570  827.94380
  664.60810    0.62110  831.63440
  664.79850    0.66280  792.26710
  664.98890    0.72710  765.20210
  665.17940    0.74230  747.97890
  665.36980    0.77260  746.74870
  665.56020    0.80290  728.29530
  665.75070    0.85590  696.30930
  665.94110    0.84830  654.48150
  666.13150    0.76120  607.73290
  666.32190    0.70820  623.72580
  666.51240    0.75740  644.63970
  666.70280    0.86730  666.78380
  666.89320    0.95060  808.26010
  667.08370    0.93540  686.46750
  667.27410    0.84450  696.30930
  667.46450    0.74990  702.46050
  667.65500    0.73470  709.84180
  667.84540    0.82180  704.92090
  668.03580    0.95440  675.39540
  668.22630    0.98850  656.94200
  668.41670    0.94680  634.79790
  668.60710    0.87110  610.19330
  668.79760    0.90140  578.20740
  668.98800    1.01500  553.60280
  669.17840    0.99980  526.53780
  669.36890    0.92030  499.47280
  669.55930    0.81050  476.09840
  669.74970    0.67790  462.56590
  669.94020    0.57570  472.40770
  670.13060    0.53780  501.93320
  670.32100    0.58320  536.37960
  670.51150    0.67410  565.90510
  670.70190    0.77260  604.04220
  670.89230    0.93920  654.48150
  671.08280    1.01500  669.24430
  671.27320    0.98850  652.02110
  671.46360    0.85970  624.95610
  671.65400    0.86350  637.25830
  671.84450    1.00740  715.99300
  672.03490    1.14370  723.37430
  672.22530    1.24220  760.28120
  672.41580    1.33310  723.37430
  672.60620    1.45430  682.77680
  672.79660    1.60580  703.69070
  672.98710    1.74590  751.66960
  673.17750    1.80650  791.03690
