~Version ---------------------------------------------------
VERS.   2.0 : CWLS log ASCII Standard -VERSION 2.0
WRAP.    NO : One line per depth step
DLM . SPACE : Column Data Section Delimiter
~Well ------------------------------------------------------
STRT..M    0.19040 : START DEPTH
STOP..M 1920.12700 : STOP DEPTH
STEP..M    0.19050 : STEP
NULL.     -9999.25 : NULL VALUE
COMP.              : COMPANY
WELL.              : WELL
FLD .              : FIELD
LOC .              : LOCATION
PROV.              : PROVINCE
CNTY.              : COUNTY
STAT.              : STATE
CTRY.              : COUNTRY
SRVC.              : SERVICE COMPANY
DATE.              : DATE
UWI .              : UNIQUE WELL ID
API .              : API NUMBER
~Curve Information -----------------------------------------
DEPTH..M       : Depth
ГК   .имп/мин  : описание 1
НГК  .усл. ед  : описание 2
~Params ----------------------------------------------------
..M    0.0 : Start depth
..M 1920.0 : Stop depth
..M    0.2 : Step
..   -9999 : Null value
~Other -----------------------------------------------------
~ASCII -----------------------------------------------------
# ...
 1616.95900    0.12880  884.53430
 1617.14950    0.17420  847.62740
 1617.33990    0.20450  826.71350
 1617.53030    0.18180  866.08080
 1617.72080    0.15910  943.58520
 1617.91120    0.15150  890.68540
 1618.10160    0.15910  874.69240
 1618.29210    0.18940  875.92270
 1618.48250    0.18940  888.22500
 1618.67290    0.15150  910.36910
 1618.86340    0.13260  939.89460
 1619.05380    0.14390  900.52720
 1619.24420    0.17040  794.72760
 1619.43470    0.15910  843.93670
 1619.62510    0.12880  889.45520
 1619.81550    0.10600  942.35500
 1620.00600    0.10600  963.26890
 1620.19640    0.14010  944.81550
 1620.38680    0.18180  982.95250
 1620.57720    0.18940  966.95960
 1620.76770    0.15150  930.05270
 1620.95810    0.14010  910.36910
 1621.14850    0.56430  949.73640
 1621.33900    0.19690 1006.32690
 1621.52940    0.21210 1048.15470
 1621.71980    0.18180 1061.68720
 1621.91030    0.15150 1017.39890
 1622.10070    0.15910  986.64320
 1622.29110    0.19690  958.34800
 1622.48160    0.24240  969.42000
 1622.67200    0.25750  992.79440
 1622.86240    0.25000  963.26890
 1623.05290    0.23860  984.18280
 1623.24330    0.18180 1022.31990
 1623.43370    0.15150 1003.86640
 1623.62420    0.14770 1008.78730
 1623.81460    0.15910  979.26190
 1624.00500    0.15910  922.67140
 1624.19550    0.14770  969.42000
 1624.38590    0.15910 1013.70830
 1624.57630    0.17040  998.94550
 1624.76680    0.14010  917.75040
 1624.95720    1.43160  884.53430
 1625.14760    0.18180  885.76450
 1625.33810    0.20450  931.28300
 1625.52850    0.15910  954.65730
 1625.71890    0.15530  954.65730
 1625.90930    0.19690  973.11070
 1626.09980    0.18940  995.25480
 1626.29020    0.14390  968.18980
 1626.48060    0.15910  936.20390
 1626.67110    0.18940  952.19680
 1626.86150    0.64760  912.82950
 1627.05190    0.11740  895.60630
 1627.24240    0.15150  877.15290
 1627.43280    0.18940  840.24600
 1627.62320    0.18940  819.33220
 1627.81370    0.20450  867.31110
 1628.00410    0.21970  866.08080
 1628.19450    0.17040  837.78560
 1628.38500    0.14390  858.69950
 1628.57540    0.18940  880.84360
 1628.76580    0.18940  857.46920
 1628.95630    0.14010  805.79960
 1629.14670    0.13260  789.80670
 1629.33710    0.15910  777.50440
 1629.52760    0.19690  762.74170
 1629.71800    0.20450  814.41120
 1629.90840    0.19690  834.09490
 1630.09890    0.20830  868.54130
 1630.28930    0.24620  922.67140
 1630.47970    0.25750  986.64320
 1630.67010    0.24240 1043.23370
 1630.86060    0.23480 1037.08260
 1631.05100    0.20830 1037.08260
 1631.24140    0.15150 1071.52900
 1631.43190    0.12500 1065.37790
 1631.62230    0.12880  959.57820
 1631.81270    0.16660  938.66430
 1632.00320    0.20450  960.80840
 1632.19360    0.17800  981.72230
 1632.38400    0.12120  957.11780
 1632.57450    0.11740  910.36910
 1632.76490    0.15150  915.29000
 1632.95530    0.20450  878.38310
 1633.14580    0.20070  862.39020
 1633.33620    0.15910  944.81550
 1633.52660    0.17420 1023.55010
 1633.71710    0.16660 1050.61510
 1633.90750    0.10980 1057.99650
 1634.09790    0.10230 1112.12650
 1634.28840    0.13630 1109.66610
 1634.47880    0.34080 1072.75920
 1634.66920    0.39010 1089.98240
 1634.85970    0.21210 1072.75920
 1635.05010    0.17420 1011.24780
 1635.24050    0.12880 1048.15470
 1635.43100    0.11360 1061.68720
 1635.62140    0.14390 1045.69420
 1635.81180    0.18180 1028.47100
 1636.00220    0.17420 1046.92440
 1636.19270    0.18180 1046.92440
 1636.38310    0.17420 1048.15470
 1636.57350    0.12120 1065.37790
 1636.76400    0.10230  981.72230
 1636.95440    0.13630  979.26190
 1637.14480    0.15910  930.05270
 1637.33530    0.14390  944.81550
 1637.52570    0.12120  910.36910
 1637.71610    0.15150  921.44110
 1637.90660    0.15530  980.49210
 1638.09700    0.14390 1011.24780
 1638.28740    0.16660  984.18280
 1638.47790    0.12880  964.49910
 1638.66830    0.12500  989.10370
 1638.85870    0.17420 1016.16870
 1639.04920    0.21970  989.10370
 1639.23960    0.22340  974.34090
 1639.43000    0.19310 1001.40600
 1639.62050    0.17420 1046.92440
 1639.81090    0.57570 1089.98240
 1640.00130    0.16280 1072.75920
 1640.19180    0.12880 1033.39190
 1640.38220    0.75370 1062.91740
 1640.57260    0.14390 1070.29880
 1640.76310    0.33330 1070.29880
 1640.95350    0.15150 1012.47800
 1641.14390    0.13630  964.49910
 1641.33430    0.15150  952.19680
 1641.52480    0.18940  899.29700
 1641.71520    0.70060  946.04570
 1641.90560    1.04530 1013.70830
 1642.09610    0.23480 1001.40600
 1642.28650    0.14010  971.88050
 1642.47690    0.28030  985.41300
 1642.66740    0.72340 1023.55010
 1642.85780    0.15910  971.88050
 1643.04820    0.12120 1011.24780
 1643.23870    0.12120 1022.31990
 1643.42910    0.15150 1062.91740
 1643.61950    0.18180 1028.47100
 1643.81000    1.31040 1061.68720
 1644.00040    0.17800 1158.87520
 1644.19080    0.21210 1121.96840
 1644.38130    0.20070 1070.29880
 1644.57170    0.14390 1094.90330
 1644.76210    0.14390 1119.50790
 1644.95260    0.17420 1121.96840
 1645.14300    0.21210 1153.95430
 1645.33340    0.19690 1065.37790
 1645.52390    0.14390 1077.68010
 1645.71430    0.14390 1049.38490
 1645.90470    0.18940 1042.00350
 1646.09510    0.21210 1085.06150
 1646.28560    0.16660 1142.88220
 1646.47600    0.15150 1185.94020
 1646.66640    0.19690 1123.19860
 1646.85690    0.21970 1109.66610
 1647.04730    0.41280 1102.28470
 1647.23770    0.22720 1073.98950
 1647.42820    0.23480 1139.19160
 1647.61860    1.26490 1115.81720
 1647.80900    0.20450 1097.36380
 1647.99950    0.22720 1183.47980
 1648.18990    0.16660 1183.47980
 1648.38030    0.10230 1108.43590
 1648.57080    1.03390 1151.49380
 1648.76120    0.15150 1185.94020
 1648.95160    0.15910 1151.49380
 1649.14210    0.11740 1187.17050
 1649.33250    0.10980 1188.40070
 1649.52290    0.14390 1128.11950
 1649.71340    0.17420 1173.63800
 1649.90380    0.16660 1181.01930
 1650.09420    0.17800 1203.16340
 1650.28470    0.20830 1220.38660
 1650.47510    0.16660 1183.47980
 1650.66550    0.14010 1177.32860
 1650.85600    0.34840 1125.65910
 1651.04640    0.18180 1115.81720
 1651.23680    0.11360 1150.26360
 1651.42720    0.11360 1225.30760
 1651.61770    0.14770 1183.47980
 1651.80810    0.19310 1126.88930
 1651.99850    0.21210 1162.56590
 1652.18900    0.23100 1139.19160
 1652.37940    0.25750 1149.03340
 1652.56980    0.21210 1201.93320
 1652.76030    0.16660 1198.24250
 1652.95070    0.37110 1145.34270
 1653.14110    0.21590 1124.42880
 1653.33160    0.21590 1163.79610
 1653.52200    0.20830 1151.49380
 1653.71240    0.15150 1129.34970
 1653.90290    0.09850 1179.78910
 1654.09330    0.12880 1165.02640
 1654.28370    0.18180 1120.73810
 1654.47420    0.18180 1112.12650
 1654.66460    0.17040 1057.99650
 1654.85500    0.19690 1013.70830
 1655.04550    0.47340 1054.30580
 1655.23590    0.25370 1096.13360
 1655.42630    0.28030 1094.90330
 1655.61680    0.24240 1040.77330
 1655.80720    0.16660 1013.70830
 1655.99760    0.15910 1017.39890
 1656.18810    0.19310  996.48510
 1656.37850    0.20450 1086.29170
 1656.56890    0.21210 1099.82430
 1656.75930    0.59840 1033.39190
 1656.94980    0.53780  994.02460
 1657.14020    0.19310  998.94550
 1657.33060    0.20830 1045.69420
 1657.52110    0.15910 1062.91740
 1657.71150    0.10600 1097.36380
 1657.90190    0.15150 1171.17750
 1658.09240    0.18180 1184.71000
 1658.28280    0.12120 1151.49380
 1658.47320    0.07200 1065.37790
 1658.66370    0.26510 1021.08960
 1658.85410    0.18180 1006.32690
 1659.04450    0.16660 1073.98950
 1659.23500    0.16660 1129.34970
 1659.42540    0.18180 1109.66610
 1659.61580    0.15150 1085.06150
 1659.80630    0.12500 1021.08960
 1659.99670    0.14770 1008.78730
 1660.18710    0.19690 1059.22670
 1660.37760    0.18940 1080.14060
 1660.56800    0.15150 1069.06850
 1660.75840    0.16660 1072.75920
 1660.94890    0.18940 1124.42880
 1661.13930    0.15150 1131.81020
 1661.32970    0.10600 1124.42880
 1661.52020    0.97330 1151.49380
 1661.71060    0.14390 1184.71000
