~Version ---------------------------------------------------
VERS.   2.0 : CWLS log ASCII Standard -VERSION 2.0
WRAP.    NO : One line per depth step
DLM . SPACE : Column Data Section Delimiter
~Well ------------------------------------------------------
STRT..M    0.19040 : START DEPTH
STOP..M 1920.12700 : STOP DEPTH
STEP..M    0.19050 : STEP
NULL.     -9999.25 : NULL VALUE
COMP.              : COMPANY
WELL.              : WELL
FLD .              : FIELD
LOC .              : LOCATION
PROV.              : PROVINCE
CNTY.              : COUNTY
STAT.              : STATE
CTRY.              : COUNTRY
SRVC.              : SERVICE COMPANY
DATE.              : DATE
UWI .              : UNIQUE WELL ID
API .              : API NUMBER
~Curve Information -----------------------------------------
DEPTH..M       : Depth
ГК   .имп/мин  : описание 1
НГК  .усл. ед  : описание 2
~Params ----------------------------------------------------
..M    0.0 : Start depth
..M 1920.0 : Stop depth
..M    0.2 : Step
..   -9999 : Null value
~Other -----------------------------------------------------
~ASCII -----------------------------------------------------
# ...
 1527.07510    0.15910 1021.08960
 1527.26550    0.17420  991.56410
 1527.45590    0.18180  922.67140
 1527.64640    0.17800  871.00180
 1527.83680    0.15910  868.54130
 1528.02720    0.13630  895.60630
 1528.21770    0.13630  933.74340
 1528.40810    0.15150  944.81550
 1528.59850    0.17800  916.52020
 1528.78900    0.21210  866.08080
 1528.97940    0.24240  866.08080
 1529.16980    0.28030  912.82950
 1529.36030    0.27270  969.42000
 1529.55070    0.22720 1014.93850
 1529.74110    0.22720 1076.44990
 1529.93160    0.25750 1104.74520
 1530.12200    0.29540 1075.21970
 1530.31240    0.27270 1088.75220
 1530.50290    0.16660 1087.52200
 1530.69330    0.11360 1112.12650
 1530.88370    0.09470 1144.11250
 1531.07420    0.10230 1130.58000
 1531.26460    0.11740 1097.36380
 1531.45500    0.15150 1019.85940
 1531.64550    0.20070 1023.55010
 1531.83590    0.26510 1080.14060
 1532.02630    0.34840 1120.73810
 1532.21670    0.48100 1035.85240
 1532.40720    0.53780  938.66430
 1532.59760    0.46200  868.54130
 1532.78800    0.30680  778.73460
 1532.97850    0.22720  718.45340
 1533.16890    0.20450  735.67660
 1533.35930    0.18180  782.42530
 1533.54980    0.16660  836.55540
 1533.74020    0.15530  858.69950
 1533.93060    0.71960  807.02990
 1534.12110    0.13630  781.19510
 1534.31150    0.13260  836.55540
 1534.50190    0.12880  825.48330
 1534.69240    0.12500  782.42530
 1534.88280    0.12120  789.80670
 1535.07320    0.12880  843.93670
 1535.26370    0.14390  909.13880
 1535.45410    0.51510  990.33390
 1535.64450    0.12880 1060.45690
 1535.83500    0.10600 1044.46400
 1536.02540    0.10230  900.52720
 1536.21580    0.10230  776.27420
 1536.40630    0.11360  720.91390
 1536.59670    0.12120  628.64670
 1536.78710    0.12120  642.17930
 1536.97760    0.11740  642.17930
 1537.16800    0.11360  664.32340
 1537.35840    0.12880  706.15110
 1537.54880    0.15530  745.51850
 1537.73930    0.17800  830.40420
 1537.92970    0.17800  871.00180
 1538.12010    0.16660  873.46220
 1538.31060    0.16660  889.45520
 1538.50100    0.17420  885.76450
 1538.69140    0.18940  821.79260
 1538.88190    0.21210  782.42530
 1539.07230    0.23860  824.25310
 1539.26270    0.25750  891.91560
 1539.45320    0.24620  900.52720
 1539.64360    0.21210  848.85760
 1539.83400    0.16660  861.15990
 1540.02450    0.12880  923.90160
 1540.21490    0.09850  922.67140
 1540.40530    0.07950  782.42530
 1540.59580    0.06820  654.48150
 1540.78620    0.06820  627.41650
 1540.97660    0.08330  647.10020
 1541.16710    0.11360  680.31630
 1541.35750    0.12500  720.91390
 1541.54790    0.11360  740.59750
 1541.73840    0.09090  728.29530
 1541.92880    0.06820  695.07910
 1542.11920    0.06820  669.24430
 1542.30970    0.08330  681.54660
 1542.50010    0.09850  730.75570
 1542.69050    0.12500  747.97890
 1542.88090    0.15150  723.37430
 1543.07140    0.16660  669.24430
 1543.26180    0.15530  632.33740
 1543.45220    0.12500  597.89100
 1543.64270    0.09470  575.74690
 1543.83310    0.07570  572.05620
 1544.02350    0.07570  592.97010
 1544.21400    0.46580  640.94900
 1544.40440    0.08330  695.07910
 1544.59480    0.10600  715.99300
 1544.78530    0.13630  703.69070
 1544.97570    0.15910  668.01410
 1545.16610    0.16280  632.33740
 1545.35660    0.15150  617.57470
 1545.54700    0.14390  637.25830
 1545.73740    0.13260  674.16520
 1545.92790    0.14390  661.86290
 1546.11830    0.18180  644.63970
 1546.30870    0.21970  664.32340
 1546.49920    0.21590  674.16520
 1546.68960    0.17420  652.02110
 1546.88000    0.14390  622.49560
 1547.07050    0.13260  622.49560
 1547.26090    0.14390  648.33040
 1547.45130    0.15150  685.23730
 1547.64170    0.16660  722.14410
 1547.83220    0.18180  762.74170
 1548.02260    0.20450  799.64850
 1548.21300    0.21970  799.64850
 1548.40350    0.23100  752.89980
 1548.59390    0.22720  675.39540
 1548.78430    0.21210  612.65380
 1548.97480    0.18940  602.81200
 1549.16520    0.15150  622.49560
 1549.35560    0.12120  666.78380
 1549.54610    0.12120  706.15110
 1549.73650    0.13630  738.13710
 1549.92690    0.13630  728.29530
 1550.11740    0.11740  675.39540
 1550.30780    0.09090  666.78380
 1550.49820    0.08330  684.00700
 1550.68870    0.09850  696.30930
 1550.87910    0.11360  686.46750
 1551.06950    0.11360  666.78380
 1551.26000    0.10600  649.56060
 1551.45040    0.10980  659.40250
 1551.64080    0.11740  688.92790
 1551.83130    0.13260  720.91390
 1552.02170    0.15150  750.43940
 1552.21210    0.16660  741.82780
 1552.40260    0.18940  711.07210
 1552.59300    0.18940  809.49030
 1552.78340    0.17420  714.76270
 1552.97380    0.12120  720.91390
 1553.16430    0.10600  728.29530
 1553.35470    0.11740  751.66960
 1553.54510    0.14390  771.35330
 1553.73560    0.17420  896.83660
 1553.92600    0.18180  873.46220
 1554.11640    0.15910  789.80670
 1554.30690    0.10600  871.00180
 1554.49730    0.07950  891.91560
 1554.68770    0.10230  816.87170
 1554.87820    0.14010  847.62740
 1555.06860    0.18940  898.06680
 1555.25900    0.18560  880.84360
 1555.44950    0.16660  911.59930
 1555.63990    0.18560  938.66430
 1555.83030    0.20070  966.95960
 1556.02080    0.17800  958.34800
 1556.21120    0.13630  851.31810
 1556.40160    0.10600  804.56940
 1556.59210    0.10600  829.17400
 1556.78250    0.12880  861.15990
 1556.97290    0.15150  885.76450
 1557.16340    0.17420  875.92270
 1557.35380    0.20450  835.32510
 1557.54420    0.20450  821.79260
 1557.73470    0.18560  793.49740
 1557.92510    0.90890  735.67660
 1558.11550    0.17420  725.83480
 1558.30590    0.20450  745.51850
 1558.49640    0.21210  767.66260
 1558.68680    0.19310  775.04390
 1558.87720    0.15910  756.59050
 1559.06770    0.13630  743.05800
 1559.25810    0.11360  740.59750
 1559.44850    0.12120  708.61160
 1559.63900    0.13630  711.07210
 1559.82940    0.16280  747.97890
 1560.01980    0.18560  775.04390
 1560.21030    0.20450  777.50440
 1560.40070    0.21970  778.73460
 1560.59110    0.22720  792.26710
 1560.78160    0.21970  814.41120
 1560.97200    0.19690  831.63440
 1561.16240    0.15910  829.17400
 1561.35290    0.13630  787.34620
 1561.54330    0.15530  725.83480
 1561.73370    0.18180  708.61160
 1561.92420    0.19690  729.52550
 1562.11460    0.18180  740.59750
 1562.30500    0.14770  754.13010
 1562.49550    0.15150  704.92090
 1562.68590    0.18180  704.92090
 1562.87630    0.16660  701.23020
 1563.06680    0.10230  686.46750
 1563.25720    0.06060  669.24430
 1563.44760    0.06440  680.31630
 1563.63800    0.09090  703.69070
 1563.82850    0.13260  720.91390
 1564.01890    0.16660  708.61160
 1564.20930    0.20450  688.92790
 1564.39980    0.19690  675.39540
 1564.59020    0.17420  679.08610
 1564.78060    0.14390  696.30930
 1564.97110    0.11360  708.61160
 1565.16150    0.09850  706.15110
 1565.35190    0.12120  696.30930
 1565.54240    0.15150  681.54660
 1565.73280    0.18180  669.24430
 1565.92320    0.17420  677.85590
 1566.11370    0.14390  688.92790
 1566.30410    0.11360  688.92790
 1566.49450    0.09850  686.46750
 1566.68500    0.11360  687.69770
 1566.87540    0.13260  698.76980
 1567.06580    0.12120  708.61160
 1567.25630    0.09850  713.53250
 1567.44670    0.07570  703.69070
 1567.63710    0.08330  684.00700
 1567.82760    0.09850  688.92790
 1568.01800    0.12120  711.07210
 1568.20840    0.12500  724.60460
 1568.39880    0.10600  738.13710
 1568.58930    0.09850  738.13710
 1568.77970    0.10600  708.61160
 1568.97010    0.12880  688.92790
 1569.16060    0.15150  656.94200
 1569.35100    0.16660  654.48150
 1569.54140    0.16660  684.00700
 1569.73190    0.15150  723.37430
 1569.92230    0.15150  738.13710
 1570.11270    0.16660  750.43940
 1570.30320    0.18560  728.29530
 1570.49360    0.20070  708.61160
 1570.68400    0.19690  666.78380
 1570.87450    0.17800  654.48150
 1571.06490    0.15150  652.02110
 1571.25530    0.12880  639.71880
 1571.44580    0.10600  632.33740
 1571.63620    0.41660  647.10020
 1571.82660    0.09470  679.08610
