~Version ---------------------------------------------------
VERS.   2.0 : CWLS log ASCII Standard -VERSION 2.0
WRAP.    NO : One line per depth step
DLM . SPACE : Column Data Section Delimiter
~Well ------------------------------------------------------
STRT..M    0.19040 : START DEPTH
STOP..M 1920.12700 : STOP DEPTH
STEP..M    0.19050 : STEP
NULL.     -9999.25 : NULL VALUE
COMP.              : COMPANY
WELL.              : WELL
FLD .              : FIELD
LOC .              : LOCATION
PROV.              : PROVINCE
CNTY.              : COUNTY
STAT.              : STATE
CTRY.              : COUNTRY
SRVC.              : SERVICE COMPANY
DATE.              : DATE
UWI .              : UNIQUE WELL ID
API .              : API NUMBER
~Curve Information -----------------------------------------
DEPTH..M       : Depth
ГК   .имп/мин  : описание 1
НГК  .усл. ед  : описание 2
~Params ----------------------------------------------------
..M    0.0 : Start depth
..M 1920.0 : Stop depth
..M    0.2 : Step
..   -9999 : Null value
~Other -----------------------------------------------------
~ASCII -----------------------------------------------------
# ...
  359.34540    0.47340  418.27770
  359.53580    0.42040  410.89630
  359.72630    0.39390  437.96130
  359.91670    0.41660  458.87520
  360.10710    0.46580  447.80320
  360.29760    0.49230  430.58000
  360.48800    0.48480  429.34970
  360.67840    0.48480  442.88220
  360.86880    0.52260  460.10540
  361.05930    0.58320  466.25660
  361.24970    0.68170  452.72410
  361.44010    0.71960  434.27070
  361.63060    0.59840  415.81720
  361.82100    0.50370  398.59400
  362.01140    0.44310  396.13360
  362.20190    0.38630  410.89630
  362.39230    0.34080  435.50090
  362.58270    0.31060  457.64500
  362.77320    0.29540  452.72410
  362.96360    0.31430  433.04040
  363.15400    0.35600  414.58700
  363.34450    0.36360  401.05450
  363.53490    0.36360  405.97540
  363.72530    0.39770  418.27770
  363.91580    0.44690  412.12650
  364.10620    0.44690  403.51490
  364.29660    0.43930  393.67310
  364.48710    0.47720  391.21270
  364.67750    0.46200  410.89630
  364.86790    0.39010  429.34970
  365.05840    0.32950  430.58000
  365.24880    0.28780  423.19860
  365.43920    0.28780  418.27770
  365.62960    0.31810  434.27070
  365.82010    0.36360  440.42180
  366.01050    0.38630  428.11950
  366.20090    0.34840  413.35680
  366.39140    0.31810  398.59400
  366.58180    0.31060  403.51490
  366.77220    0.34840  428.11950
  366.96270    0.40140  453.95430
  367.15310    0.47340  469.94730
  367.34350    0.53780  465.02640
  367.53400    0.54540  492.09140
  367.72440    0.40140  541.30050
  367.91480    0.29540  607.73290
  368.10530    0.22720  754.13010
  368.29570    0.14390  900.52720
  368.48610    0.08330  985.41300
  368.67660    0.07950  991.56410
  368.86700    0.10230  969.42000
  369.05740    0.14390  971.88050
  369.24790    0.16660 1000.17570
  369.43830    0.14390  996.48510
  369.62870    0.11360  982.95250
  369.81920    0.07950 1002.63620
  370.00960    0.06440 1037.08260
  370.20000    0.06060 1066.60810
  370.39050    0.07570 1077.68010
  370.58090    0.09850 1060.45690
  370.77130    0.12120 1028.47100
  370.96170    0.14390  994.02460
  371.15220    0.17420  963.26890
  371.34260    0.17420  937.43410
  371.53300    0.14390  920.21090
  371.72350    0.10600  905.44820
  371.91390    0.09090  920.21090
  372.10430    0.12500  970.65030
  372.29480    0.12880  991.56410
  372.48520    0.09850  962.03870
  372.67560    0.07570  905.44820
  372.86610    0.08330  899.29700
  373.05650    0.08330  949.73640
  373.24690    0.08710  995.25480
  373.43740    0.09850  986.64320
  373.62780    0.13260  922.67140
  373.81820    0.17040  818.10190
  374.00870    0.23480  719.68370
  374.19910    0.31810  649.56060
  374.38950    0.35220  596.66080
  374.58000    0.32570  622.49560
  374.77040 -9999.00000  674.16520
  374.96080    0.15150  717.22320
  375.15130    0.10600  759.05100
  375.34170    0.10600  777.50440
  375.53210    0.13630  746.74870
  375.72260    0.20450  698.76980
  375.91300    0.28780  665.55360
  376.10340    0.37110  632.33740
  376.29380    0.46580  574.51670
  376.48430    0.60970  533.91920
  376.67470    0.65900  511.77500
  376.86510    0.51130  559.75400
  377.05560    0.40140  717.22320
  377.24600    0.27270  803.33920
  377.43640    0.15150  848.85760
  377.62690    0.08330  885.76450
  377.81730    0.07570  922.67140
  378.00770    0.10600  918.98070
  378.19820    0.16660  853.77860
  378.38860    0.21970  768.89280
  378.57900    0.26510  693.84890
  378.76950    0.26510  637.25830
  378.95990    0.23480  590.50970
  379.15030    0.21210  559.75400
  379.34080    0.17420  568.36560
  379.53120    0.14390  610.19330
  379.72160    0.10980  669.24430
  379.91210    0.09470  743.05800
  380.10250    0.09470  809.49030
  380.29290    0.11360  855.00880
  380.48340    0.15910  885.76450
  380.67380    0.20450  861.15990
  380.86420    0.25750  752.89980
  381.05470    0.26510  659.40250
  381.24510    0.22720  595.43060
  381.43550    0.19690  551.14240
  381.62590    0.19690  517.92620
  381.81640    0.25750  528.99820
  382.00680    0.31810  576.97720
  382.19720    0.30300  717.22320
  382.38770    0.23100  868.54130
  382.57810    0.18180 1013.70830
  382.76850    0.12500 1119.50790
  382.95900    0.09470 1165.02640
  383.14940    0.10230 1141.65200
  383.33980    0.13630 1105.97540
  383.53030    0.17800 1053.07560
  383.72070    0.21210  966.95960
  383.91110    0.21210  878.38310
  384.10160    0.23860  830.40420
  384.29200    0.29160  775.04390
  384.48240    0.38250  731.98590
  384.67290    0.40900  696.30930
  384.86330    0.34080  660.63270
  385.05370    0.28780  728.29530
  385.24420    0.22720  842.70650
  385.43460    0.18940  932.51320
  385.62500    0.21210  994.02460
  385.81550    0.28030  955.88750
  386.00590    0.29540  928.82250
  386.19630    0.25750  954.65730
  386.38670    0.21970  997.71530
  386.57720    0.18180  995.25480
  386.76760    0.17800  944.81550
  386.95800    0.21210  902.98770
  387.14850    0.22720  895.60630
  387.33890    0.21970  910.36910
  387.52930    0.19690  884.53430
  387.71980    0.17420  857.46920
  387.91020    0.18560  851.31810
  388.10060    0.22720  883.30400
  388.29110    0.29540  875.92270
  388.48150    0.37110  836.55540
  388.67190    0.43930  766.43230
  388.86240    0.30300  715.99300
  389.05280    0.20070  768.89280
  389.24320    0.45070  794.72760
  389.43370    0.62110  723.37430
  389.62410    0.74610  613.88400
  389.81450    0.68550  519.15640
  390.00500    0.51510  508.08440
  390.19540    0.37870  574.51670
  390.38580    0.32570  659.40250
  390.57630    0.46960  695.07910
  390.76670    0.69310  589.27940
  390.95710    0.73090  515.46570
  391.14760    0.38250  666.78380
  391.33800    0.35980  804.56940
  391.52840    0.16660  906.67840
  391.71880    0.25750  866.08080
  391.90930    0.37870  761.51140
  392.09970    0.33710  666.78380
  392.29010    0.21970  661.86290
  392.48060    0.21590  725.83480
  392.67100    0.28780  706.15110
  392.86140    0.29540  685.23730
  393.05190    0.22340  659.40250
  393.24230    0.17040  677.85590
  393.43270    0.12120  706.15110
  393.62320    0.09090  730.75570
  393.81360    0.08330  770.12300
  394.00400    0.10600  819.33220
  394.19450    0.15910  776.27420
  394.38490    0.21970  663.09310
  394.57530    0.35220  560.98420
  394.76580    0.32950  487.17050
  394.95620 -9999.00000  357.99650
  395.14660 -9999.00000  345.69420
  395.33710 -9999.00000  389.98240
  395.52750    0.53400  487.17050
  395.71790    0.52640  544.99120
  395.90840    0.59840  608.96310
  396.09880    0.34840  693.84890
  396.28920    0.28030  761.51140
  396.47970    0.31810  772.58350
  396.67010    0.47340  702.46050
  396.86050    0.39770  647.10020
  397.05090 -9999.00000  391.21270
  397.24140 -9999.00000  526.53780
  397.43180 -9999.00000  519.15640
  397.62220    0.75740  499.47280
  397.81270    0.63250  528.99820
  398.00310 -9999.00000  463.79610
  398.19350    0.32190  621.26540
  398.38400    0.31060  659.40250
  398.57440 -9999.00000  642.17930
  398.76480    0.42040  644.63970
  398.95530    0.42040  595.43060
  399.14570    0.43550  585.58880
  399.33610    0.40900  538.84010
  399.52660    0.35600  551.14240
  399.71700 -9999.00000  589.27940
  399.90740    0.27270  624.95610
  400.09790    0.29540  615.11420
  400.28830    0.40520  569.59580
  400.47870    0.40900  533.91920
  400.66920    0.40140  501.93320
  400.85960 -9999.00000  508.08440
  401.05000 -9999.00000  546.22140
  401.24050 -9999.00000  578.20740
  401.43090 -9999.00000  613.88400
  401.62130    0.45450  649.56060
  401.81170    0.44690  659.40250
  402.00220    0.42040  730.75570
  402.19260    0.38630  647.10020
  402.38300    0.35980  633.56770
  402.57350 -9999.00000  590.50970
  402.76390 -9999.00000  575.74690
  402.95430    0.39770  616.34450
  403.14480 -9999.00000  640.94900
  403.33520 -9999.00000  556.06330
  403.52560 -9999.00000  514.23550
  403.71610 -9999.00000  562.21440
  403.90650 -9999.00000  660.63270
