~Version ---------------------------------------------------
VERS.   2.0 : CWLS log ASCII Standard -VERSION 2.0
WRAP.    NO : One line per depth step
DLM . SPACE : Column Data Section Delimiter
~Well ------------------------------------------------------
STRT..M    0.19040 : START DEPTH
STOP..M 1920.12700 : STOP DEPTH
STEP..M    0.19050 : STEP
NULL.     -9999.25 : NULL VALUE
COMP.              : COMPANY
WELL.              : WELL
FLD .              : FIELD
LOC .              : LOCATION
PROV.              : PROVINCE
CNTY.              : COUNTY
STAT.              : STATE
CTRY.              : COUNTRY
SRVC.              : SERVICE COMPANY
DATE.              : DATE
UWI .              : UNIQUE WELL ID
API .              : API NUMBER
~Curve Information -----------------------------------------
DEPTH..M       : Depth
ГК   .имп/мин  : описание 1
НГК  .усл. ед  : описание 2
~Params ----------------------------------------------------
..M    0.0 : Start depth
..M 1920.0 : Stop depth
..M    0.2 : Step
..   -9999 : Null value
~Other -----------------------------------------------------
~ASCII -----------------------------------------------------
# ...
 1122.59730    0.94680  789.80670
 1122.78770    0.98470  789.80670
 1122.97810    0.99980  811.95080
 1123.16860    0.94300  847.62740
 1123.35900    0.83700  896.83660
 1123.54940    0.83320  893.14590
 1123.73990    0.93170  880.84360
 1123.93030    0.98470  851.31810
 1124.12070    0.90890  814.41120
 1124.31120    0.76880  824.25310
 1124.50160    0.67790  840.24600
 1124.69200    0.59460  900.52720
 1124.88250    0.56810  848.85760
 1125.07290    0.59080  878.38310
 1125.26330    0.62870  858.69950
 1125.45380    0.67410  863.62040
 1125.64420    0.71960  875.92270
 1125.83460    0.76500  872.23200
 1126.02510    0.79910  856.23900
 1126.21550    0.78770  836.55540
 1126.40590    0.74610  851.31810
 1126.59640    0.69680  862.39020
 1126.78680    0.66650  821.79260
 1126.97720    0.67790  802.10900
 1127.16770    0.72710  807.02990
 1127.35810    0.80670  869.77150
 1127.54850    0.79150  749.20910
 1127.73890 -9999.00000  740.59750
 1127.92940    0.65900  772.58350
 1128.11980    0.63250  807.02990
 1128.31020 -9999.00000  802.10900
 1128.50070 -9999.00000  772.58350
 1128.69110 -9999.00000  752.89980
 1128.88150    0.70440  760.28120
 1129.07200    0.77260  779.96490
 1129.26240    0.85590  807.02990
 1129.45280    0.87110  830.40420
 1129.64330    0.80290  846.39720
 1129.83370    0.76500  832.86470
 1130.02410    0.81050  821.79260
 1130.21460    0.77260  848.85760
 1130.40500 -9999.00000  852.54830
 1130.59540 -9999.00000  811.95080
 1130.78590    0.59460  829.17400
 1130.97630    0.59080  862.39020
 1131.16670    0.62870  884.53430
 1131.35720    0.67410  900.52720
 1131.54760    0.74230  895.60630
 1131.73800    0.80290  866.08080
 1131.92850    0.85970  851.31810
 1132.11890    0.85590  863.62040
 1132.30930    0.82180  904.21790
 1132.49980    0.83320  934.97360
 1132.69020    0.85210  934.97360
 1132.88060    0.80670  909.13880
 1133.07100    0.66650  900.52720
 1133.26150    0.68930  920.21090
 1133.45190    0.82560  947.27590
 1133.64230    0.84080  978.03160
 1133.83280    0.78390  998.94550
 1134.02320 -9999.00000  974.34090
 1134.21360    0.64000  927.59230
 1134.40410    0.57570  920.21090
 1134.59450    0.53780  894.37610
 1134.78490    0.53400  893.14590
 1134.97540    0.55290  902.98770
 1135.16580    0.62110  885.76450
 1135.35620    0.67410  894.37610
 1135.54670    0.66650  839.01580
 1135.73710    0.64380  848.85760
 1135.92750    0.64000  868.54130
 1136.11800    0.64380  850.08790
 1136.30840    0.69310  818.10190
 1136.49880    0.80670  789.80670
 1136.68930    0.96570  760.28120
 1136.87970    1.12860  719.68370
 1137.07010    1.25730  670.47450
 1137.26060    1.15890  652.02110
 1137.45100    0.89380  676.62570
 1137.64140    0.78020  717.22320
 1137.83190    0.67790  752.89980
 1138.02230    0.62870  787.34620
 1138.21270    0.67410  819.33220
 1138.40310    0.79530  846.39720
 1138.59360    0.87860  863.62040
 1138.78400    0.87110  863.62040
 1138.97440    0.79530  863.62040
 1139.16490    0.72710  873.46220
 1139.35530    0.69680  879.61340
 1139.54570    0.69680  808.26010
 1139.73620    0.73090  728.29530
 1139.92660    0.79530  664.32340
 1140.11700    0.85590  615.11420
 1140.30750    0.90140  575.74690
 1140.49790    0.87860  538.84010
 1140.68830    0.79530  532.68890
 1140.87880    0.72710  557.29350
 1141.06920    0.67790  592.97010
 1141.25960    0.67790  622.49560
 1141.45010    0.64000  656.94200
 1141.64050    0.57570  685.23730
 1141.83090    0.50750  712.30230
 1142.02140    0.47340  739.36730
 1142.21180    0.48850  760.28120
 1142.40220    0.60600  782.42530
 1142.59270    0.68550  789.80670
 1142.78310    0.64760  765.20210
 1142.97350    0.59840  743.05800
 1143.16400    0.63620  757.82070
 1143.35440    0.65140  816.87170
 1143.54480    0.59840  862.39020
 1143.73520    0.55290  926.36200
 1143.92570    0.50750  971.88050
 1144.11610    0.46960  942.35500
 1144.30650 -9999.00000  907.90860
 1144.49700    0.49230  842.70650
 1144.68740    0.54540  782.42530
 1144.87780    0.62490  798.41830
 1145.06830    0.66650  823.02280
 1145.25870    0.62870  834.09490
 1145.44910    0.54540  845.16700
 1145.63960    0.48100  841.47630
 1145.83000    0.43930  811.95080
 1146.02040    0.47340  782.42530
 1146.21090    0.52640  795.95780
 1146.40130    0.59840  843.93670
 1146.59170    0.66650  800.87870
 1146.78220    0.71960  787.34620
 1146.97260    0.75740  829.17400
 1147.16300    0.78020  878.38310
 1147.35350    0.80670  928.82250
 1147.54390    0.85590  966.95960
 1147.73430    0.90890  985.41300
 1147.92480    0.97710 1003.86640
 1148.11520    0.99220 1040.77330
 1148.30560    0.96190 1065.37790
 1148.49600    1.00740 1043.23370
 1148.68650    1.06040 1011.24780
 1148.87690    1.02250  992.79440
 1149.06730    0.93170  966.95960
 1149.25780    0.78770  930.05270
 1149.44820    0.78020  902.98770
 1149.63860    0.84450  883.30400
 1149.82910    0.88620  866.08080
 1150.01950    0.75740  846.39720
 1150.20990    0.74230  824.25310
 1150.40040    0.82560  794.72760
 1150.59080    0.85590  777.50440
 1150.78120    0.72710  797.18800
 1150.97170    0.68170  821.79260
 1151.16210    0.69310  802.10900
 1151.35250    0.77640  782.42530
 1151.54300    0.87860  797.18800
 1151.73340    1.01120  797.18800
 1151.92380    1.05280  777.50440
 1152.11430    0.95820 1054.30580
 1152.30470    0.87480 1102.28470
 1152.49510    0.78770  989.10370
 1152.68560    0.81800  997.71530
 1152.87600    0.85590 1185.94020
 1153.06640    0.75370  970.65030
 1153.25690    0.82180  970.65030
 1153.44730    1.08310 1097.36380
 1153.63770    1.21950  893.14590
 1153.82810    1.21190  949.73640
 1154.01860    1.28010  987.87350
 1154.20900    1.11340 1033.39190
 1154.39940    1.42400 1055.53600
 1154.58990    1.15510 1089.98240
 1154.78030    1.57930 1076.44990
 1154.97070    1.86710  953.42710
 1155.16120    1.84060  937.43410
 1155.35160    1.44290  990.33390
 1155.54200    2.21930  962.03870
 1155.73250    2.17010  970.65030
 1155.92290    1.94660  872.23200
 1156.11330    2.30260  985.41300
 1156.30380    2.38970  874.69240
 1156.49420    1.37850  739.36730
 1156.68460    1.51870  514.23550
 1156.87510    1.71940  517.92620
 1157.06550    2.40490  645.86990
 1157.25590    1.60960  882.07380
 1157.44640    1.66260  863.62040
 1157.63680    1.74970  815.64150
 1157.82720    1.53000  792.26710
 1158.01770    1.24980  661.86290
 1158.20810    1.10960  741.82780
 1158.39850    1.13240  878.38310
 1158.58900    1.12480  489.63090
 1158.77940    1.05660  544.99120
 1158.96980    0.97710  611.42360
 1159.16020    0.98850  559.75400
 1159.35070    1.08310  521.61690
 1159.54110    1.03390  497.01230
 1159.73150    1.02630  772.58350
 1159.92200    0.97330  714.76270
 1160.11240    1.03010  740.59750
 1160.30280    1.09070  975.57120
 1160.49330    1.07560 1083.83130
 1160.68370    1.02250 1113.35680
 1160.87410    1.04150 1083.83130
 1161.06460    1.15890 1150.26360
 1161.25500    1.25730 1173.63800
 1161.44540    1.33690  994.02460
 1161.63590    1.40880 1010.01760
 1161.82630    1.43160  862.39020
 1162.01670    1.40500  575.74690
 1162.20720    1.35200  563.44460
 1162.39760    1.45810  590.50970
 1162.58800    1.54520  583.12830
 1162.77850    1.53000  563.44460
 1162.96890    1.52250  595.43060
 1163.15930    1.46190  632.33740
 1163.34980    1.51870  615.11420
 1163.54020    1.53760  574.51670
 1163.73060    1.46560  578.20740
 1163.92110    1.39370  610.19330
 1164.11150    1.45430  576.97720
 1164.30190    1.43910  574.51670
 1164.49230    1.48080  608.96310
 1164.68280    1.54520  617.57470
 1164.87320    1.56790  600.35150
 1165.06360    1.50350  579.43760
 1165.25410    1.43530  615.11420
 1165.44450    1.49590  602.81200
 1165.63490    1.56030  546.22140
 1165.82540    1.51490  528.99820
 1166.01580    1.37480  538.84010
 1166.20620    1.28010  562.21440
 1166.39670    1.37480  563.44460
 1166.58710    1.56030  557.29350
 1166.77750    1.57550  602.81200
 1166.96800    1.47700  661.86290
 1167.15840    1.33310  632.33740
 1167.34880    1.40880  592.97010
