~Version ---------------------------------------------------
VERS.   2.0 : CWLS log ASCII Standard -VERSION 2.0
WRAP.    NO : One line per depth step
DLM . SPACE : Column Data Section Delimiter
~Well ------------------------------------------------------
STRT..M    0.19040 : START DEPTH
STOP..M 1920.12700 : STOP DEPTH
STEP..M    0.19050 : STEP
NULL.     -9999.25 : NULL VALUE
COMP.              : COMPANY
WELL.              : WELL
FLD .              : FIELD
LOC .              : LOCATION
PROV.              : PROVINCE
CNTY.              : COUNTY
STAT.              : STATE
CTRY.              : COUNTRY
SRVC.              : SERVICE COMPANY
DATE.              : DATE
UWI .              : UNIQUE WELL ID
API .              : API NUMBER
~Curve Information -----------------------------------------
DEPTH..M       : Depth
ГК   .имп/мин  : описание 1
НГК  .усл. ед  : описание 2
~Params ----------------------------------------------------
..M    0.0 : Start depth
..M 1920.0 : Stop depth
..M    0.2 : Step
..   -9999 : Null value
~Other -----------------------------------------------------
~ASCII -----------------------------------------------------
# ...
  987.96180    0.62110  944.81550
  988.15220    0.56050  955.88750
  988.34260    0.53020  947.27590
  988.53310    0.54540  917.75040
  988.72350    0.58320  907.90860
  988.91390    0.62490  932.51320
  989.10440    0.68170  952.19680
  989.29480    0.71960  934.97360
  989.48520    0.71960  890.68540
  989.67570    0.74990  851.31810
  989.86610    0.80290  841.47630
  990.05650    0.77260  859.92970
  990.24700    0.69680  883.30400
  990.43740    0.72340  907.90860
  990.62780    0.81420  915.29000
  990.81830    0.96570  884.53430
  991.00870    1.13620  836.55540
  991.19910    1.28010  787.34620
  991.38960    1.28760  799.64850
  991.58000    1.07180  848.85760
  991.77040    0.85210  883.30400
  991.96090    0.65900  934.97360
  992.15130    0.61350  966.95960
  992.34170    0.65140  982.95250
  992.53220    0.73470 1012.47800
  992.72260    0.81050 1040.77330
  992.91300    0.89760 1040.77330
  993.10340    0.96950 1022.31990
  993.29390    0.96950 1029.70120
  993.48430    0.89380 1075.21970
  993.67470    0.83320 1112.12650
  993.86520    0.78020 1086.29170
  994.05560    0.74230 1060.45690
  994.24600    0.73090 1062.91740
  994.43650    0.75740 1077.68010
  994.62690    0.77260 1045.69420
  994.81730    0.74990 1017.39890
  995.00780    0.74990  985.41300
  995.19820    0.76500  920.21090
  995.38860    0.74990  917.75040
  995.57910    0.70820  978.03160
  995.76950    0.65520  984.18280
  995.95990    0.62110 1001.40600
  996.15040    0.63620  969.42000
  996.34080    0.68930  915.29000
  996.53120    0.75740  836.55540
  996.72170    0.74230  759.05100
  996.91210    0.76880  701.23020
  997.10250    0.88620  708.61160
  997.29300    1.04530  768.89280
  997.48340    1.19680  856.23900
  997.67380    1.38230  939.89460
  997.86430    1.45430 1011.24780
  998.05470    1.37480 1070.29880
  998.24510    1.32550 1080.14060
  998.43550    1.26490 1049.38490
  998.62600    1.16650 1018.62920
  998.81640    1.09070  989.10370
  999.00680    1.00740  982.95250
  999.19730    0.93920  986.64320
  999.38770    0.88620  946.04570
  999.57810    0.90140  901.75750
  999.76860    0.95440  863.62040
  999.95900    1.03390  823.02280
 1000.14940    1.15130  784.88580
 1000.33990    1.26110  747.97890
 1000.53030    1.43530  713.53250
 1000.72070    1.42400  686.46750
 1000.91120    1.26490  671.70470
 1001.10160    1.15130  672.93500
 1001.29200    1.07180  676.62570
 1001.48250    1.05280  664.32340
 1001.67290    1.10210  644.63970
 1001.86330    1.15890  622.49560
 1002.05380    1.34070  601.58170
 1002.24420    1.48460  583.12830
 1002.43460    1.43530  597.89100
 1002.62510    1.29900  658.17220
 1002.81550    1.08310  687.69770
 1003.00590    0.88240  735.67660
 1003.19640    0.67790  752.89980
 1003.38680    0.66650  725.83480
 1003.57720    0.84080  706.15110
 1003.76760    0.78390  706.15110
 1003.95810    0.67410  703.69070
 1004.14850    0.68170  693.84890
 1004.33890    0.88240  680.31630
 1004.52940    1.05660  656.94200
 1004.71980    1.24220  639.71880
 1004.91020    1.38990  649.56060
 1005.10070    1.53380  652.02110
 1005.29110    1.65120  629.87700
 1005.48150    1.66260  608.96310
 1005.67200    1.28010  605.27240
 1005.86240    1.09070  640.94900
 1006.05280    1.04530  680.31630
 1006.24330    1.12860  674.16520
 1006.43370    1.17020  637.25830
 1006.62410    1.06800  607.73290
 1006.81460    0.99220  628.64670
 1007.00500    0.94680  660.63270
 1007.19540    0.86350  658.17220
 1007.38590    0.75370  637.25830
 1007.57630    0.72710  610.19330
 1007.76670 -9999.00000  583.12830
 1007.95720    0.79910  575.74690
 1008.14760    0.85210  617.57470
 1008.33800    0.90510  665.55360
 1008.52840    0.96190  703.69070
 1008.71890    1.00740  749.20910
 1008.90930    1.04910  791.03690
 1009.09970    1.11720  797.18800
 1009.29020    1.09450  773.81370
 1009.48060    0.93540  735.67660
 1009.67100    0.83700  706.15110
 1009.86150    0.88620  681.54660
 1010.05190    0.96950  655.71180
 1010.24230    0.97710  648.33040
 1010.43280    0.85970  666.78380
 1010.62320    0.74610  633.56770
 1010.81360    0.68930  634.79790
 1011.00410    0.71200  664.32340
 1011.19450    0.80290  697.53950
 1011.38490    0.90890  727.06500
 1011.57540    1.05660  719.68370
 1011.76580    1.16650  685.23730
 1011.95620    1.20810  649.56060
 1012.14670    1.04530  617.57470
 1012.33710    0.82180  590.50970
 1012.52750    0.74990  568.36560
 1012.71800    0.82560  546.22140
 1012.90840    1.06040  548.68190
 1013.09880    1.51110  575.74690
 1013.28930    1.87840  608.96310
 1013.47970    1.65880  644.63970
 1013.67010    1.41260  674.16520
 1013.86050    1.19300  706.15110
 1014.05100    1.06040  735.67660
 1014.24140    0.96190  735.67660
 1014.43180    0.88620  706.15110
 1014.62230    0.81800  679.08610
 1014.81270    0.81050  653.25130
 1015.00310    0.89760  640.94900
 1015.19360    1.06420  656.94200
 1015.38400    1.24220  677.85590
 1015.57440    1.42020  674.16520
 1015.76490    1.56030  652.02110
 1015.95530    1.63230  652.02110
 1016.14570    1.77620  639.71880
 1016.33620    1.94660  616.34450
 1016.52660    2.07540  592.97010
 1016.71700    2.10570  590.50970
 1016.90750    2.05640  575.74690
 1017.09790    2.05640  565.90510
 1017.28830    2.19280  583.12830
 1017.47880    2.19660  623.72580
 1017.66920    1.99210  654.48150
 1017.85960    1.64360  664.32340
 1018.05010    1.22330  629.87700
 1018.24050    1.08690  606.50260
 1018.43090    1.30280  610.19330
 1018.62140    1.62850  632.33740
 1018.81180    1.82920  656.94200
 1019.00220    1.93530  666.78380
 1019.19260    1.97690  681.54660
 1019.38310    1.90120  707.38140
 1019.57350    1.81030  711.07210
 1019.76390    1.72700  684.00700
 1019.95440    1.68530  661.86290
 1020.14480    1.76100  644.63970
 1020.33520    1.93150  632.33740
 1020.52570    2.18900  600.35150
 1020.71610    2.53740  565.90510
 1020.90650    2.82520  528.99820
 1021.09700    2.60560  514.23550
 1021.28740    2.38590  531.45870
 1021.47780    2.35560  560.98420
 1021.66830    2.51470  589.27940
 1021.85870    2.69270  588.04920
 1022.04910    2.79120  556.06330
 1022.23960    2.52980  563.44460
 1022.43000    2.42000  581.89810
 1022.62040    2.56390  578.20740
 1022.81090    2.68510  543.76100
 1023.00130    2.71540  520.38660
 1023.19170    2.67380  536.37960
 1023.38220    2.67380  567.13530
 1023.57260    2.59040  585.58880
 1023.76300    2.48440  573.28650
 1023.95340    2.51090  546.22140
 1024.14390    2.56010  541.30050
 1024.33430    2.42760  557.29350
 1024.52470    2.37840  574.51670
 1024.71520    2.43520  588.04920
 1024.90560    2.52980  597.89100
 1025.09600    2.62070  589.27940
 1025.28650    2.63590  565.90510
 1025.47690    2.57150  538.84010
 1025.66730    2.47680  526.53780
 1025.85780    2.32910  532.68890
 1026.04820    2.18520  543.76100
 1026.23860    2.08300  556.06330
 1026.42910    1.99210  570.82600
 1026.61950    1.87090  586.81900
 1026.80990    1.72700  600.35150
 1027.00040    1.62850  585.58880
 1027.19080    1.60580  533.91920
 1027.38120    1.69290  511.77500
 1027.57170    1.67390  511.77500
 1027.76210    1.45810  527.76800
 1027.95250    1.34070  537.60980
 1028.14300    1.40130  551.14240
 1028.33340    1.57930  576.97720
 1028.52380    1.67390  564.67490
 1028.71430    1.65880  505.62390
 1028.90470    1.49220  531.45870
 1029.09510    1.40500  567.13530
 1029.28550    1.34450  592.97010
 1029.47600    1.34070  617.57470
 1029.66640    1.30280  652.02110
 1029.85680    1.27630  677.85590
 1030.04730    1.33310  691.38840
 1030.23770    1.46940  693.84890
 1030.42810    1.49970  684.00700
 1030.61860    1.35580  688.92790
 1030.80900    1.30280  701.23020
 1030.99940    1.38990  706.15110
 1031.18990    1.36340  680.31630
 1031.38030    1.26870  634.79790
 1031.57070    1.24220  638.48860
 1031.76120    1.37100  654.48150
 1031.95160    1.45430  682.77680
 1032.14200    1.44670  709.84180
 1032.33250    1.36340  738.13710
 1032.52290    1.41640  749.20910
 1032.71330    1.54520  695.07910
