~Version ---------------------------------------------------
VERS.   2.0 : CWLS log ASCII Standard -VERSION 2.0
WRAP.    NO : One line per depth step
DLM . SPACE : Column Data Section Delimiter
~Well ------------------------------------------------------
STRT..M    0.19040 : START DEPTH
STOP..M 1920.12700 : STOP DEPTH
STEP..M    0.19050 : STEP
NULL.     -9999.25 : NULL VALUE
COMP.              : COMPANY
WELL.              : WELL
FLD .              : FIELD
LOC .              : LOCATION
PROV.              : PROVINCE
CNTY.              : COUNTY
STAT.              : STATE
CTRY.              : COUNTRY
SRVC.              : SERVICE COMPANY
DATE.              : DATE
UWI .              : UNIQUE WELL ID
API .              : API NUMBER
~Curve Information -----------------------------------------
DEPTH..M       : Depth
ГК   .имп/мин  : описание 1
НГК  .усл. ед  : описание 2
~Params ----------------------------------------------------
..M    0.0 : Start depth
..M 1920.0 : Stop depth
..M    0.2 : Step
..   -9999 : Null value
~Other -----------------------------------------------------
~ASCII -----------------------------------------------------
# ...
  269.46140    0.74610  289.10370
  269.65190    0.71960  278.03160
  269.84230    0.75370  271.88050
  270.03270    0.85590  278.03160
  270.22320    0.90890  290.33390
  270.41360    0.84830  296.48510
  270.60400    0.74230  285.41300
  270.79450    0.68550  273.11070
  270.98490    0.69680  268.18980
  271.17530    0.76880  279.26190
  271.36580    0.80290  297.71530
  271.55620    0.77640  297.71530
  271.74660    0.70060  285.41300
  271.93710    0.67410  273.11070
  272.12750    0.70440  622.49560
  272.31790    0.76120  290.33390
  272.50830    0.78390  298.94550
  272.69880    0.72710  290.33390
  272.88920    0.59840  281.72230
  273.07960    0.49990  295.25480
  273.27010    0.42420  319.85940
  273.46050    0.39390  332.16170
  273.65090    0.43930  338.31280
  273.84140    0.53020  349.38490
  274.03180    0.55290  337.08260
  274.22220    0.50370  354.30580
  274.41270    0.45450  378.91040
  274.60310    0.40520  402.28470
  274.79350    0.36740  413.35680
  274.98400    0.40140  398.59400
  275.17440    0.49990  383.83130
  275.36480    0.54160  385.06150
  275.55530    0.51510  398.59400
  275.74570    0.46580  407.20560
  275.93610    0.41660  398.59400
  276.12660    0.39770  372.75920
  276.31700    0.38630  359.22670
  276.50740    0.35600  340.77330
  276.69790    0.34080  317.39890
  276.88830    0.37870  300.17570
  277.07870    0.43170  307.55710
  277.26920    0.51510  314.93850
  277.45960    0.59080  290.33390
  277.65000    0.67790  290.33390
  277.84040    0.74230  307.55710
  278.03090    0.79530  323.55010
  278.22130    0.76120  332.16170
  278.41170    0.66650  314.93850
  278.60220    0.59080  300.17570
  278.79260    0.55670  311.24780
  278.98300    0.57190  337.08260
  279.17350    0.53780  357.99650
  279.36390    0.46960  335.85240
  279.55430    0.45450  313.70830
  279.74480    0.50370  334.62210
  279.93520    0.51880  284.18280
  280.12560    0.48480  296.48510
  280.31610    0.42420  317.39890
  280.50650    0.37110  327.24080
  280.69690    0.33330  338.31280
  280.88740    0.34840  351.84530
  281.07780    0.39390  338.31280
  281.26820    0.44690  349.38490
  281.45870    0.49610  344.46400
  281.64910    0.53780  324.78030
  281.83950    0.59460  297.71530
  282.03000    0.64380  399.82430
  282.22040    0.70820  280.49210
  282.41080    0.71200  292.79440
  282.60120    0.73470  305.09670
  282.79170    0.78020  305.09670
  282.98210    0.78020  307.55710
  283.17250    0.77640  322.31990
  283.36300    0.81050  335.85240
  283.55340    0.87860  324.78030
  283.74380    0.84830  306.32690
  283.93430    0.52640  317.39890
  284.12470    0.45450  335.85240
  284.31510    0.47720  357.99650
  284.50560    0.53020  373.98950
  284.69600    0.53400  391.21270
  284.88640    0.48850  408.43590
  285.07690    0.42420  668.01410
  285.26730    0.42420  414.58700
  285.45770    0.45450  418.27770
  285.64820    0.46960  430.58000
  285.83860    0.46200  446.57290
  286.02900    0.43170  458.87520
  286.21950    0.39390  452.72410
  286.40990    0.37110  437.96130
  286.60030    0.37110  418.27770
  286.79080    0.42420  397.36380
  286.98120    0.49610  401.05450
  287.17160    0.55290  430.58000
  287.36210    0.53020  458.87520
  287.55250    0.42040  479.78910
  287.74290    0.33330  497.01230
  287.93330    0.25750  541.30050
  288.12380    0.22720  575.74690
  288.31420    0.24240  578.20740
  288.50460    0.29160  516.69600
  288.69510    0.34840  455.18450
  288.88550    0.37870  415.81720
  289.07590    0.36360  392.44290
  289.26640    0.32190  396.13360
  289.45680    0.28030  405.97540
  289.64720    0.25000  408.43590
  289.83770    0.25750  388.75220
  290.02810    0.30300  361.68720
  290.21850    0.35600  337.08260
  290.40900    0.37110  314.93850
  290.59940    0.34840  306.32690
  290.78980    0.31430  308.78730
  290.98030    0.28030  298.94550
  291.17070    0.25000  285.41300
  291.36110    0.26130  285.41300
  291.55160    0.27270  295.25480
  291.74200    0.26510  305.09670
  291.93240    0.24620  319.85940
  292.12290    0.23860  337.08260
  292.31330    0.26130  349.38490
  292.50370    0.31060  339.54310
  292.69420    0.38630  310.01760
  292.88460    0.44690  302.63620
  293.07500    0.44690  317.39890
  293.26540    0.38630  335.85240
  293.45590    0.31810  337.08260
  293.64630    0.27270  314.93850
  293.83670    0.29540  287.87350
  294.02720    0.34840  290.33390
  294.21760    0.41660  307.55710
  294.40800    0.45070  317.39890
  294.59850    0.44310  306.32690
  294.78890    0.40900  287.87350
  294.97930    0.35980  295.25480
  295.16980    0.31060  307.55710
  295.36020    0.31430  317.39890
  295.55060    0.35600  322.31990
  295.74110    0.40900  312.47800
  295.93150    0.44690  308.78730
  296.12190    0.43170  314.93850
  296.31240    0.38630  322.31990
  296.50280    0.34460  333.39190
  296.69320    0.31060  344.46400
  296.88370    0.30300  356.76630
  297.07410    0.32950  378.91040
  297.26450    0.36740  319.85940
  297.45500    0.42420  298.94550
  297.64540    0.47720  300.17570
  297.83580    0.49230  316.16870
  298.02630    0.46200  314.93850
  298.21670    0.42420  302.63620
  298.40710    0.46960  292.79440
  298.59750    0.45830  287.87350
  298.78800    0.41660  294.02460
  298.97840    0.37110  302.63620
  299.16880    0.32570  305.09670
  299.35930    0.29920  307.55710
  299.54970    0.31810  322.31990
  299.74010    0.36360  339.54310
  299.93060    0.38630  334.62210
  300.12100    0.35600  387.52200
  300.31140    0.37110  303.86640
  300.50190    0.43170  300.17570
  300.69230    0.49230  305.09670
  300.88270    0.54910  312.47800
  301.07320    0.56810  319.85940
  301.26360    0.57570  322.31990
  301.45400    0.60600  322.31990
  301.64450    0.59080  313.70830
  301.83490    0.53020  302.63620
  302.02530    0.45450  311.24780
  302.21580    0.39390  327.24080
  302.40620    0.38630  329.70120
  302.59660    0.39390  310.01760
  302.78710    0.37870  285.41300
  302.97750    0.34840  290.33390
  303.16790    0.31810  310.01760
  303.35830    0.29160  328.47100
  303.54880    0.29160  330.93150
  303.73920    0.30300  317.39890
  303.92960    0.30300  312.47800
  304.12010    0.28780  323.55010
  304.31050    0.28030  334.62210
  304.50090    0.28780  340.77330
  304.69140    0.31060  329.70120
  304.88180    0.32570  314.93850
  305.07220    0.31430  323.55010
  305.26270    0.29160  312.47800
  305.45310    0.27650  292.79440
  305.64350    0.28400  273.11070
  305.83400    0.31060  275.57120
  306.02440    0.34080  297.71530
  306.21480    0.37110  316.16870
  306.40530    0.37110  334.62210
  306.59570    0.33710  356.76630
  306.78610    0.32190  366.60810
  306.97660    0.36740  354.30580
  307.16700    0.45070  339.54310
  307.35740    0.52640  332.16170
  307.54790    0.59080  337.08260
  307.73830    0.57570  349.38490
  307.92870    0.50370  361.68720
  308.11920 -9999.00000  360.45690
  308.30960    0.37110  344.46400
  308.50000    0.41660  333.39190
  308.69040    0.51130  339.54310
  308.88090    0.65520  349.38490
  309.07130    0.81050  344.46400
  309.26170    0.89000  338.31280
  309.45220    0.73470  349.38490
  309.64260    0.52640  371.52900
  309.83300    0.41280  396.13360
  310.02350    0.42040  391.21270
  310.21390    0.50750  369.06850
  310.40430    0.52260  351.84530
  310.59480    0.50370  356.76630
  310.78520    0.51510  366.60810
  310.97560    0.56050  354.30580
  311.16610    0.62110  452.72410
  311.35650    0.68170  323.55010
  311.54690    0.68170  332.16170
  311.73740    0.62110  348.15470
  311.92780    0.57190  355.53600
  312.11820    0.58320  879.61340
  312.30870    0.68170  332.16170
  312.49910    0.78020  334.62210
  312.68950    0.86350  343.23370
  312.88000    0.87860  349.38490
  313.07040    0.82180  349.38490
  313.26080    0.68550  350.61510
  313.45130    0.72340  337.08260
  313.64170    0.84080  310.01760
  313.83210    0.96570  307.55710
  314.02250    1.01500  322.31990
  314.21300    0.93540  337.08260
