~Version ---------------------------------------------------
VERS.   2.0 : CWLS log ASCII Standard -VERSION 2.0
WRAP.    NO : One line per depth step
DLM . SPACE : Column Data Section Delimiter
~Well ------------------------------------------------------
STRT..M    0.19040 : START DEPTH
STOP..M 1920.12700 : STOP DEPTH
STEP..M    0.19050 : STEP
NULL.     -9999.25 : NULL VALUE
COMP.              : COMPANY
WELL.              : WELL
FLD .              : FIELD
LOC .              : LOCATION
PROV.              : PROVINCE
CNTY.              : COUNTY
STAT.              : STATE
CTRY.              : COUNTRY
SRVC.              : SERVICE COMPANY
DATE.              : DATE
UWI .              : UNIQUE WELL ID
API .              : API NUMBER
~Curve Information -----------------------------------------
DEPTH..M       : Depth
ГК   .имп/мин  : описание 1
НГК  .усл. ед  : описание 2
~Params ----------------------------------------------------
..M    0.0 : Start depth
..M 1920.0 : Stop depth
..M    0.2 : Step
..   -9999 : Null value
~Other -----------------------------------------------------
~ASCII -----------------------------------------------------
# ...
 1751.78500    0.59080  766.43230
 1751.97540    0.50370  797.18800
 1752.16580    0.40900  857.46920
 1752.35630    0.41660  871.00180
 1752.54670    0.40140  848.85760
 1752.73710    0.40900  859.92970
 1752.92760    0.47720  899.29700
 1753.11800    0.52260  878.38310
 1753.30840    0.46200  843.93670
 1753.49890    0.49990  880.84360
 1753.68930    0.51510  917.75040
 1753.87970    0.44690  926.36200
 1754.07020    0.35220  964.49910
 1754.26060    0.34840  948.50620
 1754.45100    0.38630  874.69240
 1754.64150    0.40900  799.64850
 1754.83190    0.39770  786.11600
 1755.02230    0.43170  843.93670
 1755.21270    0.48480  836.55540
 1755.40320    0.45070  802.10900
 1755.59360    0.42420  827.94380
 1755.78400    0.47720  836.55540
 1755.97450    0.43170  845.16700
 1756.16490    0.31430  808.26010
 1756.35530    0.34080  724.60460
 1756.54580    0.40900  711.07210
 1756.73620    0.48100  704.92090
 1756.92660    0.54540  671.70470
 1757.11710    0.53780  676.62570
 1757.30750    0.50370  765.20210
 1757.49790    0.54160  839.01580
 1757.68840    0.53400  816.87170
 1757.87880    0.44690  772.58350
 1758.06920    0.45830  746.74870
 1758.25970    0.49230  730.75570
 1758.45010    0.49230  743.05800
 1758.64050    0.46580  743.05800
 1758.83100    0.50370  736.90690
 1759.02140    0.54540  760.28120
 1759.21180    0.52260  743.05800
 1759.40230    0.53780  660.63270
 1759.59270    0.59460  642.17930
 1759.78310    0.53400  679.08610
 1759.97360    0.47720  693.84890
 1760.16400    0.52260  730.75570
 1760.35440    0.49230  787.34620
 1760.54480    0.40140  816.87170
 1760.73530    0.39390  771.35330
 1760.92570    0.40140  717.22320
 1761.11610    0.37870  771.35330
 1761.30660    0.39010  858.69950
 1761.49700    0.45070  836.55540
 1761.68740    0.40140  814.41120
 1761.87790    0.32950  813.18100
 1762.06830    0.36360  789.80670
 1762.25870    0.39390  765.20210
 1762.44920    0.40900  781.19510
 1762.63960    0.32570  815.64150
 1762.83000    0.29540  845.16700
 1763.02050    0.34080  863.62040
 1763.21090    0.37870  799.64850
 1763.40130    0.39010  814.41120
 1763.59180    0.39390  759.05100
 1763.78220    0.44310  725.83480
 1763.97260    0.51510  722.14410
 1764.16310    0.52260  690.15820
 1764.35350    0.47720  696.30930
 1764.54390    0.50750  700.00000
 1764.73440    0.57940  649.56060
 1764.92480    0.68170  588.04920
 1765.11520    0.76880  553.60280
 1765.30570    0.70440  583.12830
 1765.49610    0.59840  655.71180
 1765.68650    0.65520  674.16520
 1765.87690    0.60970  631.10720
 1766.06740    0.57570  542.53080
 1766.25780    0.70440  482.24960
 1766.44820    0.81800  738.13710
 1766.63870    0.99220  621.26540
 1766.82910    0.90510  941.12480
 1767.01950    0.89380  677.85590
 1767.21000    0.71960  777.50440
 1767.40040    0.72710  830.40420
 1767.59080    0.78020  896.83660
 1767.78130    0.84080  813.18100
 1767.97170    0.90140  830.40420
 1768.16210    0.80290  803.33920
 1768.35260    0.66280  586.81900
 1768.54300    0.63620  554.83300
 1768.73340    0.67790  564.67490
 1768.92390    0.71960  608.96310
 1769.11430    0.65900  670.47450
 1769.30470    0.64380 1003.86640
 1769.49520    0.72710  688.92790
 1769.68560    0.71960  752.89980
 1769.87600    0.70820  899.29700
 1770.06650    0.73470 1060.45690
 1770.25690    0.57570  964.49910
 1770.44730    0.51130 1003.86640
 1770.63770    0.56810 1107.20560
 1770.82820    0.61350 1065.37790
 1771.01860    0.59840 1048.15470
 1771.20900    0.51510 1102.28470
 1771.39950    0.45830  653.25130
 1771.58990    0.44690  685.23730
 1771.78030    0.48480  665.55360
 1771.97080    0.57570  718.45340
 1772.16120    0.61350  698.76980
 1772.35160    0.69310  931.28300
 1772.54210    0.84830 1029.70120
 1772.73250    0.89380 1032.16170
 1772.92290    0.90890  775.04390
 1773.11340    1.11340  975.57120
 1773.30380    1.13240  811.95080
 1773.49420    0.93920  875.92270
 1773.68470    0.85590  918.98070
 1773.87510    0.81050  878.38310
 1774.06550    0.79530  786.11600
 1774.25600    0.79530  713.53250
 1774.44640    0.86350  565.90510
 1774.63680    0.93170  650.79090
 1774.82730    0.97330  781.19510
 1775.01770    1.02630  917.75040
 1775.20810    0.89760 1033.39190
 1775.39860    0.82560 1077.68010
 1775.58900    0.81420  835.32510
 1775.77940    0.74610  997.71530
 1775.96980    0.63250 1060.45690
 1776.16030    0.57940  976.80140
 1776.35070    0.60970  669.24430
 1776.54110    0.71200  645.86990
 1776.73160    0.84830  640.94900
 1776.92200    0.96950  597.89100
 1777.11240    0.95440  642.17930
 1777.30290    0.82180  685.23730
 1777.49330    0.87860  680.31630
 1777.68370    0.85590  735.67660
 1777.87420    0.74990  698.76980
 1778.06460    0.68170  661.86290
 1778.25500    0.56430  717.22320
 1778.44550    0.60220  765.20210
 1778.63590    0.51510  797.18800
 1778.82630    0.67410  761.51140
 1779.01680    0.73850  670.47450
 1779.20720    1.04910  669.24430
 1779.39760    0.95440  652.02110
 1779.58810    0.85210  638.48860
 1779.77850    0.92030  803.33920
 1779.96890    1.01500  707.38140
 1780.15940    1.06420  762.74170
 1780.34980    0.90510  749.20910
 1780.54020    0.71200  839.01580
 1780.73070    0.59080  672.93500
 1780.92110    0.60970  715.99300
 1781.11150    0.85590  711.07210
 1781.30190    0.71580  749.20910
 1781.49240    0.59840  809.49030
 1781.68280    0.41280  670.47450
 1781.87320    0.34080  735.67660
 1782.06370    0.36360  627.41650
 1782.25410    0.38250  687.69770
 1782.44450    0.37110  804.56940
 1782.63500    0.34460  868.54130
 1782.82540    0.35220  888.22500
 1783.01580    0.65520  845.16700
 1783.20630    0.59840  809.49030
 1783.39670    0.59840  784.88580
 1783.58710    1.30280  795.95780
 1783.77760    1.32550  800.87870
 1783.96800    1.83300  762.74170
 1784.15840    2.21550  680.31630
 1784.34890    2.27230  642.17930
 1784.53930    2.07160  607.73290
 1784.72970    1.99210  583.12830
 1784.92020    2.08300  578.20740
 1785.11060    2.46550  568.36560
 1785.30100    0.99980  542.53080
 1785.49150    1.03010  573.28650
 1785.68190    0.96950  597.89100
 1785.87230    0.85590  618.80490
 1786.06280    0.77640  663.09310
 1786.25320    0.79150  740.59750
 1786.44360    1.00360  835.32510
 1786.63400    1.24980  889.45520
 1786.82450    2.10950  861.15990
 1787.01490    2.18520  744.28820
 1787.20530    2.16250  686.46750
 1787.39580    2.18900  740.59750
 1787.58620    2.46170  759.05100
 1787.77660    2.17760  738.13710
 1787.96710    2.32910  733.21620
 1788.15750    1.98830  735.67660
 1788.34790    1.74210  782.42530
 1788.53840    1.60580  787.34620
 1788.72880    1.64740  757.82070
 1788.91920    1.65120  779.96490
 1789.10970    1.57170  824.25310
 1789.30010    1.51490  861.15990
 1789.49050    1.49590  875.92270
 1789.68100    1.42780  867.31110
 1789.87140    1.38610  878.38310
 1790.06180    1.44290  914.05980
 1790.25230    1.42400  882.07380
 1790.44270    1.23080  856.23900
 1790.63310    1.13620  885.76450
 1790.82360    1.05280  884.53430
 1791.01400    0.94680  818.10190
 1791.20440    0.99600  799.64850
 1791.39480    1.10590  851.31810
 1791.58530    1.23460  888.22500
 1791.77570    1.25730  921.44110
 1791.96610    1.21950  939.89460
 1792.15660    1.12860  960.80840
 1792.34700    1.09070 1006.32690
 1792.53740    1.06040 1065.37790
 1792.72790    1.03010 1110.89630
 1792.91830    1.03010 1113.35680
 1793.10870    1.15890 1072.75920
 1793.29920    1.30280 1067.83830
 1793.48960    1.29520 1096.13360
 1793.68000    1.23460  842.70650
 1793.87050    1.16270 1037.08260
 1794.06090    1.11340  952.19680
 1794.25130    1.13990  878.38310
 1794.44180    1.23840  957.11780
 1794.63220    1.35960  962.03870
 1794.82260    1.51110  960.80840
 1795.01310    1.54520 1055.53600
 1795.20350    1.54520 1032.16170
 1795.39390    1.50350  978.03160
 1795.58440    1.40130  962.03870
 1795.77480    1.36340  947.27590
 1795.96520    1.38230  895.60630
 1796.15570    1.48080  824.25310
 1796.34610    1.56790  773.81370
 1796.53650    1.55650  775.04390
