~Version ---------------------------------------------------
VERS.   2.0 : CWLS log ASCII Standard -VERSION 2.0
WRAP.    NO : One line per depth step
DLM . SPACE : Column Data Section Delimiter
~Well ------------------------------------------------------
STRT..M    0.19040 : START DEPTH
STOP..M 1920.12700 : STOP DEPTH
STEP..M    0.19050 : STEP
NULL.     -9999.25 : NULL VALUE
COMP.              : COMPANY
WELL.              : WELL
FLD .              : FIELD
LOC .              : LOCATION
PROV.              : PROVINCE
CNTY.              : COUNTY
STAT.              : STATE
CTRY.              : COUNTRY
SRVC.              : SERVICE COMPANY
DATE.              : DATE
UWI .              : UNIQUE WELL ID
API .              : API NUMBER
~Curve Information -----------------------------------------
DEPTH..M       : Depth
ГК   .имп/мин  : описание 1
НГК  .усл. ед  : описание 2
~Params ----------------------------------------------------
..M    0.0 : Start depth
..M 1920.0 : Stop depth
..M    0.2 : Step
..   -9999 : Null value
~Other -----------------------------------------------------
~ASCII -----------------------------------------------------
# ...
  134.63550    0.71960  364.14760
  134.82590    0.63250  376.44990
  135.01640    0.56810  376.44990
  135.20680    0.49990  366.60810
  135.39720    0.47720  359.22670
  135.58770    0.49990  351.84530
  135.77810    0.56810  349.38490
  135.96850    0.57190  359.22670
  136.15900    0.56050  369.06850
  136.34940    0.57940  378.91040
  136.53980    0.63620  369.06850
  136.73030    0.68930  354.30580
  136.92070    0.74230  339.54310
  137.11110    0.79910  329.70120
  137.30160    0.81800  317.39890
  137.49200    0.81050  307.55710
  137.68240    0.83320  300.17570
  137.87280    0.82560  300.17570
  138.06330    0.79150  310.01760
  138.25370    0.73470  317.39890
  138.44410    0.68930  307.55710
  138.63460    0.71580  305.09670
  138.82500    0.75370  313.70830
  139.01540    0.72710  311.24780
  139.20590    0.65140  297.71530
  139.39630 -9999.00000  282.95250
  139.58670    0.58320  282.95250
  139.77720    0.59080  295.25480
  139.96760    0.68930  308.78730
  140.15800    0.68170  314.93850
  140.34850    0.63620  317.39890
  140.53890    0.52260  332.16170
  140.72930    0.53020  356.76630
  140.91980    0.56810  383.83130
  141.11020    0.61350  381.37080
  141.30060    0.66650  360.45690
  141.49110    0.69310  342.00350
  141.68150    0.68930  327.24080
  141.87190    0.65140  327.24080
  142.06240    0.57940  337.08260
  142.25280    0.51510  346.92440
  142.44320    0.47720  359.22670
  142.63360    0.44310  356.76630
  142.82410    0.45830  344.46400
  143.01450    0.50370  349.38490
  143.20490    0.56810  337.08260
  143.39540    0.63250  310.01760
  143.58580    0.70820  298.94550
  143.77620    0.72710  313.70830
  143.96670    0.64000  329.70120
  144.15710    0.52640  350.61510
  144.34750    0.43550  369.06850
  144.53800    0.40900  359.22670
  144.72840    0.46200  342.00350
  144.91880    0.49230  327.24080
  145.10930    0.46200  312.47800
  145.29970    0.42420  300.17570
  145.49010    0.40140  308.78730
  145.68060    0.42420  324.78030
  145.87100    0.46960  338.31280
  146.06140    0.52260  330.93150
  146.25190    0.58320  321.08960
  146.44230    0.62490  330.93150
  146.63270    0.60600  356.76630
  146.82320    0.55670  351.84530
  147.01360    0.54540  339.54310
  147.20400 -9999.00000  324.78030
  147.39450    0.53780  311.24780
  147.58490    0.60600  302.63620
  147.77530    0.57570  308.78730
  147.96570    0.41660  322.31990
  148.15620    0.31060  327.24080
  148.34660    0.28030  319.85940
  148.53700    0.31060  307.55710
  148.72750    0.36740  300.17570
  148.91790    0.43170  303.86640
  149.10830    0.45830  317.39890
  149.29880    0.43930  328.47100
  149.48920    0.35600  324.78030
  149.67960    0.34080  312.47800
  149.87010    0.38630  302.63620
  150.06050    0.36740  294.02460
  150.25090    0.31060  300.17570
  150.44140    0.33330  314.93850
  150.63180    0.43170  327.24080
  150.82220    0.48100  330.93150
  151.01270    0.48100  322.31990
  151.20310    0.42420  317.39890
  151.39350    0.36360  330.93150
  151.58400    0.34840  349.38490
  151.77440    0.37110  369.06850
  151.96480    0.40900  387.52200
  152.15530    0.45830  456.41480
  152.34570    0.49990  364.14760
  152.53610    0.49990  342.00350
  152.72660    0.45450  334.62210
  152.91700    0.37110  351.84530
  153.10740    0.32950  324.78030
  153.29780    0.36360  303.86640
  153.48830    0.45070  313.70830
  153.67870    0.54160  314.93850
  153.86910    0.56050  317.39890
  154.05960    0.47340  334.62210
  154.25000    0.49990  354.30580
  154.44040    0.55290  375.21970
  154.63090    0.53400  388.75220
  154.82130    0.47720  402.28470
  155.01170    0.43170  401.05450
  155.20220    0.46200  386.29170
  155.39260    0.49990  372.75920
  155.58300    0.48480  351.84530
  155.77350    0.46200  334.62210
  155.96390    0.49230  354.30580
  156.15430    0.58700  372.75920
  156.34480    0.65900  366.60810
  156.53520    0.67410  348.15470
  156.72560    0.63620  342.00350
  156.91610    0.58320  354.30580
  157.10650    0.55290  371.52900
  157.29690    0.63620  381.37080
  157.48740    0.70440  381.37080
  157.67780    0.62870  367.83830
  157.86820    0.56050  349.38490
  158.05870    0.47720  339.54310
  158.24910    0.40520  342.00350
  158.43950    0.37870  361.68720
  158.62990    0.42040  382.60110
  158.82040    0.42040  388.75220
  159.01080 -9999.00000  378.91040
  159.20120    0.26510  365.37790
  159.39170    0.29160  351.84530
  159.58210    0.36360  343.23370
  159.77250    0.43930  346.92440
  159.96300    0.46200  361.68720
  160.15340    0.40900  371.52900
  160.34380 -9999.00000  366.60810
  160.53430    0.32190  364.14760
  160.72470    0.33330  354.30580
  160.91510    0.37870  329.70120
  161.10560    0.38250  328.47100
  161.29600    0.35600  346.92440
  161.48640 -9999.00000  349.38490
  161.67690    0.24620  359.22670
  161.86730    0.29540  364.14760
  162.05770    0.37110  340.77330
  162.24820    0.44690  323.55010
  162.43860    0.51510  334.62210
  162.62900    0.51880  350.61510
  162.81950    0.42800  369.06850
  163.00990 -9999.00000  386.29170
  163.20030    0.33330  401.05450
  163.39070    0.34840  396.13360
  163.58120    0.39390  381.37080
  163.77160    0.46580  361.68720
  163.96200    0.46200  359.22670
  164.15250    0.42420  381.37080
  164.34290    0.34080  405.97540
  164.53330    0.33330  434.27070
  164.72380    0.30300  446.57290
  164.91420    0.22720  425.65910
  165.10460    0.15910  423.19860
  165.29510    0.10600  462.56590
  165.48550    0.09850  506.85410
  165.67590    0.14390  564.67490
  165.86640    0.20450  618.80490
  166.05680    0.24620  666.78380
  166.24720    0.25000  695.07910
  166.43770    0.25750  690.15820
  166.62810    0.29540  644.63970
  166.81850    0.31060  570.82600
  167.00900    0.28030  487.17050
  167.19940    0.22340  436.73110
  167.38980    0.21210  445.34270
  167.58030    0.23860  471.17750
  167.77070    0.28030  487.17050
  167.96110    0.34080  452.72410
  168.15160    0.37870  419.50790
  168.34200    0.36740  386.29170
  168.53240    0.32570  360.45690
  168.72280    0.28780  346.92440
  168.91330    0.24240  349.38490
  169.10370 -9999.00000  359.22670
  169.29410    0.19690  371.52900
  169.48460    0.21210  378.91040
  169.67500    0.24620  371.52900
  169.86540    0.29920  359.22670
  170.05590    0.31810  348.15470
  170.24630    0.30300  349.38490
  170.43670    0.26890  365.37790
  170.62720    0.27650  373.98950
  170.81760    0.30300  356.76630
  171.00800    0.33330  339.54310
  171.19850    0.37110  339.54310
  171.38890    0.38630  339.54310
  171.57930    0.37110  324.78030
  171.76980    0.33330  303.86640
  171.96020    0.30300  305.09670
  172.15060    0.26510  327.24080
  172.34110    0.25000  344.46400
  172.53150    0.28780  361.68720
  172.72190    0.35600  378.91040
  172.91240    0.39770  385.06150
  173.10280    0.40140  378.91040
  173.29320    0.39390  381.37080
  173.48370    0.40900  394.90330
  173.67410    0.44690  410.89630
  173.86450    0.48100  392.44290
  174.05490    0.45830  342.00350
  174.24540    0.41660  328.47100
  174.43580    0.39390  345.69420
  174.62620    0.42040  375.21970
  174.81670    0.40900  393.67310
  175.00710    0.37490  373.98950
  175.19750    0.31810  344.46400
  175.38800    0.28030  322.31990
  175.57840    0.28780  327.24080
  175.76880    0.33330  337.08260
  175.95930    0.37490  345.69420
  176.14970    0.34080  337.08260
  176.34010    0.25000  322.31990
  176.53060    0.22340  316.16870
  176.72100    0.27650  328.47100
  176.91140    0.33710  345.69420
  177.10190    0.32570  369.06850
  177.29230    0.29160  388.75220
  177.48270    0.26130  409.66610
  177.67320    0.25000  433.04040
  177.86360    0.30680  435.50090
  178.05400    0.32950  403.51490
  178.24450    0.30300  375.21970
  178.43490    0.24240  405.97540
  178.62530    0.18940  457.64500
  178.81580    0.14390  499.47280
  179.00620    0.11360  509.31460
  179.19660    0.10600  467.48680
  179.38700    0.12120  403.51490
