~Version ---------------------------------------------------
VERS.   2.0 : CWLS log ASCII Standard -VERSION 2.0
WRAP.    NO : One line per depth step
DLM . SPACE : Column Data Section Delimiter
~Well ------------------------------------------------------
STRT..M    0.19040 : START DEPTH
STOP..M 1920.12700 : STOP DEPTH
STEP..M    0.19050 : STEP
NULL.     -9999.25 : NULL VALUE
COMP.              : COMPANY
WELL.              : WELL
FLD .              : FIELD
LOC .              : LOCATION
PROV.              : PROVINCE
CNTY.              : COUNTY
STAT.              : STATE
CTRY.              : COUNTRY
SRVC.              : SERVICE COMPANY
DATE.              : DATE
UWI .              : UNIQUE WELL ID
API .              : API NUMBER
~Curve Information -----------------------------------------
DEPTH..M       : Depth
ГК   .имп/мин  : описание 1
НГК  .усл. ед  : описание 2
~Params ----------------------------------------------------
..M    0.0 : Start depth
..M 1920.0 : Stop depth
..M    0.2 : Step
..   -9999 : Null value
~Other -----------------------------------------------------
~ASCII -----------------------------------------------------
# ...
  898.07780    1.09830  809.49030
  898.26830    1.12860  839.01580
  898.45870    1.05280  825.48330
  898.64910    0.92410  802.10900
  898.83960    0.95440  777.50440
  899.03000    1.07180  752.89980
  899.22040    1.22710  729.52550
  899.41090    1.37100  708.61160
  899.60130    1.41260  777.50440
  899.79170    1.32550  772.58350
  899.98210    1.34820  815.64150
  900.17260    1.44670  859.92970
  900.36300    1.47700  896.83660
  900.55340    1.27630  934.97360
  900.74390    1.00740  966.95960
  900.93430    0.84080  992.79440
  901.12470    0.75740 1008.78730
  901.31520    0.75740 1028.47100
  901.50560    0.81420 1018.62920
  901.69600    0.99220  965.72930
  901.88650    1.15890  902.98770
  902.07690    1.18160  829.17400
  902.26730    1.01120  775.04390
  902.45780    0.91650  735.67660
  902.64820    0.81800  684.00700
  902.83860    0.75370  645.86990
  903.02910    0.68930  649.56060
  903.21950    0.67410  684.00700
  903.40990    0.72710  738.13710
  903.60040    0.85590  793.49740
  903.79080    1.07560  841.47630
  903.98120    1.24980  878.38310
  904.17170    1.28010  914.05980
  904.36210    1.09450  944.81550
  904.55250    0.98470  974.34090
  904.74290    0.87110 1003.86640
  904.93340    0.83320 1028.47100
  905.12380    0.86730 1051.84530
  905.31420    0.94300 1065.37790
  905.50470    0.95820 1064.14760
  905.69510    0.99980 1060.45690
  905.88550    1.07180 1070.29880
  906.07600    1.16650 1088.75220
  906.26640    1.13620 1110.89630
  906.45680    1.00740 1121.96840
  906.64730    0.87110 1085.06150
  906.83770    0.79910 1008.78730
  907.02810    0.86350  939.89460
  907.21860    1.00740  893.14590
  907.40900    1.11720  827.94380
  907.59940    1.05280  759.05100
  907.78990    0.86350  695.07910
  907.98030    0.94680  659.40250
  908.17070    1.08310  690.15820
  908.36120    1.19300  747.97890
  908.55160    1.31040  802.10900
  908.74200    1.40500  850.08790
  908.93250    1.37100  895.60630
  909.12290    1.27250  923.90160
  909.31330    1.18160  928.82250
  909.50380    1.09830  943.58520
  909.69420    1.01120  971.88050
  909.88460    0.96950 1007.55710
  910.07500    0.93540 1040.77330
  910.26550    0.92410 1067.83830
  910.45590    0.98090 1087.52200
  910.64630    1.02250 1066.60810
  910.83680    0.92030 1029.70120
  911.02720    0.84080  996.48510
  911.21760    0.86350  978.03160
  911.40810    0.88240  973.11070
  911.59850    0.87480  962.03870
  911.78890    1.00360  942.35500
  911.97940    1.12860  916.52020
  912.16980    1.30280  893.14590
  912.36020    1.29900  878.38310
  912.55070    1.06420  872.23200
  912.74110    0.90140  858.69950
  912.93150    0.89380  839.01580
  913.12200    0.93920  816.87170
  913.31240    1.02630  804.56940
  913.50280    1.11720  825.48330
  913.69330    1.11720  866.08080
  913.88370    1.05660  899.29700
  914.07410    0.99600  934.97360
  914.26460    0.94680  978.03160
  914.45500    0.93170 1013.70830
  914.64540    0.94680 1032.16170
  914.83590    0.99600 1046.92440
  915.02630    1.05280 1072.75920
  915.21670    1.09070 1060.45690
  915.40710    1.10590  996.48510
  915.59760    1.12860  986.64320
  915.78800    1.19300 1001.40600
  915.97840    1.25360  998.94550
  916.16890    1.23080  950.96660
  916.35930    1.16650  846.39720
  916.54970    1.24220  731.98590
  916.74020    1.00740  666.78380
  916.93060    0.99980  627.41650
  917.12100    1.06800  592.97010
  917.31150    1.16650  594.20040
  917.50190    1.25730  632.33740
  917.69230    1.32930  718.45340
  917.88280    1.32550  765.20210
  918.07320    1.23840  842.70650
  918.26360    1.28010  886.99470
  918.45410    1.30280  927.59230
  918.64450    1.19680  962.03870
  918.83490    1.11340  994.02460
  919.02540    1.06040 1018.62920
  919.21580    1.02250  996.48510
  919.40620    0.99220  932.51320
  919.59670    1.05660  872.23200
  919.78710    1.21190  880.84360
  919.97750    1.37850  915.29000
  920.16800    1.57550  954.65730
  920.35840    1.74970  971.88050
  920.54880    1.81790  934.97360
  920.73920    1.62850  891.91560
  920.92970    1.47320  899.29700
  921.12010    1.35960  917.75040
  921.31050    1.26490  937.43410
  921.50100    1.17400  918.98070
  921.69140    1.12100  866.08080
  921.88180    1.06040  762.74170
  922.07230    0.99220  701.23020
  922.26270    0.93170  640.94900
  922.45310    0.91650  605.27240
  922.64360    0.96950  618.80490
  922.83400    1.10590  645.86990
  923.02440    1.27250  659.40250
  923.21490    1.57170  672.93500
  923.40530    2.01100  693.84890
  923.59570    2.25340  711.07210
  923.78620    2.40870  733.21620
  923.97660    2.04130  752.89980
  924.16700    1.63990  754.13010
  924.35750    1.20430  692.61860
  924.54790    0.92790  645.86990
  924.73830    0.87860  669.24430
  924.92880    0.82940  553.60280
  925.11920    0.74990  521.61690
  925.30960    0.70440  533.91920
  925.50000    0.79910  588.04920
  925.69050    1.03010  661.86290
  925.88090    1.25730  719.68370
  926.07130    1.51870  794.72760
  926.26180    1.72700  859.92970
  926.45220    1.65500  912.82950
  926.64260    1.45430  962.03870
  926.83310    1.24980  974.34090
  927.02350    1.14750  947.27590
  927.21390    1.18540  914.05980
  927.40440    1.28760  884.53430
  927.59480    1.29520  864.85060
  927.78520    1.17400  888.22500
  927.97570    1.09830  939.89460
  928.16610    1.01880  991.56410
  928.35650    0.95820 1037.08260
  928.54700    0.92410 1075.21970
  928.73740    0.94300 1110.89630
  928.92780    0.99220 1133.04040
  929.11830    1.01880 1129.34970
  929.30870    1.00360 1109.66610
  929.49910    1.00740 1091.21270
  929.68960    0.99600 1097.36380
  929.88000    0.89000 1044.46400
  930.07040    0.83700 1053.07560
  930.26090    0.86350 1077.68010
  930.45130    0.93170 1096.13360
  930.64170    0.99220 1115.81720
  930.83210    1.00740 1134.27070
  931.02260    0.99220 1129.34970
  931.21300    0.96190 1109.66610
  931.40340    0.96190 1075.21970
  931.59390    1.01500 1028.47100
  931.78430    1.10590  984.18280
  931.97470    1.20430  914.05980
  932.16520    1.31040  856.23900
  932.35560    1.36720  864.85060
  932.54600    1.30280  911.59930
  932.73650    1.19680  948.50620
  932.92690    1.18160  981.72230
  933.11730    1.25730 1016.16870
  933.30780    1.32550  998.94550
  933.49820    1.25730  957.11780
  933.68860    1.18160  943.58520
  933.87910    1.10590  914.05980
  934.06950    1.04530  901.75750
  934.25990    1.02250  917.75040
  934.45040    1.06040  925.13180
  934.64080    1.12860  906.67840
  934.83120    1.18920  883.30400
  935.02170    1.17400  857.46920
  935.21210    1.11340  831.63440
  935.40250    1.06800  809.49030
  935.59300    0.99220  787.34620
  935.78340    0.90140  765.20210
  935.97380    0.79150  745.51850
  936.16420    0.57570  755.36030
  936.35470    0.54910  789.80670
  936.54510    0.59840  840.24600
  936.73550    0.68930  907.90860
  936.92600    0.71580  918.98070
  937.11640    0.68930  949.73640
  937.30680    0.73470  982.95250
  937.49730    0.84080  998.94550
  937.68770    0.99600  981.72230
  937.87810    1.13620  950.96660
  938.06860    1.28010  930.05270
  938.25900    1.32550  953.42710
  938.44940    1.30280  976.80140
  938.63990    1.31790  959.57820
  938.83030    1.31790  896.83660
  939.02070    1.26490  846.39720
  939.21120    1.21570  861.15990
  939.40160    1.15890  920.21090
  939.59200    1.12100  971.88050
  939.78250    1.07560 1006.32690
  939.97290    1.05280 1011.24780
  940.16330    1.09070  971.88050
  940.35380    1.13620  909.13880
  940.54420    1.12860  855.00880
  940.73460    1.17020  840.24600
  940.92510    1.24220  788.57640
  941.11550    1.35580  770.12300
  941.30590    1.46560  800.87870
  941.49630    1.50730  872.23200
  941.68680    1.29520  959.57820
  941.87720    1.09830 1012.47800
  942.06760    0.96190 1042.00350
  942.25810    0.87860 1054.30580
  942.44850    0.86350 1021.08960
  942.63890    0.92410  978.03160
  942.82940    1.03390  958.34800
