~Version ---------------------------------------------------
VERS.   2.0 : CWLS log ASCII Standard -VERSION 2.0
WRAP.    NO : One line per depth step
DLM . SPACE : Column Data Section Delimiter
~Well ------------------------------------------------------
STRT..M    0.19040 : START DEPTH
STOP..M 1920.12700 : STOP DEPTH
STEP..M    0.19050 : STEP
NULL.     -9999.25 : NULL VALUE
COMP.              : COMPANY
WELL.              : WELL
FLD .              : FIELD
LOC .              : LOCATION
PROV.              : PROVINCE
CNTY.              : COUNTY
STAT.              : STATE
CTRY.              : COUNTRY
SRVC.              : SERVICE COMPANY
DATE.              : DATE
UWI .              : UNIQUE WELL ID
API .              : API NUMBER
~Curve Information -----------------------------------------
DEPTH..M       : Depth
ГК   .имп/мин  : описание 1
НГК  .усл. ед  : описание 2
~Params ----------------------------------------------------
..M    0.0 : Start depth
..M 1920.0 : Stop depth
..M    0.2 : Step
..   -9999 : Null value
~Other -----------------------------------------------------
~ASCII -----------------------------------------------------
# ...
  493.60000    0.74990  546.22140
  493.79050    0.89760  522.84710
  493.98090    1.02630  505.62390
  494.17130    0.81800  519.15640
  494.36180    0.85590  546.22140
  494.55220    1.08310  563.44460
  494.74260    1.50730  546.22140
  494.93310    1.70050  521.61690
  495.12350    1.84440  506.85410
  495.31390    1.98070  510.54480
  495.50430    2.09810  519.15640
  495.69480    2.07920  509.31460
  495.88520    1.67770  489.63090
  496.07560    1.25730  484.71000
  496.26610    1.23460  498.24250
  496.45650    1.36340  516.69600
  496.64690    1.51490  535.14940
  496.83740    1.63990  558.52370
  497.02780    1.84820  559.75400
  497.21820    1.96930  531.45870
  497.40870    2.12840  501.93320
  497.59910    2.27610  489.63090
  497.78950    2.37080  519.15640
  497.98000    2.06020  548.68190
  498.17040 -9999.00000  540.07030
  498.36080    1.40880  504.39370
  498.55130    1.18920  492.09140
  498.74170    1.11340  500.70300
  498.93210    1.20810  514.23550
  499.12260    1.40500  520.38660
  499.31300    1.71940  504.39370
  499.50340    2.05640  482.24960
  499.69390    2.30260  490.86120
  499.88430    2.57150  520.38660
  500.07470    2.57910  551.14240
  500.26520    2.26850  581.89810
  500.45560    1.98830  596.66080
  500.64600    1.61710  575.74690
  500.83640    1.42780  541.30050
  501.02690    1.46940  519.15640
  501.21730    1.53380  538.84010
  501.40770    1.60580  583.12830
  501.59820    1.40130  600.35150
  501.78860    1.43530  580.66780
  501.97900    1.96180  559.75400
  502.16950    2.15490  535.14940
  502.35990    2.32910  516.69600
  502.55030    2.36700  526.53780
  502.74080    2.39730  552.37260
  502.93120    2.31780  559.75400
  503.12160    1.68530  531.45870
  503.31210    1.42020  497.01230
  503.50250    1.54520  474.86820
  503.69290    1.63990  495.78210
  503.88340    1.80650  525.30760
  504.07380    1.85190  538.84010
  504.26420    1.82920  538.84010
  504.45470    1.91630  549.91210
  504.64510    1.93530  572.05620
  504.83550    1.57930  585.58880
  505.02600    1.36340  578.20740
  505.21640    1.24600  565.90510
  505.40680    1.15510  565.90510
  505.59720    1.16650  573.28650
  505.78770    1.20810  578.20740
  505.97810    1.20430  560.98420
  506.16850    1.20050  533.91920
  506.35900    1.26870  516.69600
  506.54940    1.32550  471.17750
  506.73980    1.33310  452.72410
  506.93030    1.18920  472.40770
  507.12070    1.05280  492.09140
  507.31110    0.93170  504.39370
  507.50160    0.88620  499.47280
  507.69200    0.90890  490.86120
  507.88240    0.93170  494.55180
  508.07290    0.93920  497.01230
  508.26330    0.98470  484.71000
  508.45370    0.93540  466.25660
  508.64420    0.78770  463.79610
  508.83460    0.69310  450.26360
  509.02500    0.66280  423.19860
  509.21550    0.73470  405.97540
  509.40590    0.87860  401.05450
  509.59630    1.06800  415.81720
  509.78680    1.20050  433.04040
  509.97720    1.25360  440.42180
  510.16760    1.06800  441.65200
  510.35810    0.91650  447.80320
  510.54850    0.78020  445.34270
  510.73890    0.68170  430.58000
  510.92930    0.63620  410.89630
  511.11980    0.62110  413.35680
  511.31020    0.57940  433.04040
  511.50060    0.51510  452.72410
  511.69110    0.57190  455.18450
  511.88150    0.73090  442.88220
  512.07190    0.84080  428.11950
  512.26240    0.93170  429.34970
  512.45280    0.92030  450.26360
  512.64320    0.81050  460.10540
  512.83370    0.73470  450.26360
  513.02410    0.68170  440.42180
  513.21450    0.62870  428.11950
  513.40500    0.60600  413.35680
  513.59540    0.67410  403.51490
  513.78580    0.79150  401.05450
  513.97630    0.78770  405.97540
  514.16670    0.64760  418.27770
  514.35710    0.55290  423.19860
  514.54760    0.56810  421.96840
  514.73800    0.64000  436.73110
  514.92840    0.66280  455.18450
  515.11890    0.59080  437.96130
  515.30930    0.49230  413.35680
  515.49970    0.48850  398.59400
  515.69020    0.65520  407.20560
  515.88060    0.77640  420.73810
  516.07100    0.87860  435.50090
  516.26140    0.99220  447.80320
  516.45190    1.09450  445.34270
  516.64230    1.03010  435.50090
  516.83270    0.76500  428.11950
  517.02320    0.62110  433.04040
  517.21360    0.54540  447.80320
  517.40400    0.59460  468.71700
  517.59450    0.70440  489.63090
  517.78490    0.74990  511.77500
  517.97530    0.70440  511.77500
  518.16580    0.68550  501.93320
  518.35620    0.68170  506.85410
  518.54660    0.64760  530.22850
  518.73710    0.60600  536.37960
  518.92750    0.54540  522.84710
  519.11790    0.48100  503.16340
  519.30840    0.45070  494.55180
  519.49880    0.51510  511.77500
  519.68920    0.56810  514.23550
  519.87970    0.56810  501.93320
  520.07010    0.53780  485.94020
  520.26050    0.55670  467.48680
  520.45100    0.57190  457.64500
  520.64140    0.49230  450.26360
  520.83180    0.47340  457.64500
  521.02230    0.53780  472.40770
  521.21270    0.56430  495.78210
  521.40310    0.57570  510.54480
  521.59350    0.68930  525.30760
  521.78400    0.81050  548.68190
  521.97440    0.90510  541.30050
  522.16480    0.95820  504.39370
  522.35530    0.93920  472.40770
  522.54570    0.89380  437.96130
  522.73610    0.92410  452.72410
  522.92660    0.95060  478.55890
  523.11700    0.87860  493.32160
  523.30740    0.78770  501.93320
  523.49790    0.71200  516.69600
  523.68830    0.74990  538.84010
  523.87870    1.08310  551.14240
  524.06920    1.15890  551.14240
  524.25960    1.04150  558.52370
  524.45000    1.03390  572.05620
  524.64050    1.21190  575.74690
  524.83090    1.11340  521.61690
  525.02130    0.96190  481.01930
  525.21180    0.85210  442.88220
  525.40220    0.79150  405.97540
  525.59260    0.77640  394.90330
  525.78310    0.78020  403.51490
  525.97350    0.71200  423.19860
  526.16390    0.62110  450.26360
  526.35430    0.53020  472.40770
  526.54480    0.51510  492.09140
  526.73520    0.53020  509.31460
  526.92560    0.51130  519.15640
  527.11610    0.46200  519.15640
  527.30650    0.41660  536.37960
  527.49690    0.38250  563.44460
  527.68740    0.42420  580.66780
  527.87780    0.44690  576.97720
  528.06820    0.40140  590.50970
  528.25870    0.33330  617.57470
  528.44910    0.30300  642.17930
  528.63950    0.29540  666.78380
  528.83000    0.30300  686.46750
  529.02040    0.32570  696.30930
  529.21080    0.34460  706.15110
  529.40130    0.38250  723.37430
  529.59170    0.40140  701.23020
  529.78210    0.39390  654.48150
  529.97260    0.39010  629.87700
  530.16300    0.40900  606.50260
  530.35340    0.46200  558.52370
  530.54390    0.51130  511.77500
  530.73430    0.50750  462.56590
  530.92470    0.48480  423.19860
  531.11520    0.49990  458.87520
  531.30560    0.56810  504.39370
  531.49600    0.63620  541.30050
  531.68640    0.62490  562.21440
  531.87690    0.59840  579.43760
  532.06730    0.62110  612.65380
  532.25770    0.71200  632.33740
  532.44820    0.81420  607.73290
  532.63860    0.85590  565.90510
  532.82900    0.77260  524.07730
  533.01950    0.66650  488.40070
  533.20990    0.66650  484.71000
  533.40030    0.66280  530.22850
  533.59080    0.60600  583.12830
  533.78120    0.51880  632.33740
  533.97160    0.45070  681.54660
  534.16210    0.44690  728.29530
  534.35250    0.47720  746.74870
  534.54290    0.53780  718.45340
  534.73340    0.56050  677.85590
  534.92380    0.67790  627.41650
  535.11420    0.60220  569.59580
  535.30470    0.63620  522.84710
  535.49510    0.59080  478.55890
  535.68550    0.53020  472.40770
  535.87600 -9999.00000  504.39370
  536.06640 -9999.00000  538.84010
  536.25680 -9999.00000  505.62390
  536.44730 -9999.00000  441.65200
  536.63770 -9999.00000  398.59400
  536.82810    0.54540  393.67310
  537.01850    0.60970  420.73810
  537.20900    0.84830  445.34270
  537.39940    0.95440  450.26360
  537.58980    0.89760  426.88930
  537.78030    0.83700  413.35680
  537.97070    0.85970  430.58000
  538.16110    1.02630  455.18450
  538.35160    1.18160  482.24960
