~Version ---------------------------------------------------
VERS.   2.0 : CWLS log ASCII Standard -VERSION 2.0
WRAP.    NO : One line per depth step
DLM . SPACE : Column Data Section Delimiter
~Well ------------------------------------------------------
STRT..M  1061.00000 : START DEPTH
STOP..M 31307.00000 : STOP DEPTH
STEP..M     3.00000 : STEP
NULL.      -9999.25 : NULL VALUE
COMP.               : COMPANY
WELL.               : WELL
FLD .               : FIELD
LOC .               : LOCATION
PROV.               : PROVINCE
CNTY.               : COUNTY
STAT.               : STATE
CTRY.               : COUNTRY
SRVC.               : SERVICE COMPANY
DATE.               : DATE
UWI .               : UNIQUE WELL ID
API .               : API NUMBER
~Curve Information -----------------------------------------
DEPTH..M       : Depth
ГК   .имп/мин  : описание 1
НГК  .усл. ед  : описание 2
~Params ----------------------------------------------------
..M    0.0 : Start depth
..M 1920.0 : Stop depth
..M    0.2 : Step
..   -9999 : Null value
~Other -----------------------------------------------------
~ASCII -----------------------------------------------------
# ...
 10928.00000  511.00000  908.00000
 10931.00000  481.00000  890.00000
 10934.00000  457.00000  874.00000
 10937.00000  443.00000  864.00000
 10940.00000  450.00000  870.00000
 10943.00000  472.00000  874.00000
 10946.00000  499.00000  865.00000
 10949.00000  505.00000  851.00000
 10952.00000  502.00000  840.00000
 10955.00000  504.00000  825.00000
 10958.00000  515.00000  812.00000
 10961.00000  502.00000  808.00000
 10964.00000  476.00000  820.00000
 10967.00000  447.00000  852.00000
 10970.00000  432.00000  884.00000
 10973.00000  444.00000  884.00000
 10976.00000  471.00000  852.00000
 10979.00000  508.00000  821.00000
 10982.00000  520.00000  796.00000
 10985.00000  498.00000  798.00000
 10988.00000  482.00000  810.00000
 10991.00000  493.00000  807.00000
 10994.00000  493.00000  820.00000
 10997.00000  472.00000  840.00000
 11000.00000  453.00000  850.00000
 11003.00000  442.00000  839.00000
 11006.00000  462.00000  824.00000
 11009.00000  473.00000  816.00000
 11012.00000  440.00000  820.00000
 11015.00000  406.00000  828.00000
 11018.00000  415.00000  841.00000
 11021.00000  455.00000  855.00000
 11024.00000  486.00000  870.00000
 11027.00000  496.00000  878.00000
 11030.00000  519.00000  868.00000
 11033.00000  508.00000  842.00000
 11036.00000  453.00000  810.00000
 11039.00000  454.00000  777.00000
 11042.00000  511.00000  764.00000
 11045.00000  537.00000  788.00000
 11048.00000  510.00000  814.00000
 11051.00000  487.00000  838.00000
 11054.00000  496.00000  859.00000
 11057.00000  545.00000  844.00000
 11060.00000  595.00000  815.00000
 11063.00000  619.00000  796.00000
 11066.00000  580.00000  776.00000
 11069.00000  540.00000  760.00000
 11072.00000  502.00000  764.00000
 11075.00000  480.00000  836.00000
 11078.00000  492.00000  766.00000
 11081.00000  543.00000  776.00000
 11084.00000  583.00000  791.00000
 11087.00000  590.00000  804.00000
 11090.00000  574.00000  794.00000
 11093.00000  558.00000  792.00000
 11096.00000  555.00000  811.00000
 11099.00000  558.00000  818.00000
 11102.00000  546.00000  816.00000
 11105.00000  523.00000  828.00000
 11108.00000  514.00000  840.00000
 11111.00000  505.00000  814.00000
 11114.00000  488.00000  776.00000
 11117.00000  458.00000  754.00000
 11120.00000  422.00000  766.00000
 11123.00000  414.00000  787.00000
 11126.00000  424.00000  791.00000
 11129.00000  441.00000  784.00000
 11132.00000  473.00000  774.00000
 11135.00000  498.00000  770.00000
 11138.00000  500.00000  781.00000
 11141.00000  488.00000  795.00000
 11144.00000  473.00000  800.00000
 11147.00000  476.00000  786.00000
 11150.00000  500.00000  774.00000
 11153.00000  535.00000  782.00000
 11156.00000  567.00000  794.00000
 11159.00000  584.00000  798.00000
 11162.00000  606.00000  782.00000
 11165.00000  672.00000  750.00000
 11168.00000  704.00000  749.00000
 11171.00000  654.00000  768.00000
 11174.00000  610.00000  773.00000
 11177.00000  562.00000  783.00000
 11180.00000  522.00000  802.00000
 11183.00000  494.00000  820.00000
 11186.00000  486.00000  796.00000
 11189.00000  488.00000  750.00000
 11192.00000  506.00000  714.00000
 11195.00000  542.00000  698.00000
 11198.00000  574.00000  712.00000
 11201.00000  557.00000  793.00000
 11204.00000  496.00000  736.00000
 11207.00000  477.00000  750.00000
 11210.00000  471.00000  758.00000
 11213.00000  457.00000  758.00000
 11216.00000  434.00000  764.00000
 11219.00000  416.00000  776.00000
 11222.00000  409.00000  780.00000
 11225.00000  414.00000  785.00000
 11228.00000  428.00000  798.00000
 11231.00000  442.00000  810.00000
 11234.00000  460.00000  807.00000
 11237.00000  478.00000  789.00000
 11240.00000  489.00000  770.00000
 11243.00000  480.00000  751.00000
 11246.00000  464.00000  737.00000
 11249.00000  481.00000  780.00000
 11252.00000  504.00000  741.00000
 11255.00000  514.00000  716.00000
 11258.00000  505.00000  676.00000
 11261.00000  494.00000  652.00000
 11264.00000  510.00000  668.00000
 11267.00000  538.00000  686.00000
 11270.00000  568.00000  704.00000
 11273.00000  598.00000  704.00000
 11276.00000  626.00000  687.00000
 11279.00000  616.00000  674.00000
 11282.00000  542.00000  678.00000
 11285.00000  511.00000  664.00000
 11288.00000  480.00000  645.00000
 11291.00000  491.00000  640.00000
 11294.00000  521.00000  663.00000
 11297.00000  541.00000  691.00000
 11300.00000  540.00000  714.00000
 11303.00000  557.00000  743.00000
 11306.00000  587.00000  775.00000
 11309.00000  618.00000  776.00000
 11312.00000  650.00000  863.00000
 11315.00000  660.00000  704.00000
 11318.00000  606.00000  674.00000
 11321.00000  525.00000  648.00000
 11324.00000  472.00000  648.00000
 11327.00000  445.00000  717.00000
 11330.00000  426.00000  686.00000
 11333.00000  420.00000  694.00000
 11336.00000  436.00000  708.00000
 11339.00000  464.00000  734.00000
 11342.00000  483.00000  747.00000
 11345.00000  508.00000  730.00000
 11348.00000  536.00000  719.00000
 11351.00000  554.00000  732.00000
 11354.00000  508.00000  752.00000
 11357.00000  510.00000  772.00000
 11360.00000  544.00000  794.00000
 11363.00000  570.00000  809.00000
 11366.00000  604.00000  814.00000
 11369.00000  626.00000  827.00000
 11372.00000  589.00000  854.00000
 11375.00000  569.00000  875.00000
 11378.00000  571.00000  874.00000
 11381.00000  584.00000  840.00000
 11384.00000  597.00000  809.00000
 11387.00000  588.00000  788.00000
 11390.00000  563.00000  802.00000
 11393.00000  532.00000  824.00000
 11396.00000  503.00000  846.00000
 11399.00000  484.00000  841.00000
 11402.00000  464.00000  814.00000
 11405.00000  451.00000  786.00000
 11408.00000  430.00000  758.00000
 11411.00000  424.00000  760.00000
 11414.00000  443.00000  781.00000
 11417.00000  479.00000  797.00000
 11420.00000  486.00000  801.00000
 11423.00000  461.00000  842.00000
 11426.00000  435.00000  820.00000
 11429.00000  412.00000  827.00000
 11432.00000  416.00000  816.00000
 11435.00000  429.00000  802.00000
 11438.00000  435.00000  823.00000
 11441.00000  441.00000  770.00000
 11444.00000  464.00000  757.00000
 11447.00000  488.00000  754.00000
 11450.00000  492.00000  766.00000
 11453.00000  477.00000  781.00000
 11456.00000  454.00000  784.00000
 11459.00000  428.00000  792.00000
 11462.00000  425.00000  810.00000
 11465.00000  438.00000  811.00000
 11468.00000  457.00000  797.00000
 11471.00000  478.00000  782.00000
 11474.00000  494.00000  774.00000
 11477.00000  512.00000  779.00000
 11480.00000  527.00000  799.00000
 11483.00000  514.00000  828.00000
 11486.00000  484.00000  863.00000
 11489.00000  462.00000  850.00000
 11492.00000  456.00000  852.00000
 11495.00000  474.00000  840.00000
 11498.00000  488.00000  818.00000
 11501.00000  494.00000  798.00000
 11504.00000 -9999.00000  782.00000
 11507.00000 -9999.00000  792.00000
 11510.00000 -9999.00000  802.00000
 11513.00000  506.00000  814.00000
 11516.00000  481.00000  835.00000
 11519.00000  452.00000  868.00000
 11522.00000  418.00000  905.00000
 11525.00000  418.00000  935.00000
 11528.00000  430.00000  938.00000
 11531.00000  441.00000  906.00000
 11534.00000  458.00000  884.00000
 11537.00000  462.00000  870.00000
 11540.00000  470.00000  869.00000
 11543.00000  478.00000  854.00000
 11546.00000  492.00000  828.00000
 11549.00000  490.00000  794.00000
 11552.00000  467.00000  756.00000
 11555.00000  453.00000  769.00000
 11558.00000  466.00000  786.00000
 11561.00000  495.00000  804.00000
 11564.00000  517.00000  919.00000
 11567.00000  513.00000  820.00000
 11570.00000  489.00000  828.00000
 11573.00000  464.00000  833.00000
 11576.00000  460.00000  839.00000
 11579.00000  483.00000  835.00000
 11582.00000  518.00000  811.00000
 11585.00000  527.00000  796.00000
 11588.00000  516.00000  778.00000
 11591.00000  496.00000  758.00000
 11594.00000  504.00000  732.00000
 11597.00000  534.00000  712.00000
 11600.00000  530.00000  690.00000
 11603.00000  509.00000  668.00000
 11606.00000  480.00000  649.00000
 11609.00000  445.00000  638.00000
 11612.00000  418.00000  646.00000
