~Version ---------------------------------------------------
VERS.   2.0 : CWLS log ASCII Standard -VERSION 2.0
WRAP.    NO : One line per depth step
DLM . SPACE : Column Data Section Delimiter
~Well ------------------------------------------------------
STRT..M  1061.00000 : START DEPTH
STOP..M 31307.00000 : STOP DEPTH
STEP..M     3.00000 : STEP
NULL.      -9999.25 : NULL VALUE
COMP.               : COMPANY
WELL.               : WELL
FLD .               : FIELD
LOC .               : LOCATION
PROV.               : PROVINCE
CNTY.               : COUNTY
STAT.               : STATE
CTRY.               : COUNTRY
SRVC.               : SERVICE COMPANY
DATE.               : DATE
UWI .               : UNIQUE WELL ID
API .               : API NUMBER
~Curve Information -----------------------------------------
DEPTH..M       : Depth
ГК   .имп/мин  : описание 1
НГК  .усл. ед  : описание 2
~Params ----------------------------------------------------
..M    0.0 : Start depth
..M 1920.0 : Stop depth
..M    0.2 : Step
..   -9999 : Null value
~Other -----------------------------------------------------
~ASCII -----------------------------------------------------
# ...
 28790.00000  396.00000  902.00000
 28793.00000  372.00000  926.00000
 28796.00000  370.00000  889.00000
 28799.00000  372.00000  845.00000
 28802.00000  366.00000  889.00000
 28805.00000  369.00000  960.00000
 28808.00000  385.00000  942.00000
 28811.00000  372.00000  924.00000
 28814.00000  353.00000  923.00000
 28817.00000  362.00000  904.00000
 28820.00000  370.00000  884.00000
 28823.00000  374.00000  897.00000
 28826.00000  352.00000  925.00000
 28829.00000  344.00000  949.00000
 28832.00000  356.00000  964.00000
 28835.00000  366.00000  912.00000
 28838.00000  369.00000  924.00000
 28841.00000  370.00000  879.00000
 28844.00000  383.00000  852.00000
 28847.00000  402.00000  849.00000
 28850.00000  404.00000  823.00000
 28853.00000  392.00000  828.00000
 28856.00000  400.00000  831.00000
 28859.00000  419.00000  790.00000
 28862.00000  446.00000  740.00000
 28865.00000  469.00000  712.00000
 28868.00000  452.00000  736.00000
 28871.00000  424.00000  795.00000
 28874.00000  439.00000  810.00000
 28877.00000  427.00000  775.00000
 28880.00000  418.00000  703.00000
 28883.00000  452.00000  654.00000
 28886.00000  482.00000  862.00000
 28889.00000  528.00000  767.00000
 28892.00000  505.00000 1027.00000
 28895.00000  502.00000  813.00000
 28898.00000  456.00000  894.00000
 28901.00000  458.00000  937.00000
 28904.00000  472.00000  991.00000
 28907.00000  488.00000  923.00000
 28910.00000  504.00000  937.00000
 28913.00000  478.00000  915.00000
 28916.00000  441.00000  739.00000
 28919.00000  434.00000  713.00000
 28922.00000  445.00000  721.00000
 28925.00000  456.00000  757.00000
 28928.00000  440.00000  807.00000
 28931.00000  436.00000 1078.00000
 28934.00000  458.00000  822.00000
 28937.00000  456.00000  874.00000
 28940.00000  453.00000  993.00000
 28943.00000  460.00000 1124.00000
 28946.00000  418.00000 1046.00000
 28949.00000  401.00000 1078.00000
 28952.00000  416.00000 1162.00000
 28955.00000  428.00000 1128.00000
 28958.00000  424.00000 1114.00000
 28961.00000  402.00000 1158.00000
 28964.00000  387.00000  793.00000
 28967.00000  384.00000  819.00000
 28970.00000  394.00000  803.00000
 28973.00000  418.00000  846.00000
 28976.00000  428.00000  830.00000
 28979.00000  449.00000 1019.00000
 28982.00000  490.00000 1099.00000
 28985.00000  502.00000 1101.00000
 28988.00000  506.00000  892.00000
 28991.00000  560.00000 1055.00000
 28994.00000  565.00000  922.00000
 28997.00000  514.00000  974.00000
 29000.00000  492.00000 1009.00000
 29003.00000  480.00000  976.00000
 29006.00000  476.00000  901.00000
 29009.00000  476.00000  842.00000
 29012.00000  494.00000  722.00000
 29015.00000  512.00000  791.00000
 29018.00000  523.00000  897.00000
 29021.00000  537.00000 1008.00000
 29024.00000  503.00000 1102.00000
 29027.00000  484.00000 1138.00000
 29030.00000  481.00000  941.00000
 29033.00000  463.00000 1073.00000
 29036.00000  433.00000 1124.00000
 29039.00000  419.00000 1056.00000
 29042.00000  427.00000  806.00000
 29045.00000  454.00000  787.00000
 29048.00000  490.00000  783.00000
 29051.00000  522.00000  748.00000
 29054.00000  518.00000  784.00000
 29057.00000  483.00000  819.00000
 29060.00000  498.00000  815.00000
 29063.00000  492.00000  860.00000
 29066.00000  464.00000  830.00000
 29069.00000  446.00000  800.00000
 29072.00000  415.00000  845.00000
 29075.00000  425.00000  884.00000
 29078.00000  402.00000  910.00000
 29081.00000  444.00000  881.00000
 29084.00000  461.00000  807.00000
 29087.00000  543.00000  806.00000
 29090.00000  518.00000  792.00000
 29093.00000  491.00000  781.00000
 29096.00000  509.00000  915.00000
 29099.00000  534.00000  837.00000
 29102.00000  547.00000  882.00000
 29105.00000  505.00000  871.00000
 29108.00000  454.00000  944.00000
 29111.00000  422.00000  809.00000
 29114.00000  427.00000  844.00000
 29117.00000  492.00000  840.00000
 29120.00000  455.00000  871.00000
 29123.00000  424.00000  920.00000
 29126.00000  375.00000  807.00000
 29129.00000  356.00000  860.00000
 29132.00000  362.00000  772.00000
 29135.00000  367.00000  821.00000
 29138.00000  364.00000  916.00000
 29141.00000  357.00000  968.00000
 29144.00000  359.00000  984.00000
 29147.00000  439.00000  949.00000
 29150.00000  424.00000  920.00000
 29153.00000  424.00000  900.00000
 29156.00000  610.00000  909.00000
 29159.00000  616.00000  913.00000
 29162.00000  750.00000  882.00000
 29165.00000  851.00000  815.00000
 29168.00000  866.00000  784.00000
 29171.00000  813.00000  756.00000
 29174.00000  792.00000  736.00000
 29177.00000  816.00000  732.00000
 29180.00000  917.00000  724.00000
 29183.00000  530.00000  703.00000
 29186.00000  538.00000  728.00000
 29189.00000  522.00000  748.00000
 29192.00000  492.00000  765.00000
 29195.00000  471.00000  801.00000
 29198.00000  475.00000  864.00000
 29201.00000  531.00000  941.00000
 29204.00000  596.00000  985.00000
 29207.00000  823.00000  962.00000
 29210.00000  843.00000  867.00000
 29213.00000  837.00000  820.00000
 29216.00000  844.00000  864.00000
 29219.00000  916.00000  879.00000
 29222.00000  841.00000  862.00000
 29225.00000  881.00000  858.00000
 29228.00000  791.00000  860.00000
 29231.00000  726.00000  898.00000
 29234.00000  690.00000  902.00000
 29237.00000  701.00000  878.00000
 29240.00000  702.00000  896.00000
 29243.00000  681.00000  932.00000
 29246.00000  666.00000  962.00000
 29249.00000  661.00000  974.00000
 29252.00000  643.00000  967.00000
 29255.00000  632.00000  976.00000
 29258.00000  647.00000 1005.00000
 29261.00000  642.00000  979.00000
 29264.00000  591.00000  958.00000
 29267.00000  566.00000  982.00000
 29270.00000  544.00000  981.00000
 29273.00000  516.00000  927.00000
 29276.00000  529.00000  912.00000
 29279.00000  558.00000  954.00000
 29282.00000  592.00000  984.00000
 29285.00000  598.00000 1011.00000
 29288.00000  588.00000 1026.00000
 29291.00000  564.00000 1043.00000
 29294.00000  554.00000 1080.00000
 29297.00000  546.00000 1128.00000
 29300.00000  538.00000 1165.00000
 29303.00000  538.00000 1167.00000
 29306.00000  572.00000 1134.00000
 29309.00000  610.00000 1130.00000
 29312.00000  608.00000 1153.00000
 29315.00000  592.00000  947.00000
 29318.00000  573.00000 1105.00000
 29321.00000  560.00000 1036.00000
 29324.00000  567.00000  976.00000
 29327.00000  593.00000 1040.00000
 29330.00000  625.00000 1044.00000
 29333.00000  665.00000 1043.00000
 29336.00000  674.00000 1120.00000
 29339.00000  674.00000 1101.00000
 29342.00000  663.00000 1057.00000
 29345.00000  636.00000 1044.00000
 29348.00000  626.00000 1032.00000
 29351.00000  631.00000  990.00000
 29354.00000  657.00000  932.00000
 29357.00000  680.00000  891.00000
 29360.00000  677.00000  892.00000
 29363.00000  648.00000  925.00000
 29366.00000  667.00000  971.00000
 29369.00000  703.00000 1032.00000
 29372.00000  675.00000 1066.00000
 29375.00000  594.00000 1078.00000
 29378.00000  534.00000 1062.00000
 29381.00000  533.00000 1070.00000
 29384.00000  542.00000 1113.00000
 29387.00000  548.00000 1130.00000
 29390.00000  527.00000 1125.00000
 29393.00000  474.00000 1108.00000
 29396.00000  419.00000 1128.00000
 29399.00000  411.00000 1177.00000
 29402.00000  354.00000 1220.00000
 29405.00000  356.00000 1243.00000
 29408.00000  366.00000 1227.00000
 29411.00000  370.00000 1202.00000
 29414.00000  368.00000 1242.00000
 29417.00000  363.00000 1302.00000
 29420.00000  358.00000 1303.00000
 29423.00000  360.00000 1218.00000
 29426.00000  372.00000 1216.00000
 29429.00000  380.00000 1246.00000
 29432.00000  378.00000 1285.00000
 29435.00000  372.00000 1318.00000
 29438.00000  364.00000 1362.00000
 29441.00000  356.00000 1390.00000
 29444.00000  354.00000 -9999.00000
 29447.00000  360.00000 -9999.00000
 29450.00000  365.00000 -9999.00000
 29453.00000  360.00000 1390.00000
 29456.00000  354.00000 1359.00000
 29459.00000  350.00000 1299.00000
 29462.00000  352.00000 1264.00000
 29465.00000  357.00000 1288.00000
 29468.00000  360.00000 1336.00000
 29471.00000  360.00000 1368.00000
 29474.00000  356.00000 1357.00000
