~Version ---------------------------------------------------
VERS.   2.0 : CWLS log ASCII Standard -VERSION 2.0
WRAP.    NO : One line per depth step
DLM . SPACE : Column Data Section Delimiter
~Well ------------------------------------------------------
STRT..M  1061.00000 : START DEPTH
STOP..M 31307.00000 : STOP DEPTH
STEP..M     3.00000 : STEP
NULL.      -9999.25 : NULL VALUE
COMP.               : COMPANY
WELL.               : WELL
FLD .               : FIELD
LOC .               : LOCATION
PROV.               : PROVINCE
CNTY.               : COUNTY
STAT.               : STATE
CTRY.               : COUNTRY
SRVC.               : SERVICE COMPANY
DATE.               : DATE
UWI .               : UNIQUE WELL ID
API .               : API NUMBER
~Curve Information -----------------------------------------
DEPTH..M       : Depth
ГК   .имп/мин  : описание 1
НГК  .усл. ед  : описание 2
~Params ----------------------------------------------------
..M    0.0 : Start depth
..M 1920.0 : Stop depth
..M    0.2 : Step
..   -9999 : Null value
~Other -----------------------------------------------------
~ASCII -----------------------------------------------------
# ...
 29114.00000 5487677.65217 1826339.77778
 29117.00000 4508227.00000 1984622.95690
 29120.00000 1803746.07143 1744933.33333
 29123.00000 1372839.09783 1800383.00000
 29126.00000 2177981.41379 2711972.21176
 29129.00000 3239405.46154 1397936.84848
 29132.00000 7896412.31250 2006507.63478
 29135.00000 18049309.42857 2959133.37179
 29138.00000 15793509.25000 3120002.72973
 29141.00000 14039031.88889 4357198.00000
 29144.00000 9719688.76923 4441974.32692
 29147.00000 14039989.88889 4530020.52941
 29150.00000 15795412.37500 9242161.92000
 29153.00000 5744210.63636 21005813.18182
 29156.00000 3082869.29268 33010044.00000
 29159.00000 2218118.89474 21007304.63636
 29162.00000 669706.53439 4127316.89286
 29165.00000 597900.35377 15409465.20000
 29168.00000 577024.50455 12166151.73684
 29171.00000 588522.68056 11558599.95000
 29174.00000 515451.41296 21016372.27273
 29177.00000 414181.58117 21017104.45455
 29180.00000 701840.05495 17784427.69231
 29183.00000 3361974.10526 25689320.66667
 29186.00000 4914192.96154 6249481.67568
 29189.00000 3651065.34286 13602561.05882
 29192.00000 2662726.64583 8565340.48148
 29195.00000 4916273.61538 4205604.47273
 29198.00000 3455153.75676 2203800.04762
 29201.00000 1253871.51961 5143141.31111
 29204.00000 940999.84559 5511493.35714
 29207.00000 815956.63057 3675290.63492
 29210.00000 1165435.98182 3308629.00000
 29213.00000 1457632.07955 7720954.73333
 29216.00000 1078756.88235 11582296.60000
 29219.00000 1200655.01869 21059600.09091
 29222.00000 1137744.91150 10072844.95652
 29225.00000 863734.61745 17822045.23077
 29228.00000 2860712.08889 13629483.23529
 29231.00000 6437328.40000 11585958.25000
 29234.00000 6438018.90000 16552270.42857
 29237.00000 8584726.20000 15449663.66667
 29240.00000 10731609.25000 8914164.00000
 29243.00000 3903084.51515 8915095.50000
 29246.00000 10734147.91667 7244477.18750
 29249.00000 5601086.00000 25759115.11111
 29252.00000 2928483.36364 17834200.53846
 29255.00000 4295740.43333 7479834.29032
 29258.00000 4603226.25000 7480839.29032
 29261.00000 3222900.30000 3411361.22059
 29264.00000 128916603.00000 8922980.15385
 29267.00000 5372090.62500 8000895.24138
 29270.00000 4605193.25000 7485689.45161
 29273.00000 6140773.76190 4551051.94118
 29276.00000 5862177.04545 6827489.41176
 29279.00000 25794137.00000 6109760.65789
 29282.00000 6142053.19048 6829540.50000
 29285.00000 12898910.20000 6830551.94118
 29288.00000 4961706.80769 25805333.33333
 29291.00000 10750928.25000 6278015.97297
 29294.00000 9924487.76923 5666606.51220
 29297.00000 14335917.22222 4006832.10345
 29300.00000 8602088.33333 7497819.09677
 29303.00000 6452103.75000 9298462.68000
 29306.00000 5866120.95455 10567569.36364
 29309.00000 6792960.57895 12237262.94737
 29312.00000 6453920.05000 6459708.63889
 29315.00000 8605818.73333 6286069.10811
 29318.00000 4781583.11111 1972161.01695
 29321.00000 5379840.50000 3694925.28571
 29324.00000 3587126.86111 5173871.06667
 29327.00000 5870436.63636 4954745.91489
 29330.00000 5166608.92000 5416696.51163
 29333.00000 5616544.13043 5064476.26087
 29336.00000 10765717.41667 9319756.36000
 29339.00000 10766390.91667 5178743.42222
 29342.00000 5168530.64000 7769171.83333
 29345.00000 4307744.50000 29135438.87500
 29348.00000 7180199.66667 7770482.86667
 29351.00000 5170374.76000 4090718.12281
 29354.00000 6803782.00000 5552621.33333
 29357.00000 4788526.59259 11661395.95000
 29360.00000 4458960.37931 9718721.45833
 29363.00000 2939507.75000 3703295.06349
 29366.00000 3008535.34884 3196965.35616
 29369.00000 3405098.55263 3288052.69014
 29372.00000 2396855.53704 6144533.13158
 29375.00000 1407443.68478 16679096.00000
 29378.00000 6474775.45000 16680158.50000
 29381.00000 8633566.93333 5988819.20513
 29384.00000 8094511.50000 6674368.80000
 29387.00000 8095059.00000 19468039.50000
 29390.00000 2756291.76596 12296728.89474
 29393.00000 2124174.13115 13744510.88235
 29396.00000 2090331.80645 4972546.82979
 29399.00000 2541598.54902 4101347.19298
 29402.00000 9971240.61538 5083323.63043
 29405.00000 8101989.50000 9354558.48000
 29408.00000 10803019.16667 4977056.10638
 29411.00000 21606408.83333 6323408.40541
 29414.00000 21606776.33333 2690507.59770
 29417.00000 18520457.00000 4877847.50000
 29420.00000 21607557.33333 5322591.59091
 29423.00000 9973078.76923 7319780.93750
 29426.00000 8103499.00000 7320997.43750
 29429.00000 18522663.42857 6332919.37838
 29432.00000 16207708.00000 7811886.00000
 29435.00000 16208079.50000 4688449.72000
 29438.00000 16208444.00000 5582849.26190
 29441.00000 9974783.07692 12342424.73684
 29444.00000 10806368.50000 -9999.00000
 29447.00000 7628384.82353 -9999.00000
 29450.00000 25936873.40000 -9999.00000
 29453.00000 16210906.37500 11726693.00000
 29456.00000 21614896.33333 6340111.81081
 29459.00000 21615246.83333 4788730.36735
 29462.00000 16211786.62500 10203341.73913
 29465.00000 14410834.00000 4429153.28302
 29468.00000 21616611.50000 3453470.35294
 29471.00000 21616972.00000 7576722.32258
 29474.00000 12970538.70000 4998769.63830
 29477.00000 11791747.81818 5874866.82500
 29480.00000 18530230.42857 21364433.09091
 29483.00000 16214293.12500 8105039.48276
 29486.00000 11792561.18182 7123927.72727
 29489.00000 14413481.33333 5225568.66667
 29492.00000 9978908.00000 8110025.68966
 29495.00000 9266461.21429 -9999.00000
 29498.00000 18533245.42857 3511648.59701
 29501.00000 10811384.33333 5603243.04762
 29504.00000 9267235.35714 7132764.96970
 29507.00000 16218008.37500 4360276.40741
 29510.00000 21624357.66667 6926463.67647
 29513.00000 21624699.16667 14720043.81250
 29516.00000 14416807.11111 4807836.89796
 29519.00000 7632776.29412 7363269.75000
 29522.00000 21626563.00000 7364573.25000
 29525.00000 25952236.60000 5481955.65116
 29528.00000 18537668.85714 12407887.21053
 29531.00000 7633520.76471 8420962.32143
 29534.00000 25954360.60000 26199860.44444
 29537.00000 16221872.87500 9070483.96154
 29540.00000 11798116.72727 7371029.71875
 29543.00000 14420300.44444 39313384.00000
 29546.00000 8111801.50000 5754380.12195
 29549.00000 3605667.55556 8427196.10714
 29552.00000 3606103.05556 18151998.92308
 29555.00000 2318685.60714 2538440.24731
 29558.00000 2951572.90909 4629896.62745
 29561.00000 2239681.77586 4456112.54717
 29564.00000 1274174.85294 4820752.95918
 29567.00000 1016068.59375 8749608.88889
 29570.00000 1734860.40000 3580240.95455
 29573.00000 1587515.18293 1292199.16393
 29576.00000 1400407.56989 4223788.64286
 29579.00000 1714304.13158 7631147.80645
 29582.00000 16286571.75000 3756049.46032
 29585.00000 5923080.22727 4383012.83333
 29588.00000 6516138.10000 5505120.93023
 29591.00000 2962753.84091 3533964.31343
 29594.00000 510225.54688 5775827.85366
 29597.00000 647760.68317 1910624.11290
 29600.00000 784763.36527 2043376.43103
 29603.00000 304514.42593 4648706.72549
 29606.00000 828192.79245 4160368.31579
 29609.00000 1756582.70667 3540280.04478
 29612.00000 2994963.11364 4313497.87273
 29615.00000 483638.67766 5649406.66667
 29618.00000 2096840.60317 4746331.72000
 29621.00000 1762411.06667 18255972.00000
 29624.00000 1422309.74194 6246327.26316
 29627.00000 1788429.87838 16955192.35714
 29630.00000 4412342.76667 4845194.87755
 29633.00000 2006511.60606 8793934.62963
 29636.00000 584375.02643 19787141.41667
 29639.00000 615252.23148 9894347.20833
 29642.00000 992924.88060 9895099.70833
 29645.00000 2511668.88679 18268609.38462
 29648.00000 1041298.31250 5278346.26667
 29651.00000 3252195.41463 3046000.01282
 29654.00000 -9999.00000 3494804.45588
 29657.00000 -9999.00000 9902837.45833
 29660.00000 819322.11656 5528035.13953
 29663.00000 1485038.03333 5168320.67391
 29666.00000 4456248.63333 5403992.27273
 29669.00000 898487.37584 18291161.38462
 29672.00000 2232588.15000 29723871.75000
 29675.00000 -9999.00000 10339464.00000
 29678.00000 2680455.28000 11324875.85714
 29681.00000 2063177.69231 2936818.92593
 29684.00000 33528010.00000 19824304.25000
 29687.00000 1040888.89922 11895349.05000
 29690.00000 2487759.90741 16994102.28571
 29693.00000 1976770.51471 16994827.78571
