~Version ---------------------------------------------------
VERS.   2.0 : CWLS log ASCII Standard -VERSION 2.0
WRAP.    NO : One line per depth step
DLM . SPACE : Column Data Section Delimiter
~Well ------------------------------------------------------
STRT..M  1061.00000 : START DEPTH
STOP..M 31307.00000 : STOP DEPTH
STEP..M     3.00000 : STEP
NULL.      -9999.25 : NULL VALUE
COMP.               : COMPANY
WELL.               : WELL
FLD .               : FIELD
LOC .               : LOCATION
PROV.               : PROVINCE
CNTY.               : COUNTY
STAT.               : STATE
CTRY.               : COUNTRY
SRVC.               : SERVICE COMPANY
DATE.               : DATE
UWI .               : UNIQUE WELL ID
API .               : API NUMBER
~Curve Information -----------------------------------------
DEPTH..M       : Depth
ГК   .имп/мин  : описание 1
НГК  .усл. ед  : описание 2
~Params ----------------------------------------------------
..M    0.0 : Start depth
..M 1920.0 : Stop depth
..M    0.2 : Step
..   -9999 : Null value
~Other -----------------------------------------------------
~ASCII -----------------------------------------------------
# ...
 2993.00000 387455.10000 432223.22222
 2996.00000 387875.60000 216666.38889
 2999.00000 242826.62500 195552.25000
 3002.00000 432087.77778 230634.47059
 3005.00000 185579.47619 357018.09091
 3008.00000 195259.95000 302655.23077
 3011.00000 145026.00000 303195.30769
 3014.00000 206469.57895 246894.68750
 3017.00000 206863.57895 247458.18750
 3020.00000 207272.57895 360516.18182
 3023.00000 328601.08333 441207.88889
 3026.00000 232368.70588 441775.88889
 3029.00000 329589.50000 994556.25000
 3032.00000 395888.60000 362221.81818
 3035.00000 304901.69231 443289.55556
 3038.00000 198564.60000 997981.00000
 3041.00000 233998.41176 798960.80000
 3044.00000 398195.80000 799532.80000
 3047.00000 221603.38889 999984.50000
 3050.00000 249686.31250 1000552.00000
 3053.00000 222341.88889 1001118.50000
 3056.00000 250549.12500 667978.83333
 3059.00000 286768.35714 236332.23529
 3062.00000 251346.81250 574533.71429
 3065.00000 574920.00000 503292.50000
 3068.00000 366254.18182 403199.50000
 3071.00000 403284.10000 576554.28571
 3074.00000 288485.57143 448991.11111
 3077.00000 168728.66667 674049.16667
 3080.00000 337909.83333 674605.66667
 3083.00000 338349.58333 578782.42857
 3086.00000 4060611.00000 675787.66667
 3089.00000 507988.87500 811480.20000
 3092.00000 254414.93750 1014880.75000
 3095.00000 509256.37500 1015409.25000
 3098.00000 226752.66667 508236.12500
 3101.00000 371445.81818 339362.58333
 3104.00000 408985.90000 339912.08333
 3107.00000 454828.77778 408442.00000
 3110.00000 372529.63636 454361.44444
 3113.00000 315604.38462 818380.60000
 3116.00000 586499.42857 292816.28571
 3119.00000 216463.73684 195765.85714
 3122.00000 196252.14286 187422.90909
 3125.00000 196676.14286 412860.90000
 3128.00000 516706.37500 344581.25000
 3131.00000 230070.77778 318619.00000
 3134.00000 460549.55556 218542.47368
 3137.00000 319249.00000 244771.35294
 3140.00000 346275.25000 520642.62500
 3143.00000 320073.69231 521359.37500
 3146.00000 347196.00000 417592.00000
 3149.00000 417087.70000 380143.09091
 3152.00000 348021.58333 836833.80000
 3155.00000 261467.68750 598256.42857
 3158.00000 465291.44444 349510.41667
 3161.00000 465748.44444 323165.00000
 3164.00000 599274.42857 382460.27273
 3167.00000 233514.66667 1402884.33333
 3170.00000 162147.50000 526614.12500
 3173.00000 301625.57143 383532.09091
 3176.00000 184079.17391 422434.80000
 3179.00000 249504.29412 422993.30000
 3182.00000 283204.53333 423560.80000
 3185.00000 425223.30000 706502.16667
 3188.00000 531927.62500 530437.12500
 3191.00000 425933.60000 707803.00000
 3194.00000 237028.27778 849911.60000
 3197.00000 267072.31250 708806.16667
 3200.00000 329121.38462 473091.33333
 3203.00000 306026.21429 328086.76923
 3206.00000 286043.46667 533710.50000
 3209.00000 268599.25000 427529.90000
 3212.00000 307419.07143 389213.54545
 3215.00000 239565.22222 535707.12500
 3218.00000 227433.52632 536236.62500
 3221.00000 432605.20000 613361.85714
 3224.00000 393757.45455 716101.33333
 3227.00000 361429.83333 1074658.50000
 3230.00000 361913.33333 537835.75000
 3233.00000 395289.54545 307849.21429
 3236.00000 483591.66667 431509.40000
 3239.00000 435681.00000 616954.00000
 3242.00000 256737.94118 617464.00000
 3245.00000 485414.44444 393448.63636
 3248.00000 291706.66667 393963.63636
 3251.00000 2188238.50000 433863.50000
 3254.00000 -9999.00000 620297.00000
 3257.00000 875715.40000 543251.37500
 3260.00000 365302.91667 310930.85714
 3263.00000 438812.00000 396243.18182
 3266.00000 292987.33333 726964.33333
 3269.00000 549785.75000 397046.00000
 3272.00000 550190.25000 230400.52632
 3275.00000 338984.61538 190882.91304
 3278.00000 294202.66667 231642.78947
 3281.00000 315644.64286 367339.25000
 3284.00000 316086.14286 401288.72727
 3287.00000 402740.45455 491004.00000
 3290.00000 443462.00000 884335.20000
 3293.00000 246805.27778 632196.00000
 3296.00000 404282.18182 443072.70000
 3299.00000 635702.57143 443617.20000
 3302.00000 445383.30000 555076.00000
 3305.00000 636644.85714 444613.30000
 3308.00000 343195.76923 741563.66667
 3311.00000 235217.15789 445484.70000
 3314.00000 248701.16667 235001.63158
 3317.00000 195068.69565 263162.88235
 3320.00000 204388.90909 298756.26667
 3323.00000 225285.30000 407911.90909
 3326.00000 167313.00000 280969.93750
 3329.00000 196815.91304 264989.29412
 3332.00000 238631.84211 375964.00000
 3335.00000 378207.25000 376517.50000
 3338.00000 252525.66667 502563.33333
 3341.00000 454941.70000 452835.50000
 3344.00000 284727.00000 412184.63636
 3347.00000 651182.57143 567260.37500
 3350.00000 1139942.00000 303051.86667
 3353.00000 507018.88889 284637.62500
 3356.00000 326330.21429 651137.28571
 3359.00000 326733.71429 506971.11111
 3362.00000 254546.72222 913071.00000
 3365.00000 305887.06667 269081.29412
 3368.00000 255332.38889 254683.83333
 3371.00000 511077.77778 458979.40000
 3374.00000 209487.77273 574261.75000
 3377.00000 -9999.00000 510980.88889
 3380.00000 768530.16667 511495.88889
 3383.00000 288625.31250 1151374.25000
 3386.00000 165347.07143 419194.54545
 3389.00000 421259.45455 384785.16667
 3392.00000 463733.90000 770098.83333
 3395.00000 662817.00000 578095.62500
 3398.00000 290329.93750 771306.66667
 3401.00000 221566.76190 1157466.50000
 3404.00000 211875.04545 514938.55556
 3407.00000 311137.06667 357015.92308
 3410.00000 233734.30000 516218.66667
 3413.00000 292528.37500 581272.50000
 3416.00000 390394.33333 581789.00000
 3419.00000 468840.70000 665409.71429
 3422.00000 312923.26667 932074.60000
 3425.00000 293714.06250 466543.80000
 3428.00000 391972.33333 389304.00000
 3431.00000 294359.75000 584483.50000
 3434.00000 362681.92308 935704.60000
 3437.00000 363074.92308 520359.88889
 3440.00000 393709.66667 520879.88889
 3443.00000 337827.92857 313058.93333
 3446.00000 591556.37500 313604.93333
 3449.00000 315860.73333 294567.12500
 3452.00000 296493.93750 363121.15385
 3455.00000 279440.11765 315337.66667
 3458.00000 365819.69231 473564.00000
 3461.00000 432730.36364 592495.50000
 3464.00000 216750.68182 677671.71429
 3467.00000 340972.71429 395856.00000
 3470.00000 367554.38462 339830.64286
 3473.00000 184139.69231 680170.28571
 3476.00000 154824.41935 529538.33333
 3479.00000 145850.12121 596248.12500
 3482.00000 209677.21739 341232.71429
 3485.00000 146530.12121 341767.21429
 3488.00000 167139.17241 266369.44444
 3491.00000 373260.92308 252917.00000
 3494.00000 255796.05263 534513.88889
 3497.00000 486404.00000 321297.33333
 3500.00000 1216390.50000 603021.00000
 3503.00000 324758.80000 603597.50000
 3506.00000 609320.25000 537096.11111
 3509.00000 487850.70000 302665.06250
 3512.00000 610201.87500 303199.56250
 3515.00000 244477.25000 231559.19048
 3518.00000 213009.91304 374622.15385
 3521.00000 204574.00000 287035.76471
 3524.00000 409592.50000 697631.85714
 3527.00000 378519.38462 610968.37500
 3530.00000 378939.38462 272092.00000
 3533.00000 259686.31579 408702.50000
 3536.00000 85504.15517 545508.66667
 3539.00000 216071.17391 614268.75000
 3542.00000 414567.91667 289628.64706
 3545.00000 293050.17647 547622.33333
 3548.00000 277162.11111 821971.00000
 3551.00000 262947.63158 308778.62500
 3554.00000 416700.25000 275026.38889
 3557.00000 263556.10526 291777.41176
 3560.00000 294939.70588 620604.50000
 3563.00000 -9999.00000 621174.00000
 3566.00000 1003131.00000 552713.66667
 3569.00000 334720.00000 622351.37500
 3572.00000 228580.68182 996303.20000
 3575.00000 179981.60714 415670.83333
 3578.00000 315356.31250 454015.09091
 3581.00000 631086.12500 832925.50000
 3584.00000 -9999.00000 555843.66667
 3587.00000 1010088.80000 500817.80000
 3590.00000 561514.44444 313561.62500
 3593.00000 459786.90909 314091.12500
 3596.00000 562328.77778 335559.53333
 3599.00000 337757.26667 419992.91667
 3602.00000 -9999.00000 840532.33333
 3605.00000 460909.09091 420819.66667
 3608.00000 267186.10526 421377.16667
 3611.00000 221082.95652 389502.53846
 3614.00000 231516.68182 563139.77778
 3617.00000 196301.23077 317299.62500
 3620.00000 222308.73913 299181.94118
 3623.00000 1704745.66667 318442.31250
