~Version ---------------------------------------------------
VERS.   2.0 : CWLS log ASCII Standard -VERSION 2.0
WRAP.    NO : One line per depth step
DLM . SPACE : Column Data Section Delimiter
~Well ------------------------------------------------------
STRT..M  1061.00000 : START DEPTH
STOP..M 31307.00000 : STOP DEPTH
STEP..M     3.00000 : STEP
NULL.      -9999.25 : NULL VALUE
COMP.               : COMPANY
WELL.               : WELL
FLD .               : FIELD
LOC .               : LOCATION
PROV.               : PROVINCE
CNTY.               : COUNTY
STAT.               : STATE
CTRY.               : COUNTRY
SRVC.               : SERVICE COMPANY
DATE.               : DATE
UWI .               : UNIQUE WELL ID
API .               : API NUMBER
~Curve Information -----------------------------------------
DEPTH..M       : Depth
ГК   .имп/мин  : описание 1
НГК  .усл. ед  : описание 2
~Params ----------------------------------------------------
..M    0.0 : Start depth
..M 1920.0 : Stop depth
..M    0.2 : Step
..   -9999 : Null value
~Other -----------------------------------------------------
~ASCII -----------------------------------------------------
# ...
 21233.00000  374.00000 1023.00000
 21236.00000  375.00000 1040.00000
 21239.00000  360.00000 1066.00000
 21242.00000  360.00000 1076.00000
 21245.00000  377.00000 1068.00000
 21248.00000  398.00000 1060.00000
 21251.00000  410.00000 1066.00000
 21254.00000  410.00000 1040.00000
 21257.00000  418.00000  982.00000
 21260.00000  431.00000  931.00000
 21263.00000  405.00000  894.00000
 21266.00000  354.00000  883.00000
 21269.00000  350.00000  893.00000
 21272.00000  362.00000  890.00000
 21275.00000  376.00000  871.00000
 21278.00000  370.00000  868.00000
 21281.00000  352.00000  894.00000
 21284.00000  337.00000  892.00000
 21287.00000  337.00000  866.00000
 21290.00000  343.00000  856.00000
 21293.00000  348.00000  872.00000
 21296.00000  348.00000  880.00000
 21299.00000  343.00000  860.00000
 21302.00000  336.00000  851.00000
 21305.00000  331.00000  873.00000
 21308.00000  334.00000  866.00000
 21311.00000  338.00000  841.00000
 21314.00000  346.00000  839.00000
 21317.00000  354.00000  842.00000
 21320.00000  359.00000  872.00000
 21323.00000  354.00000  891.00000
 21326.00000  342.00000  868.00000
 21329.00000  338.00000  834.00000
 21332.00000  342.00000  807.00000
 21335.00000  339.00000  812.00000
 21338.00000  330.00000  846.00000
 21341.00000  329.00000  856.00000
 21344.00000  342.00000  902.00000
 21347.00000  356.00000  910.00000
 21350.00000  357.00000  904.00000
 21353.00000  397.00000  957.00000
 21356.00000  332.00000 1048.00000
 21359.00000  331.00000 1074.00000
 21362.00000  338.00000 1062.00000
 21365.00000  348.00000 1028.00000
 21368.00000  353.00000 1014.00000
 21371.00000  345.00000  982.00000
 21374.00000  336.00000  898.00000
 21377.00000  327.00000  899.00000
 21380.00000  326.00000  940.00000
 21383.00000  330.00000  914.00000
 21386.00000  329.00000  908.00000
 21389.00000  322.00000  954.00000
 21392.00000  312.00000  934.00000
 21395.00000  314.00000  925.00000
 21398.00000  323.00000  912.00000
 21401.00000  338.00000  951.00000
 21404.00000  364.00000  998.00000
 21407.00000  376.00000  992.00000
 21410.00000  392.00000 1014.00000
 21413.00000  384.00000 1078.00000
 21416.00000  348.00000 1128.00000
 21419.00000  350.00000 1142.00000
 21422.00000  352.00000 1062.00000
 21425.00000  344.00000 1030.00000
 21428.00000  332.00000  996.00000
 21431.00000  320.00000  938.00000
 21434.00000  323.00000  937.00000
 21437.00000  334.00000  939.00000
 21440.00000  352.00000  921.00000
 21443.00000  370.00000  912.00000
 21446.00000  386.00000  926.00000
 21449.00000  368.00000  924.00000
 21452.00000  324.00000  891.00000
 21455.00000  378.00000  846.00000
 21458.00000  320.00000  799.00000
 21461.00000  332.00000  738.00000
 21464.00000  347.00000  708.00000
 21467.00000  348.00000  710.00000
 21470.00000  337.00000  734.00000
 21473.00000  328.00000  740.00000
 21476.00000  332.00000  732.00000
 21479.00000  348.00000  753.00000
 21482.00000  359.00000  802.00000
 21485.00000  352.00000  877.00000
 21488.00000  347.00000  940.00000
 21491.00000  352.00000  981.00000
 21494.00000  354.00000  985.00000
 21497.00000  415.00000  966.00000
 21500.00000  342.00000  966.00000
 21503.00000  352.00000  983.00000
 21506.00000  368.00000  961.00000
 21509.00000  372.00000  903.00000
 21512.00000  362.00000  898.00000
 21515.00000  354.00000  926.00000
 21518.00000  360.00000  942.00000
 21521.00000  370.00000  944.00000
 21524.00000  368.00000  972.00000
 21527.00000  364.00000 1003.00000
 21530.00000  382.00000 1002.00000
 21533.00000  390.00000  987.00000
 21536.00000  384.00000  988.00000
 21539.00000  388.00000  988.00000
 21542.00000  416.00000  944.00000
 21545.00000  478.00000  846.00000
 21548.00000  509.00000  788.00000
 21551.00000  464.00000  790.00000
 21554.00000  397.00000  865.00000
 21557.00000  381.00000  979.00000
 21560.00000  394.00000 1053.00000
 21563.00000  404.00000 1054.00000
 21566.00000  426.00000 1009.00000
 21569.00000  382.00000 1005.00000
 21572.00000  379.00000 1026.00000
 21575.00000  370.00000 1038.00000
 21578.00000  366.00000 1061.00000
 21581.00000  380.00000 1064.00000
 21584.00000  401.00000 1057.00000
 21587.00000  428.00000  989.00000
 21590.00000  474.00000  878.00000
 21593.00000  474.00000  822.00000
 21596.00000  458.00000  808.00000
 21599.00000  412.00000  845.00000
 21602.00000  382.00000  846.00000
 21605.00000  382.00000  814.00000
 21608.00000  395.00000  773.00000
 21611.00000  407.00000  749.00000
 21614.00000  397.00000  756.00000
 21617.00000  367.00000  782.00000
 21620.00000  341.00000  782.00000
 21623.00000  321.00000  805.00000
 21626.00000  332.00000  831.00000
 21629.00000  348.00000  840.00000
 21632.00000  348.00000  860.00000
 21635.00000  345.00000  865.00000
 21638.00000  342.00000  838.00000
 21641.00000  353.00000  793.00000
 21644.00000  366.00000  772.00000
 21647.00000  365.00000  790.00000
 21650.00000  352.00000  841.00000
 21653.00000  340.00000  890.00000
 21656.00000  338.00000  935.00000
 21659.00000  352.00000  969.00000
 21662.00000  371.00000  984.00000
 21665.00000  378.00000  970.00000
 21668.00000  375.00000  965.00000
 21671.00000  383.00000  929.00000
 21674.00000  401.00000  918.00000
 21677.00000  413.00000  951.00000
 21680.00000  405.00000  952.00000
 21683.00000  392.00000  912.00000
 21686.00000  380.00000  941.00000
 21689.00000  362.00000  991.00000
 21692.00000  364.00000  988.00000
 21695.00000  382.00000  956.00000
 21698.00000  410.00000  942.00000
 21701.00000  432.00000  910.00000
 21704.00000  428.00000  845.00000
 21707.00000  399.00000  832.00000
 21710.00000  374.00000  871.00000
 21713.00000  390.00000  871.00000
 21716.00000  411.00000  880.00000
 21719.00000  416.00000  904.00000
 21722.00000  428.00000  889.00000
 21725.00000  452.00000  848.00000
 21728.00000  450.00000  824.00000
 21731.00000  420.00000  859.00000
 21734.00000  374.00000  849.00000
 21737.00000  356.00000  840.00000
 21740.00000  365.00000  866.00000
 21743.00000  390.00000  842.00000
 21746.00000  430.00000  850.00000
 21749.00000  485.00000  901.00000
 21752.00000  514.00000  975.00000
 21755.00000  520.00000 1017.00000
 21758.00000  492.00000 1026.00000
 21761.00000  458.00000 1038.00000
 21764.00000  465.00000  990.00000
 21767.00000  493.00000  909.00000
 21770.00000  468.00000  984.00000
 21773.00000  440.00000  919.00000
 21776.00000  436.00000  922.00000
 21779.00000  457.00000  960.00000
 21782.00000  496.00000  798.00000
 21785.00000  544.00000  825.00000
 21788.00000  592.00000  860.00000
 21791.00000  614.00000  896.00000
 21794.00000  630.00000  928.00000
 21797.00000  621.00000  962.00000
 21800.00000  599.00000  976.00000
 21803.00000  578.00000  978.00000
 21806.00000  599.00000 1005.00000
 21809.00000  644.00000 1030.00000
 21812.00000  639.00000  968.00000
 21815.00000  552.00000  933.00000
 21818.00000  466.00000  945.00000
 21821.00000  434.00000  933.00000
 21824.00000  439.00000  900.00000
 21827.00000  434.00000  918.00000
 21830.00000  434.00000  912.00000
 21833.00000  440.00000  879.00000
 21836.00000  436.00000  906.00000
 21839.00000  442.00000  933.00000
 21842.00000  442.00000  978.00000
 21845.00000  428.00000  971.00000
 21848.00000  418.00000  932.00000
 21851.00000  434.00000  953.00000
 21854.00000  460.00000  990.00000
 21857.00000  454.00000  954.00000
 21860.00000  432.00000  939.00000
 21863.00000  452.00000  913.00000
 21866.00000  501.00000  840.00000
 21869.00000  563.00000  754.00000
 21872.00000  641.00000  686.00000
 21875.00000  734.00000  676.00000
 21878.00000  781.00000  812.00000
 21881.00000  778.00000  935.00000
 21884.00000  713.00000  967.00000
 21887.00000  553.00000  964.00000
 21890.00000  402.00000  985.00000
 21893.00000  372.00000 1040.00000
 21896.00000  376.00000 1092.00000
 21899.00000  387.00000 1135.00000
 21902.00000  381.00000 1164.00000
 21905.00000  368.00000 1187.00000
 21908.00000  364.00000 1176.00000
 21911.00000  532.00000 1098.00000
 21914.00000  393.00000 1070.00000
 21917.00000  480.00000 1046.00000
