~Version ---------------------------------------------------
VERS.   2.0 : CWLS log ASCII Standard -VERSION 2.0
WRAP.    NO : One line per depth step
DLM . SPACE : Column Data Section Delimiter
~Well ------------------------------------------------------
STRT..M  1061.00000 : START DEPTH
STOP..M 31307.00000 : STOP DEPTH
STEP..M     3.00000 : STEP
NULL.      -9999.25 : NULL VALUE
COMP.               : COMPANY
WELL.               : WELL
FLD .               : FIELD
LOC .               : LOCATION
PROV.               : PROVINCE
CNTY.               : COUNTY
STAT.               : STATE
CTRY.               : COUNTRY
SRVC.               : SERVICE COMPANY
DATE.               : DATE
UWI .               : UNIQUE WELL ID
API .               : API NUMBER
~Curve Information -----------------------------------------
DEPTH..M       : Depth
ГК   .имп/мин  : описание 1
НГК  .усл. ед  : описание 2
~Params ----------------------------------------------------
..M    0.0 : Start depth
..M 1920.0 : Stop depth
..M    0.2 : Step
..   -9999 : Null value
~Other -----------------------------------------------------
~ASCII -----------------------------------------------------
# ...
 21011.00000 4439799.57143 9509357.71429
 21014.00000 5484857.29412 11095258.16667
 21017.00000 13320776.71429 4035637.33333
 21020.00000 13321186.71429 5549967.29167
 21023.00000 4662833.85000 3249689.34146
 21026.00000 4663272.35000 3919667.52941
 21029.00000 7772566.08333 3418106.05128
 21032.00000 4909424.10526 2222716.43333
 21035.00000 5487418.41176 22228082.83333
 21038.00000 5487810.52941 8336443.56250
 21041.00000 9329669.40000 6670069.90000
 21044.00000 10366692.33333 4600948.20690
 21047.00000 4056914.78261 4305041.51613
 21050.00000 6665292.92857 4045062.90909
 21053.00000 11664620.12500 3814818.80000
 21056.00000 9332058.60000 1935969.11594
 21059.00000 7777088.00000 4771736.39286
 21062.00000 7179234.46154 7033005.57895
 21065.00000 5490386.82353 2522259.15094
 21068.00000 7180104.61538 3261515.34146
 21071.00000 7778799.16667 5815070.60870
 21074.00000 7779135.66667 3430454.61538
 21077.00000 8486664.81818 2348158.19298
 21080.00000 8487007.81818 2910617.93478
 21083.00000 6668716.78571 3188764.11905
 21086.00000 6224503.66667 4961251.74074
 21089.00000 5187472.88889 1441344.61290
 21092.00000 5187860.38889 3528516.78947
 21095.00000 8489609.09091 2353324.85965
 21098.00000 5836988.75000 4192795.68750
 21101.00000 6226488.33333 3531675.86842
 21104.00000 5189103.77778 6101034.00000
 21107.00000 10378537.55556 8389787.25000
 21110.00000 13344164.00000 4331069.77419
 21113.00000 11676481.00000 3836920.37143
 21116.00000 15568982.83333 7900355.94118
 21119.00000 7784827.91667 4333290.25806
 21122.00000 11677576.37500 6397612.80952
 21125.00000 9342402.60000 5598738.79167
 21128.00000 13346635.42857 6108534.54545
 21131.00000 8493653.45455 2743457.85714
 21134.00000 13347500.71429 8402712.18750
 21137.00000 10381720.44444 4202229.59375
 21140.00000 7187684.92308 1818088.87838
 21143.00000 6674629.35714 2206520.45902
 21146.00000 7188425.38462 1896776.92958
 21149.00000 6675338.92857 5387924.48000
 21152.00000 4450595.95238 5613498.83333
 21155.00000 7788898.08333 2807804.91667
 21158.00000 13352737.71429 2012547.73134
 21161.00000 10385792.66667 7097831.84211
 21164.00000 8497798.72727 1729946.44872
 21167.00000 4249247.86364 5867793.78261
 21170.00000 6677751.00000 4218475.28125
 21173.00000 6232928.60000 9000386.00000
 21176.00000 8499799.09091 5626216.75000
 21179.00000 4250256.04545 3376725.45000
 21182.00000 3896450.54167 3860145.80000
 21185.00000 7193842.15385 3378689.97500
 21188.00000 5195943.16667 5877052.56522
 21191.00000 7194758.84615 4506794.80000
 21194.00000 11691850.62500 5409204.76000
 21197.00000 11692220.12500 5410263.76000
 21200.00000 7795191.91667 2147962.63492
 21203.00000 7795578.41667 3562071.55263
 21206.00000 4923905.21053 6153613.95455
 21209.00000 10395281.00000 7964441.41176
 21212.00000 6237542.60000 5642444.83333
 21215.00000 10396285.33333 12311776.72727
 21218.00000 6683702.78571 9674527.35714
 21221.00000 5198799.00000 3984633.41176
 21224.00000 6684516.64286 5891359.65217
 21227.00000 7798947.25000 10424212.76923
 21230.00000 7799307.75000 5421615.64000
 21233.00000 5849855.31250 5894083.47826
 21236.00000 5506121.17647 4675657.93103
 21239.00000 6240630.66667 6457926.95238
 21242.00000 4927173.68421 9687966.92857
 21245.00000 4927550.68421 5217666.07692
 21248.00000 5851863.93750 13566991.30000
 21251.00000 10403723.66667 16959805.62500
 21254.00000 13376626.14286 2225276.80328
 21257.00000 5202438.77778 2341359.82759
 21260.00000 5508895.58824 3159044.55814
 21263.00000 1398184.47761 3882005.88571
 21266.00000 5204707.83333 9058896.73333
 21269.00000 6692116.71429 9059789.73333
 21272.00000 5205342.16667 6795731.80000
 21275.00000 7808388.75000 6472996.52381
 21278.00000 4685402.75000 4688210.31034
 21281.00000 7809356.08333 5230051.26923
 21284.00000 10412811.77778 4689903.48276
 21287.00000 10413148.77778 5914222.56522
 21290.00000 10413491.77778 6802211.45000
 21293.00000 11715526.75000 7558885.22222
 21296.00000 13389521.42857 6803877.20000
 21299.00000 8520947.54545 7162836.00000
 21302.00000 9373377.80000 7163687.00000
 21305.00000 18747086.60000 5445275.04000
 21308.00000 11717262.62500 3782307.50000
 21311.00000 10415682.55556 10474923.00000
 21314.00000 9374459.80000 19454267.42857
 21317.00000 9374814.30000 17023326.50000
 21320.00000 10416819.33333 2197430.75806
 21323.00000 5859815.37500 5450519.28000
 21326.00000 8523709.81818 5047645.11111
 21329.00000 10418205.55556 4009257.91176
 21332.00000 13395177.71429 6816545.10000
 21335.00000 8524543.00000 4545174.90000
 21338.00000 8524873.00000 4702751.06897
 21341.00000 10419618.22222 6819845.55000
 21344.00000 5861376.75000 3687305.00000
 21347.00000 6699072.78571 5458121.40000
 21350.00000 5517240.47059 4549339.00000
 21353.00000 7816487.83333 1276472.29907
 21356.00000 11725064.25000 1952226.58571
 21359.00000 13400404.42857 8542065.50000
 21362.00000 8527868.09091 3597721.65789
 21365.00000 11726167.12500 4411138.54839
 21368.00000 10423612.66667 7198134.78947
 21371.00000 7216692.38462 1710538.51250
 21374.00000 11727461.62500 2244227.19672
 21377.00000 13403140.28571 2075108.77273
 21380.00000 15637323.50000 5955599.95652
 21383.00000 15637653.00000 3114068.02273
 21386.00000 13404031.57143 1692500.51852
 21389.00000 6702338.28571 5078455.55556
 21392.00000 11729404.50000 6530376.85714
 21395.00000 9383838.10000 9143452.60000
 21398.00000 8531084.90909 6858501.95000
 21401.00000 3351835.14286 2048265.00000
 21404.00000 4692933.70000 19605820.14286
 21407.00000 7821932.66667 9150374.73333
 21410.00000 3476806.51852 2367490.62069
 21413.00000 2041118.76087 2289651.76667
 21416.00000 7222768.23077 2863192.22917
 21419.00000 9389948.20000 4295930.84375
 21422.00000 10433627.77778 1993377.92754
 21425.00000 6707676.64286 6878184.35000
 21428.00000 6708008.14286 1529481.91111
 21431.00000 11739334.75000 5295298.96154
 21434.00000 8538021.00000 10591534.92308
 21437.00000 5524935.82353 8100348.05882
 21440.00000 5870595.81250 4443047.19355
 21443.00000 5218677.88889 7652826.11111
 21446.00000 5871399.12500 4592622.16667
 21449.00000 1772865.81132 3626677.84211
 21452.00000 7228161.53846 2703121.84314
 21455.00000 11746140.75000 3283207.78571
 21458.00000 7831080.00000 3065126.42222
 21461.00000 5873642.50000 2508568.70909
 21464.00000 6265565.60000 7665778.55556
 21467.00000 7229846.76923 7666489.05556
 21470.00000 8544701.36364 5308303.84615
 21473.00000 11749292.87500 9859019.07143
 21476.00000 5874978.93750 12548574.45455
 21479.00000 5222551.00000 2605174.11321
 21482.00000 8546351.54545 1644543.26190
 21485.00000 7834508.08333 2159340.45312
 21488.00000 13430932.28571 2229937.08065
 21491.00000 11752417.25000 5121577.25926
 21494.00000 15670244.16667 7279015.84211
 21497.00000 5223829.83333 6014066.04348
 21500.00000 10448001.66667 5321100.84615
 21503.00000 6716925.00000 7282489.42105
 21506.00000 7836781.00000 2346169.45763
 21509.00000 7837153.50000 3742092.16216
 21512.00000 7837515.00000 4616145.50000
 21515.00000 13436094.00000 3221492.62791
 21518.00000 7235179.84615 6927150.65000
 21521.00000 10451185.33333 4619044.93333
 21524.00000 9406434.30000 2828958.69388
 21527.00000 7236082.69231 7702057.11111
 21530.00000 4479861.71429 6932852.90000
 21533.00000 10453400.66667 5136433.59259
 21536.00000 9408445.10000 6604974.04762
 21539.00000 5880665.68750 4475325.25806
 21542.00000 1960637.39583 1347886.24272
 21545.00000 1176859.93750 1984164.00000
 21548.00000 3766460.80000 3230822.41860
 21551.00000 1095364.89535 3088020.31111
 21554.00000 2691865.37143 1299565.14953
 21557.00000 7247710.84615 1434519.94845
 21560.00000 3769203.64000 3976722.51429
 21563.00000 3365763.89286 4350593.75000
 21566.00000 6731953.92857 4801664.13793
 21569.00000 10472310.33333 4802669.13793
 21572.00000 8568632.90909 8705863.31250
 21575.00000 5891304.62500 5358492.84615
 21578.00000 6733285.07143 6333825.22727
 21581.00000 4285197.27273 12668714.45455
 21584.00000 3771374.60000 5575291.36000
 21587.00000 2417975.82051 1033450.42963
 21590.00000 3493105.25926 1744826.10000
