~Version ---------------------------------------------------
VERS.   2.0 : CWLS log ASCII Standard -VERSION 2.0
WRAP.    NO : One line per depth step
DLM . SPACE : Column Data Section Delimiter
~Well ------------------------------------------------------
STRT..M  1061.00000 : START DEPTH
STOP..M 31307.00000 : STOP DEPTH
STEP..M     3.00000 : STEP
NULL.      -9999.25 : NULL VALUE
COMP.               : COMPANY
WELL.               : WELL
FLD .               : FIELD
LOC .               : LOCATION
PROV.               : PROVINCE
CNTY.               : COUNTY
STAT.               : STATE
CTRY.               : COUNTRY
SRVC.               : SERVICE COMPANY
DATE.               : DATE
UWI .               : UNIQUE WELL ID
API .               : API NUMBER
~Curve Information -----------------------------------------
DEPTH..M       : Depth
ГК   .имп/мин  : описание 1
НГК  .усл. ед  : описание 2
~Params ----------------------------------------------------
..M    0.0 : Start depth
..M 1920.0 : Stop depth
..M    0.2 : Step
..   -9999 : Null value
~Other -----------------------------------------------------
~ASCII -----------------------------------------------------
# ...
 9227.00000 1932289.46154 2199003.78947
 9230.00000 2284040.81818 5223332.50000
 9233.00000 3589616.57143 2786464.33333
 9236.00000 1092884.95652 4644778.22222
 9239.00000 1093269.95652 5226040.00000
 9242.00000 1048119.54167 2323361.94444
 9245.00000 1935405.92308 4647403.88889
 9248.00000 2097105.25000 4183333.00000
 9251.00000 2288159.18182 3803687.00000
 9254.00000 1198972.57143 4649593.00000
 9257.00000 1199389.57143 6975023.00000
 9260.00000 1399683.33333 10463163.00000
 9263.00000 1200119.61905 2790810.80000
 9266.00000 1050512.16667 2093754.60000
 9269.00000 1939822.07692 2204617.21053
 9272.00000 1201260.23810 2793192.13333
 9275.00000 413996.60656 2205840.68421
 9278.00000 631825.27500 1905751.72727
 9281.00000 871988.10345 1398253.76667
 9284.00000 1331448.21053 1907382.18182
 9287.00000 1205157.61905 2331890.38889
 9290.00000 3164040.25000 1555211.59259
 9293.00000 1013002.88000 1500297.82143
 9296.00000 1333415.52632 2471729.70588
 9299.00000 1056119.12500 3820608.90909
 9302.00000 1152604.45455 3233492.92308
 9305.00000 975734.19231 2102452.90000
 9308.00000 453482.94643 2803970.53333
 9311.00000 229336.18919 5258154.25000
 9314.00000 579125.15909 5258863.75000
 9317.00000 1213946.09524 3506625.66667
 9320.00000 370001.10145 2806027.53333
 9323.00000 405825.30159 1503959.53571
 9326.00000 656123.66667 1239240.41176
 9329.00000 656643.71795 1686019.96000
 9332.00000 1113930.34783 1109845.15789
 9335.00000 1507557.23529 2220282.31579
 9338.00000 1971892.00000 6027063.57143
 9341.00000 1709445.06667 2637429.81250
 9344.00000 1350015.89474 1758892.04167
 9347.00000 916512.71429 1919418.81818
 9350.00000 1351056.47368 2484599.76471
 9353.00000 1833978.14286 3017675.50000
 9356.00000 1712118.93333 3521296.91667
 9359.00000 1712519.93333 6037193.00000
 9362.00000 1835231.28571 4226719.60000
 9365.00000 1835606.78571 1691385.84000
 9368.00000 2855755.55556 1692105.84000
 9371.00000 886646.96552 5288564.25000
 9374.00000 1071748.58333 6044804.42857
 9377.00000 1513428.82353 1924089.36364
 9380.00000 2339289.45455 1693962.64000
 9383.00000 3676372.28571 1765328.91667
 9386.00000 5147265.20000 1926617.86364
 9389.00000 4289734.16667 2120100.15000
 9392.00000 4290085.66667 7067828.00000
 9395.00000 5148460.00000 2232781.68421
 9398.00000 5148827.00000 2829040.13333
 9401.00000 5149199.00000 1117558.86842
 9404.00000 4291369.66667 1931122.45455
 9407.00000 5150012.60000 3863018.90909
 9410.00000 1839664.71429 1700483.32000
 9413.00000 1431238.83333 1519004.28571
 9416.00000 2342428.18182 42532798.00000
 9419.00000 4294852.16667 1329788.43750
 9422.00000 3681695.85714 1330394.93750
 9425.00000 1432168.11111 1014269.69048
 9428.00000 736959.71429 1092962.43590
 9431.00000 2149900.33333 1292384.87879
 9434.00000 1984954.38462 3281388.30769
 9437.00000 2150790.75000 1580660.70370
 9440.00000 1032809.56000 1154215.10811
 9443.00000 600924.67442 2248458.05263
 9446.00000 718252.52778 1378843.19355
 9449.00000 1231782.04762 1644726.84615
 9452.00000 862717.26667 1711203.92000
 9455.00000 1125725.39130 1297025.60606
 9458.00000 996276.50000 1127019.84211
 9461.00000 1727320.26667 996663.90698
 9464.00000 1524532.11765 912577.44681
 9467.00000 1127231.08696 1073054.85000
 9470.00000 2881086.66667 842427.64706
 9473.00000 2593361.50000 1592106.14815
 9476.00000 1441147.88889 2866660.06667
 9479.00000 1621698.87500 1434175.53333
 9482.00000 4324943.83333 1721823.64000
 9485.00000 2359505.18182 1050664.51220
 9488.00000 1128884.00000 1105269.74359
 9491.00000 1366977.78947 1391187.64516
 9494.00000 812064.56250 1106466.82051
 9497.00000 3712701.14286 1269829.02941
 9500.00000 -9999.00000 1136835.28947
 9503.00000 -9999.00000 1600690.40741
 9506.00000 -9999.00000 982914.36364
 9509.00000 -9999.00000 1236284.94286
 9512.00000 -9999.00000 1352772.34375
 9515.00000 6497636.50000 1396992.16129
 9518.00000 896652.72414 1547274.39286
 9521.00000 371959.91429 1805777.95833
 9524.00000 1627842.12500 3612184.41667
 9527.00000 1532589.70588 2281988.63158
 9530.00000 2895378.66667 5420320.50000
 9533.00000 636063.92683 1807385.00000
 9536.00000 511882.50980 1668987.88462
 9539.00000 335269.91026 1973093.72727
 9542.00000 267491.38776 2412229.50000
 9545.00000 375145.72857 4342693.60000
 9548.00000 875925.53333 5429049.50000
 9551.00000 1051662.88000 2896182.06667
 9554.00000 4382465.16667 2556154.76471
 9557.00000 1252657.90476 2287798.84211
 9560.00000 642096.26829 2288525.84211
 9563.00000 1053482.24000 2289268.84211
 9566.00000 1097792.83333 1813097.33333
 9569.00000 2027092.46154 2176492.30000
 9572.00000 1757212.46667 4353740.10000
 9575.00000 2929092.44444 4838242.00000
 9578.00000 3295633.50000 1502257.41379
 9581.00000 2197495.50000 1980951.86364
 9584.00000 1055216.84000 2294413.73684
 9587.00000 824829.65625 2565006.76471
 9590.00000 910624.86207 2565662.76471
 9593.00000 1390375.10526 2566331.76471
 9596.00000 6604725.00000 2567013.76471
 9599.00000 1554472.94118 3357558.15385
 9602.00000 2402777.27273 5456726.50000
 9605.00000 1555157.00000 1984943.68182
 9608.00000 1322325.95000 3970548.36364
 9611.00000 1150313.65217 3971204.36364
 9614.00000 735411.11111 1899941.65217
 9617.00000 946038.07143 1821468.91667
 9620.00000 1472127.27778 1987766.50000
 9623.00000 2409428.54545 2083152.04762
 9626.00000 2209130.33333 3365836.76923
 9629.00000 1559879.11765 2431615.61111
 9632.00000 2946934.33333 2575362.82353
 9635.00000 2040675.30769 2919437.53333
 9638.00000 2653355.40000 5474624.87500
 9641.00000 2948643.66667 2190530.45000
 9644.00000 2949113.66667 1753124.36000
 9647.00000 1397426.57895 2087772.80952
 9650.00000 948748.25000 1993614.54545
 9653.00000 553954.97917 1186124.43243
 9656.00000 299329.16854 1995544.13636
 9659.00000 310403.68605 2311326.05263
 9662.00000 668035.12500 3993001.45455
 9665.00000 514501.67308 3138081.78571
 9668.00000 836645.71875 1997701.63636
 9671.00000 623164.06977 5494427.00000
 9674.00000 454725.91525 4884671.11111
 9677.00000 548127.12245 8793134.00000
 9680.00000 440941.83607 10992140.00000
 9683.00000 448930.18333 4886120.55556
 9686.00000 396669.58824 3141811.00000
 9689.00000 551022.51020 2315766.63158
 9692.00000 818764.81818 2095958.42857
 9695.00000 795269.00000 2935055.80000
 9698.00000 588338.21739 2590464.11765
 9701.00000 615561.61364 2097768.38095
 9704.00000 1083826.44000 3147394.07143
 9707.00000 1042558.30769 2938281.80000
 9710.00000 821834.57576 3148852.57143
 9713.00000 733439.59459 4008306.54545
 9716.00000 714627.05263 4008966.54545
 9719.00000 632056.53488 3150548.78571
 9722.00000 604538.95556 1697099.84615
 9725.00000 544699.56000 7354763.83333
 9728.00000 1135424.25000 2942574.53333
 9731.00000 908964.90000 1766231.72000
 9734.00000 1186202.60870 1338767.33333
 9737.00000 1049888.92308 1194779.72973
 9740.00000 738285.78378 1638032.74074
 9743.00000 803924.14706 2764893.75000
 9746.00000 1302064.47619 2765587.25000
 9749.00000 594902.23913 2329586.57895
 9752.00000 318745.15116 2951509.93333
 9755.00000 669174.39024 1581825.53571
 9758.00000 722561.44737 1641096.66667
 9761.00000 704549.48718 5539400.75000
 9764.00000 1308929.04762 4029347.09091
 9767.00000 1099958.40000 7387815.83333
 9770.00000 887526.58065 4925879.55556
 9773.00000 834222.09091 11083889.50000
 9776.00000 1020114.77778 4434216.30000
 9779.00000 656300.09524 1848267.62500
 9782.00000 -9999.00000 653052.23529
 9785.00000 1969336.78571 717031.25806
 9788.00000 1622243.76471 2021542.95455
 9791.00000 1451934.26316 1435434.48387
 9794.00000 1199896.86957 873253.03922
 9797.00000 986122.07143 1086917.58537
 9800.00000 1624704.05882 2122714.19048
 9803.00000 1201351.21739 1537744.13793
 9806.00000 2512367.72727 929675.25000
 9809.00000 1454978.68421 1240228.50000
 9812.00000 674728.41463 1089681.02439
 9815.00000 503483.41818 1441922.03226
 9818.00000 989510.78571 1277887.94286
 9821.00000 955904.72414 1443561.48387
 9824.00000 1320543.90476 2034917.86364
 9827.00000 1260982.68182 3198548.57143
 9830.00000 957067.55172 933694.47917
 9833.00000 895804.25806 723577.01613
