~Version ---------------------------------------------------
VERS.   2.0 : CWLS log ASCII Standard -VERSION 2.0
WRAP.    NO : One line per depth step
DLM . SPACE : Column Data Section Delimiter
~Well ------------------------------------------------------
STRT..M  1061.00000 : START DEPTH
STOP..M 31307.00000 : STOP DEPTH
STEP..M     3.00000 : STEP
NULL.      -9999.25 : NULL VALUE
COMP.               : COMPANY
WELL.               : WELL
FLD .               : FIELD
LOC .               : LOCATION
PROV.               : PROVINCE
CNTY.               : COUNTY
STAT.               : STATE
CTRY.               : COUNTRY
SRVC.               : SERVICE COMPANY
DATE.               : DATE
UWI .               : UNIQUE WELL ID
API .               : API NUMBER
~Curve Information -----------------------------------------
DEPTH..M       : Depth
ГК   .имп/мин  : описание 1
НГК  .усл. ед  : описание 2
~Params ----------------------------------------------------
..M    0.0 : Start depth
..M 1920.0 : Stop depth
..M    0.2 : Step
..   -9999 : Null value
~Other -----------------------------------------------------
~ASCII -----------------------------------------------------
# ...
 15155.00000 2813684.57143 3900360.38095
 15158.00000 2188895.33333 4311621.63158
 15161.00000 5910460.90000 9103000.33333
 15164.00000 7388512.62500 3724652.18182
 15167.00000 3111398.63158 2561413.87500
 15170.00000 3695247.37500 2216017.86486
 15173.00000 5912860.30000 2733857.26667
 15176.00000 3478610.11765 2217436.86486
 15179.00000 19712565.00000 3282607.56000
 15182.00000 -9999.00000 3908645.14286
 15185.00000 -9999.00000 3909402.14286
 15188.00000 4928598.75000 4105607.80000
 15191.00000 6571936.00000 4562502.94444
 15194.00000 4225293.50000 1711669.10417
 15197.00000 2275646.53846 1611753.68627
 15200.00000 2276158.03846 1326614.88710
 15203.00000 1909568.77419 1127589.01370
 15206.00000 2277350.03846 1396072.50847
 15209.00000 3290070.11111 6336965.38462
 15212.00000 2369394.08000 4846847.70588
 15215.00000 2116040.92857 4578492.88889
 15218.00000 1519726.87179 3746934.13636
 15221.00000 1796589.66667 4122502.05000
 15224.00000 1059295.01786 3585639.39130
 15227.00000 1141406.75000 2946185.14286
 15230.00000 2047299.37931 2171767.42105
 15233.00000 7422076.75000 1965821.92857
 15236.00000 2969452.20000 2014693.73171
 15239.00000 2048546.06897 2118972.35897
 15242.00000 1800893.45455 2234502.40541
 15245.00000 2377782.36000 2067936.22500
 15248.00000 1450399.21951 2177822.47368
 15251.00000 1858811.78125 3311359.16000
 15254.00000 4576002.69231 4600192.44444
 15257.00000 4249611.85714 3185846.11538
 15260.00000 2833555.85714 2124987.41026
 15263.00000 930288.29688 1928361.20930
 15266.00000 744802.13750 1220400.57353
 15269.00000 903368.96970 1596843.94231
 15272.00000 2208768.25926 2517131.06061
 15275.00000 2485371.79167 2308229.63889
 15278.00000 2711797.04545 1731989.81250
 15281.00000 3509849.41176 3326207.44000
 15284.00000 3729663.50000 2446531.26471
 15287.00000 4262917.07143 1631838.84314
 15290.00000 1571006.89474 1665337.12000
 15293.00000 963367.58065 1666244.60000
 15296.00000 747160.37500 2381295.42857
 15299.00000 808337.44595 2033789.17073
 15302.00000 997553.01667 2383443.34286
 15305.00000 1814287.75758 2318266.08333
 15308.00000 2603634.43478 2693233.96774
 15311.00000 2722477.95455 2531085.51515
 15314.00000 4991696.08333 2984162.57143
 15317.00000 2604858.17391 2882377.41379
 15320.00000 4609110.23077 6431046.84615
 15323.00000 8560295.14286 11944499.71429
 15326.00000 2219865.88889 13936373.16667
 15329.00000 1816802.90909 4182043.45000
 15332.00000 1999056.70000 3984045.52381
 15335.00000 1578769.15789 3985210.52381
 15338.00000 1714624.22857 4924081.11765
 15341.00000 1579755.47368 1745089.64583
 15344.00000 2401705.32000 1164475.59722
 15347.00000 1365099.79545 2466973.82353
 15350.00000 1073110.83929 2097916.22500
 15353.00000 1502916.62500 1423251.08475
 15356.00000 1466803.75610 1555912.12963
 15359.00000 1432374.35714 1867921.77778
 15362.00000 1432890.85714 2335699.72222
 15365.00000 1627076.75676 1476001.71930
 15368.00000 1400623.79070 1829829.10870
 15371.00000 1469558.90244 1958405.62791
 15374.00000 2318018.76923 2054890.46341
 15377.00000 2318647.26923 2906179.82759
 15380.00000 2512470.37500 5619627.33333
 15383.00000 3015541.95000 9367062.55556
 15386.00000 3769983.93750 3123383.18519
 15389.00000 20107114.00000 2812097.36667
 15392.00000 6032655.70000 2557533.15152
 15395.00000 8618592.57143 3377051.76000
 15398.00000 7541779.00000 3248294.65385
 15401.00000 1946790.54839 6033693.71429
 15404.00000 1775551.41176 2816852.56667
 15407.00000 6708147.22222 2561874.06061
 15410.00000 6037821.00000 4697840.61111
 15413.00000 3019405.00000 10571198.12500
 15416.00000 4026372.33333 12082422.28571
 15419.00000 3355806.83333 6042254.64286
 15422.00000 2626814.60870 4230605.75000
 15425.00000 1678806.16667 4030155.33333
 15428.00000 991380.85246 5290567.37500
 15431.00000 930981.80000 8465883.30000
 15434.00000 3185484.73684 12095090.00000
 15437.00000 2751604.95455 5645335.33333
 15440.00000 4324452.14286 4457787.68421
 15443.00000 3186952.42105 5294549.37500
 15446.00000 2422620.84000 8472195.50000
 15449.00000 1954287.48387 2492755.58824
 15452.00000 2634600.56522 2826089.50000
 15455.00000 8657089.71429 2924533.86207
 15458.00000 8657618.71429 2232903.60526
 15461.00000 6734219.44444 2294309.35135
 15464.00000 10101840.66667 2739455.22581
 15467.00000 5051435.83333 6533648.07692
 15470.00000 3566248.41176 2574974.36364
 15473.00000 3031855.65000 3541724.25000
 15476.00000 10106740.00000 2126159.02500
 15479.00000 6738384.66667 3150937.22222
 15482.00000 4332383.21429 5318270.06250
 15485.00000 2426715.60000 7736741.54545
 15488.00000 2889544.14286 5007200.88235
 15491.00000 3034611.90000 1577375.55556
 15494.00000 5058261.00000 888223.25000
 15497.00000 4047202.60000 1579920.11111
 15500.00000 3373200.55556 2666919.68750
 15503.00000 3373730.05556 3048679.71429
 15506.00000 1959488.03226 3712180.17391
 15509.00000 1841305.18182 2588022.09091
 15512.00000 2095876.31034 1424188.65000
 15515.00000 2643243.65217 1295563.40909
 15518.00000 2171851.35714 1111366.89610
 15521.00000 2896394.80952 1451374.94915
 15524.00000 1382974.75000 1557912.49091
 15527.00000 1963541.90323 2255889.84211
 15530.00000 7609306.87500 2679912.68750
 15533.00000 10146302.83333 2092709.17073
 15536.00000 6764747.88889 5721161.73333
 15539.00000 5074096.41667 2201518.82051
 15542.00000 4059805.13333 1718205.18000
 15545.00000 1353813.37778 5370361.81250
 15548.00000 1296790.23404 2387805.97222
 15551.00000 1016449.51667 2388811.47222
 15554.00000 1743166.88571 2688451.40625
 15557.00000 1327051.13043 3741506.13043
 15560.00000 2261647.92593 2152387.52500
 15563.00000 20355527.66667 8610537.00000
 15566.00000 2545096.16667 5066014.76471
 15569.00000 3593702.35294 4307120.05000
 15572.00000 3594302.41176 4786713.44444
 15575.00000 2777992.00000 1626685.26415
 15578.00000 2351170.15385 1487420.13793
 15581.00000 2547646.50000 1961572.06818
 15584.00000 2265102.66667 1918813.57778
 15587.00000 2780411.22727 1919596.68889
 15590.00000 2913319.76190 7199242.08333
 15593.00000 1360071.22222 3323492.53846
 15596.00000 874890.00000 4115587.28571
 15599.00000 666278.67391 7203075.25000
 15602.00000 468601.71756 3758935.21739
 15605.00000 248324.50403 4551116.00000
 15608.00000 371851.69880 4551956.00000
 15611.00000 679224.47253 4119294.38095
 15614.00000 511626.33058 2791363.74194
 15617.00000 601735.75728 1766839.81633
 15620.00000 392854.34177 2220701.05128
 15623.00000 3104060.50000 2625251.87879
 15626.00000 3449453.61111 1805666.41667
 15629.00000 2700057.39130 2889778.76667
 15632.00000 2484516.80000 3612909.95833
 15635.00000 3451170.27778 1734892.28000
 15638.00000 1172572.56604 1295435.59701
 15641.00000 777366.96250 1550695.69643
 15644.00000 840994.21622 1424436.49180
 15647.00000 610800.36275 1207722.73611
 15650.00000 1385202.82222 1474791.88136
 15653.00000 1599014.05128 1707135.78431
 15656.00000 1247880.98000 1979769.06818
 15659.00000 1835715.58824 4356545.45000
 15662.00000 2972679.95238 3352220.30769
 15665.00000 1687775.72973 4151373.00000
 15668.00000 2082196.56667 4152354.00000
 15671.00000 2403143.00000 6708613.76923
 15674.00000 3471783.05556 1558340.28571
 15677.00000 3125160.45000 1898136.30435
 15680.00000 2976878.28571 1941384.82222
 15683.00000 4168148.60000 1784009.42857
 15686.00000 6947424.33333 2732900.93750
 15689.00000 3291400.21053 2430410.25000
 15692.00000 3474784.27778 5469606.37500
 15695.00000 5686545.63636 5470785.87500
 15698.00000 5687076.63636 5471950.37500
 15701.00000 4468949.85714 5151219.94118
 15704.00000 2979828.90476 3981641.95455
 15707.00000 3293996.10526 6739274.30769
 15710.00000 5690116.63636 3130066.28571
 15713.00000 4815208.07692 5156541.29412
 15716.00000 3912868.06250 5157694.29412
 15719.00000 5217684.91667 4176445.33333
 15722.00000 8945134.71429 6265851.50000
 15725.00000 5692886.45455 6267031.00000
 15728.00000 5693406.45455 3375718.65385
 15731.00000 3131894.05000 2743907.90625
 15734.00000 2847710.90909 1996666.93182
 15737.00000 1606959.12821 1953358.82222
 15740.00000 1254012.62000 1794905.95918
