~Version ---------------------------------------------------
VERS.   2.0 : CWLS log ASCII Standard -VERSION 2.0
WRAP.    NO : One line per depth step
DLM . SPACE : Column Data Section Delimiter
~Well ------------------------------------------------------
STRT..M  1061.00000 : START DEPTH
STOP..M 31307.00000 : STOP DEPTH
STEP..M     3.00000 : STEP
NULL.      -9999.25 : NULL VALUE
COMP.               : COMPANY
WELL.               : WELL
FLD .               : FIELD
LOC .               : LOCATION
PROV.               : PROVINCE
CNTY.               : COUNTY
STAT.               : STATE
CTRY.               : COUNTRY
SRVC.               : SERVICE COMPANY
DATE.               : DATE
UWI .               : UNIQUE WELL ID
API .               : API NUMBER
~Curve Information -----------------------------------------
DEPTH..M       : Depth
ГК   .имп/мин  : описание 1
НГК  .усл. ед  : описание 2
~Params ----------------------------------------------------
..M    0.0 : Start depth
..M 1920.0 : Stop depth
..M    0.2 : Step
..   -9999 : Null value
~Other -----------------------------------------------------
~ASCII -----------------------------------------------------
# ...
 7424.00000  340.00000  862.00000
 7427.00000  332.00000  897.00000
 7430.00000 -9999.00000  796.00000
 7433.00000  330.00000  842.00000
 7436.00000 -9999.00000  853.00000
 7439.00000  314.00000  926.00000
 7442.00000  329.00000  919.00000
 7445.00000  350.00000  850.00000
 7448.00000  373.00000  762.00000
 7451.00000  391.00000  696.00000
 7454.00000  404.00000  656.00000
 7457.00000  427.00000  709.00000
 7460.00000  429.00000  714.00000
 7463.00000  386.00000  688.00000
 7466.00000  369.00000  678.00000
 7469.00000 -9999.00000  683.00000
 7472.00000 -9999.00000  760.00000
 7475.00000 -9999.00000  856.00000
 7478.00000 -9999.00000  954.00000
 7481.00000 -9999.00000 1050.00000
 7484.00000  297.00000 1119.00000
 7487.00000  298.00000 1156.00000
 7490.00000  309.00000 1118.00000
 7493.00000  326.00000 1026.00000
 7496.00000  348.00000  936.00000
 7499.00000  393.00000  859.00000
 7502.00000  401.00000  789.00000
 7505.00000  424.00000  736.00000
 7508.00000  442.00000  687.00000
 7511.00000  440.00000  646.00000
 7514.00000 -9999.00000  626.00000
 7517.00000 -9999.00000  516.00000
 7520.00000 -9999.00000  631.00000
 7523.00000  621.00000  633.00000
 7526.00000 -9999.00000  653.00000
 7529.00000 -9999.00000  606.00000
 7532.00000 -9999.00000  614.00000
 7535.00000 -9999.00000  636.00000
 7538.00000 -9999.00000  682.00000
 7541.00000 -9999.00000  722.00000
 7544.00000 -9999.00000  771.00000
 7547.00000 -9999.00000  777.00000
 7550.00000  380.00000  676.00000
 7553.00000 -9999.00000  558.00000
 7556.00000  552.00000  677.00000
 7559.00000  578.00000  676.00000
 7562.00000  606.00000  687.00000
 7565.00000 -9999.00000  659.00000
 7568.00000 -9999.00000  671.00000
 7571.00000  659.00000  682.00000
 7574.00000  671.00000  669.00000
 7577.00000  627.00000  628.00000
 7580.00000  619.00000  609.00000
 7583.00000  632.00000  614.00000
 7586.00000  532.00000  594.00000
 7589.00000  532.00000  603.00000
 7592.00000 -9999.00000  624.00000
 7595.00000  589.00000  621.00000
 7598.00000 -9999.00000  513.00000
 7601.00000 -9999.00000  518.00000
 7604.00000 -9999.00000  585.00000
 7607.00000 -9999.00000  595.00000
 7610.00000 -9999.00000  581.00000
 7613.00000  542.00000  618.00000
 7616.00000  528.00000  616.00000
 7619.00000 -9999.00000  609.00000
 7622.00000  521.00000  585.00000
 7625.00000  550.00000  637.00000
 7628.00000  592.00000  674.00000
 7631.00000  589.00000  725.00000
 7634.00000  509.00000  788.00000
 7637.00000  425.00000  894.00000
 7640.00000 -9999.00000  950.00000
 7643.00000 -9999.00000 1073.00000
 7646.00000 -9999.00000  974.00000
 7649.00000  298.00000 1124.00000
 7652.00000  293.00000 1262.00000
 7655.00000  292.00000 1239.00000
 7658.00000  316.00000  972.00000
 7661.00000  332.00000 1118.00000
 7664.00000 -9999.00000 1028.00000
 7667.00000 -9999.00000  906.00000
 7670.00000  396.00000  889.00000
 7673.00000  440.00000  784.00000
 7676.00000  442.00000  818.00000
 7679.00000  426.00000  836.00000
 7682.00000  406.00000  897.00000
 7685.00000  390.00000  965.00000
 7688.00000  378.00000  982.00000
 7691.00000  359.00000 1084.00000
 7694.00000  358.00000 1076.00000
 7697.00000  366.00000 1034.00000
 7700.00000  382.00000 1000.00000
 7703.00000  388.00000  960.00000
 7706.00000  385.00000  925.00000
 7709.00000  386.00000  927.00000
 7712.00000 -9999.00000  945.00000
 7715.00000 -9999.00000  919.00000
 7718.00000 -9999.00000  866.00000
 7721.00000 -9999.00000  793.00000
 7724.00000  619.00000  787.00000
 7727.00000 -9999.00000  776.00000
 7730.00000 -9999.00000  806.00000
 7733.00000  386.00000  858.00000
 7736.00000  343.00000  920.00000
 7739.00000  315.00000  976.00000
 7742.00000  300.00000 1019.00000
 7745.00000  306.00000 1069.00000
 7748.00000  324.00000 1117.00000
 7751.00000  348.00000 1132.00000
 7754.00000  376.00000  988.00000
 7757.00000  394.00000  857.00000
 7760.00000  402.00000  783.00000
 7763.00000  402.00000  748.00000
 7766.00000 -9999.00000  795.00000
 7769.00000  382.00000  777.00000
 7772.00000  404.00000  698.00000
 7775.00000  443.00000  644.00000
 7778.00000  475.00000  627.00000
 7781.00000  494.00000  614.00000
 7784.00000  496.00000  608.00000
 7787.00000  466.00000  618.00000
 7790.00000  444.00000  633.00000
 7793.00000  426.00000  656.00000
 7796.00000  396.00000  695.00000
 7799.00000  376.00000  737.00000
 7802.00000  351.00000  758.00000
 7805.00000 -9999.00000  856.00000
 7808.00000 -9999.00000  972.00000
 7811.00000  300.00000 1094.00000
 7814.00000  286.00000 1181.00000
 7817.00000  288.00000  988.00000
 7820.00000 -9999.00000 1088.00000
 7823.00000 -9999.00000  973.00000
 7826.00000  324.00000  964.00000
 7829.00000  329.00000  916.00000
 7832.00000  343.00000  863.00000
 7835.00000  378.00000  818.00000
 7838.00000  436.00000  764.00000
 7841.00000  500.00000  746.00000
 7844.00000  484.00000  721.00000
 7847.00000 -9999.00000  693.00000
 7850.00000  411.00000  688.00000
 7853.00000  416.00000  700.00000
 7856.00000  432.00000  611.00000
 7859.00000  462.00000  663.00000
 7862.00000 -9999.00000  750.00000
 7865.00000 -9999.00000  811.00000
 7868.00000 -9999.00000  957.00000
 7871.00000 -9999.00000  969.00000
 7874.00000 -9999.00000 1096.00000
 7877.00000  302.00000 1152.00000
 7880.00000  305.00000 1157.00000
 7883.00000  308.00000 1144.00000
 7886.00000  310.00000 1163.00000
 7889.00000  309.00000 1176.00000
 7892.00000  306.00000 1144.00000
 7895.00000  302.00000 1147.00000
 7898.00000  300.00000 1187.00000
 7901.00000  298.00000 1189.00000
 7904.00000  301.00000 1179.00000
 7907.00000  307.00000 1203.00000
 7910.00000  312.00000 1173.00000
 7913.00000  310.00000 1203.00000
 7916.00000  309.00000 1158.00000
 7919.00000  334.00000 1120.00000
 7922.00000  340.00000 1106.00000
 7925.00000 -9999.00000 1128.00000
 7928.00000 -9999.00000 1154.00000
 7931.00000  282.00000 1151.00000
 7934.00000 -9999.00000 1198.00000
 7937.00000 -9999.00000 1181.00000
 7940.00000 -9999.00000 1135.00000
 7943.00000 -9999.00000 1020.00000
 7946.00000  350.00000  873.00000
 7949.00000  372.00000  816.00000
 7952.00000  398.00000  779.00000
 7955.00000  417.00000  748.00000
 7958.00000  450.00000  722.00000
 7961.00000  495.00000  702.00000
 7964.00000  553.00000  685.00000
 7967.00000  610.00000  671.00000
 7970.00000  678.00000  655.00000
 7973.00000  674.00000  643.00000
 7976.00000  616.00000  632.00000
 7979.00000  582.00000  636.00000
 7982.00000  544.00000  648.00000
 7985.00000  557.00000  680.00000
 7988.00000  587.00000  694.00000
 7991.00000  667.00000  749.00000
 7994.00000  678.00000  830.00000
 7997.00000  594.00000  902.00000
 8000.00000  475.00000  972.00000
 8003.00000  382.00000  938.00000
 8006.00000  429.00000  700.00000
 8009.00000  575.00000  688.00000
 8012.00000  689.00000  666.00000
 8015.00000  725.00000  702.00000
 8018.00000  712.00000  689.00000
 8021.00000  639.00000  660.00000
 8024.00000  604.00000  630.00000
 8027.00000  548.00000  605.00000
 8030.00000  512.00000  590.00000
 8033.00000  490.00000  599.00000
 8036.00000  468.00000  618.00000
 8039.00000  454.00000  644.00000
 8042.00000  458.00000  663.00000
 8045.00000  469.00000  680.00000
 8048.00000  488.00000  664.00000
 8051.00000  482.00000  618.00000
 8054.00000  480.00000  590.00000
 8057.00000  498.00000  596.00000
 8060.00000  530.00000  604.00000
 8063.00000  563.00000  589.00000
 8066.00000  629.00000  567.00000
 8069.00000  683.00000  601.00000
 8072.00000  778.00000  631.00000
 8075.00000  806.00000  679.00000
 8078.00000  798.00000  708.00000
 8081.00000  686.00000  703.00000
 8084.00000  594.00000  676.00000
 8087.00000  497.00000  649.00000
 8090.00000  460.00000  643.00000
 8093.00000  480.00000  659.00000
 8096.00000  514.00000  678.00000
 8099.00000  536.00000  695.00000
 8102.00000  520.00000  708.00000
 8105.00000  490.00000  692.00000
 8108.00000  494.00000  662.00000
 8111.00000  516.00000  644.00000
 8114.00000 -9999.00000  658.00000
 8117.00000  484.00000  680.00000
 8120.00000  484.00000  698.00000
 8123.00000  498.00000  715.00000
