~Version ---------------------------------------------------
VERS.   2.0 : CWLS log ASCII Standard -VERSION 2.0
WRAP.    NO : One line per depth step
DLM . SPACE : Column Data Section Delimiter
~Well ------------------------------------------------------
STRT..M  1061.00000 : START DEPTH
STOP..M 31307.00000 : STOP DEPTH
STEP..M     3.00000 : STEP
NULL.      -9999.25 : NULL VALUE
COMP.               : COMPANY
WELL.               : WELL
FLD .               : FIELD
LOC .               : LOCATION
PROV.               : PROVINCE
CNTY.               : COUNTY
STAT.               : STATE
CTRY.               : COUNTRY
SRVC.               : SERVICE COMPANY
DATE.               : DATE
UWI .               : UNIQUE WELL ID
API .               : API NUMBER
~Curve Information -----------------------------------------
DEPTH..M       : Depth
ГК   .имп/мин  : описание 1
НГК  .усл. ед  : описание 2
~Params ----------------------------------------------------
..M    0.0 : Start depth
..M 1920.0 : Stop depth
..M    0.2 : Step
..   -9999 : Null value
~Other -----------------------------------------------------
~ASCII -----------------------------------------------------
 1061.00000 -9999.00000 -9999.00000
 1064.00000 -9999.00000 -9999.00000
 1067.00000 -9999.00000 -9999.00000
 1070.00000 -9999.00000 -9999.00000
 1073.00000 -9999.00000 -9999.00000
 1076.00000 -9999.00000 -9999.00000
 1079.00000 -9999.00000 -9999.00000
 1082.00000 -9999.00000 -9999.00000
 1085.00000 -9999.00000 -9999.00000
 1088.00000 -9999.00000 -9999.00000
 1091.00000 -9999.00000 -9999.00000
 1094.00000 -9999.00000 -9999.00000
 1097.00000 -9999.00000 1309.00000
 1100.00000 -9999.00000 -9999.00000
 1103.00000  460.00000 -9999.00000
 1106.00000  509.41860 -9999.00000
 1109.00000 3347.81081 -9999.00000
 1112.00000 14125.22222 -9999.00000
 1115.00000 21542.33333 -9999.00000
 1118.00000 6824.20000 -9999.00000
 1121.00000 5628.88462 -9999.00000
 1124.00000 4354.43243 -9999.00000
 1127.00000 7117.58333 -9999.00000
 1130.00000 14620.66667 -9999.00000
 1133.00000 13878.00000 -9999.00000
 1136.00000 11667.37500 -9999.00000
 1139.00000 12074.87500 -9999.00000
 1142.00000 17975.45455 -9999.00000
 1145.00000 25127.75000 -9999.00000
 1148.00000 10998.10526 -9999.00000
 1151.00000 10879.70000 -9999.00000
 1154.00000 11327.20000  756.20172
 1157.00000 11780.70000 3709.73684
 1160.00000 8046.45161 6228.43243
 1163.00000 16026.50000 19706.83333
 1166.00000 9263.20690 34290.14286
 1169.00000 18319.86667 22312.00000
 1172.00000 11413.92000 25027.70000
 1175.00000 12332.00000 23249.45455
 1178.00000 20182.20000 64435.50000
 1181.00000 15576.45000 37321.28571
 1184.00000 44933.14286 20605.07692
 1187.00000 26644.50000 22848.66667
 1190.00000 25037.92308 20100.07143
 1193.00000 41135.12500 28647.60000
 1196.00000 33353.60000 29177.10000
 1199.00000 22672.73333 32944.00000
 1202.00000 24715.71429 33451.00000
 1205.00000 29256.50000 25593.75000
 1208.00000 35530.30000 24147.00000
 1211.00000 20152.55556 39776.37500
 1214.00000 21732.05882 40290.87500
 1217.00000 20910.22222 25307.53846
 1220.00000 12947.63333 66329.60000
 1223.00000 23256.76471 55798.16667
 1226.00000 23650.94118 56307.66667
 1229.00000 20499.80000 68068.20000
 1232.00000 14557.79310 68579.20000
 1235.00000 22643.78947 43363.50000
 1238.00000 39522.00000 50046.28571
 1241.00000 27583.87500 50526.28571
 1244.00000 26374.29412 11925.19355
 1247.00000 17010.03704 46746.62500
 1250.00000 18082.76923 25452.53333
 1253.00000 16626.13793 24360.25000
 1256.00000 27176.05556 39453.90000
 1259.00000 38004.38462 25121.18750
 1262.00000 38380.38462 21635.68421
 1265.00000 28105.66667 46174.33333
 1268.00000 46400.09091 32455.84615
 1271.00000 34448.73333 105953.00000
 1274.00000 18895.17857 33080.92308
 1277.00000 25640.57143 54249.00000
 1280.00000 28767.57895 108992.50000
 1283.00000 27743.70000 48938.11111
 1286.00000 46664.00000 34387.23077
 1289.00000 33359.29412 64380.00000
 1292.00000 40923.21429 56853.00000
 1295.00000 16346.08333 76328.50000
 1298.00000 27194.63636 35743.53846
 1301.00000 24372.28000 58583.75000
 1304.00000 41036.46667 94226.00000
 1307.00000 47750.76923 39759.33333
 1310.00000 33074.57895 48220.70000
 1313.00000 23689.70370 80879.33333
 1316.00000 53728.33333 30848.25000
 1319.00000 28451.17391 29570.64706
 1322.00000 44025.13333 28462.33333
 1325.00000 27915.20833 102984.40000
 1328.00000 29533.91304 40134.38462
 1331.00000 48904.50000 52711.20000
 1334.00000 25744.88889 105960.40000
 1337.00000 50047.35714 41297.00000
 1340.00000 41605.47059 32138.05882
 1343.00000 50907.42857 42592.69231
 1346.00000 36034.75000 46690.58333
 1349.00000 40450.11111 62787.11111
 1352.00000 73237.00000 19994.65517
 1355.00000 49237.66667 23692.80000
 1358.00000 49639.66667 37539.50000
 1361.00000 83121.77778 46736.46154
 1364.00000 62730.83333 47282.46154
 1367.00000 40020.47368 41536.13333
 1370.00000 69537.27273 69786.88889
 1373.00000 69947.27273 63355.70000
 1376.00000 59587.15385 70930.22222
 1379.00000 97226.62500 58556.81818
 1382.00000 60235.76923 59071.81818
 1385.00000 49355.06250 27604.08333
 1388.00000 61169.69231 47852.78571
 1391.00000 61604.69231 67508.40000
 1394.00000 62040.69231 113020.50000
 1397.00000 54195.60000 75859.00000
 1400.00000 62958.38462 49288.00000
 1403.00000 37641.18182 69535.70000
 1406.00000 64151.46154 58474.91667
 1409.00000 60003.85714 70709.40000
 1412.00000 65030.53846 71320.50000
 1415.00000 65432.53846 102412.42857
 1418.00000 57119.20000 72211.20000
 1421.00000 53978.75000 48677.80000
 1424.00000 51255.41176 81663.66667
 1427.00000 73077.33333 82185.66667
 1430.00000 58921.86667 123792.00000
 1433.00000 74099.83333 44214.29412
 1436.00000 63947.64286 94490.87500
 1439.00000 69287.69231 95021.37500
 1442.00000 100490.22222 84984.44444
 1445.00000 113455.00000 96119.00000
 1448.00000 91170.50000 110353.28571
 1451.00000 130651.57143 52007.20000
 1454.00000 91858.60000 56244.50000
 1457.00000 184113.20000 113016.00000
 1460.00000 66156.21429 88420.33333
 1463.00000 51867.33333 88928.33333
 1466.00000 55345.35294 80535.00000
 1469.00000 104973.22222 47888.52941
 1472.00000 67906.28571 68354.58333
 1475.00000 95479.30000 117680.28571
 1478.00000 119754.62500 118172.28571
 1481.00000 50837.00000 103887.25000
 1484.00000 121159.37500 59860.64286
 1487.00000 54263.11111 56380.93333
 1490.00000 75540.53846 141470.83333
 1493.00000 89679.18182 141984.33333
 1496.00000 49736.05000 170892.20000
 1499.00000 37269.51852 66244.76923
 1502.00000 30941.24242 54354.37500
 1505.00000 51516.55000 79596.90909
 1508.00000 34799.86667 55242.37500
 1511.00000 58428.27778 74157.00000
 1514.00000 105579.40000 222964.50000
 1517.00000 81622.92308 127901.28571
 1520.00000 56267.26316 81892.72727
 1523.00000 56702.26316 69805.84615
 1526.00000 108175.80000 130161.42857
 1529.00000 83647.15385 182745.00000
 1532.00000 109165.80000 131050.14286
 1535.00000 109588.30000 153410.33333
 1538.00000 137406.87500 102883.55556
 1541.00000 84972.07692 49249.31579
 1544.00000 110868.20000 59015.06250
 1547.00000 158780.14286 157916.00000
 1550.00000 101438.90909 118974.50000
 1553.00000 59133.78947 190889.20000
 1556.00000 53923.00000 95978.10000
 1559.00000 87539.38462 137652.57143
 1562.00000 103886.63636 138191.57143
 1565.00000 88328.07692 138723.57143
 1568.00000 115245.00000 194739.00000
 1571.00000 89073.00000 97897.00000
 1574.00000 96916.25000 196323.00000
 1577.00000 89878.15385 196848.00000
 1580.00000 43703.66667 141124.71429
 1583.00000 84737.14286 141636.71429
 1586.00000 91706.38462 142140.71429
 1589.00000 108827.27273 166329.33333
 1592.00000 100206.83333 59211.47059
 1595.00000 75595.62500 126338.87500
 1598.00000 86820.50000 78251.00000
 1601.00000 110916.81818 254809.25000
 1604.00000 244430.00000 102423.20000
 1607.00000 153184.25000 79298.07692
 1610.00000 136592.55556 79822.07692
 1613.00000 176052.00000 130234.37500
 1616.00000 137363.33333 149353.28571
 1619.00000 73164.76471 209601.60000
 1622.00000 57000.90909 262502.50000
 1625.00000 104982.16667 88004.33333
 1628.00000 126455.10000 66520.68750
 1631.00000 158536.37500 133561.87500
 1634.00000 141376.22222 134071.37500
 1637.00000 159492.75000 215015.20000
 1640.00000 213095.50000 179678.83333
 1643.00000 116675.90909 90346.91667
 1646.00000 80668.18750 99081.27273
 1649.00000 86511.06667 218502.80000
 1652.00000 86975.06667 84569.53846
 1655.00000 109167.33333 110468.90000
 1658.00000 218772.16667 110982.40000
 1661.00000 101394.76923 222468.80000
 1664.00000 101814.76923 159411.28571
 1667.00000 83157.00000 101955.54545
 1670.00000 148270.66667 93981.75000
 1673.00000 103076.92308 87287.38462
 1676.00000 167915.50000 87819.38462
 1679.00000 269068.80000 127447.11111
 1682.00000 79546.88235 55148.19048
 1685.00000 54518.88000 165978.57143
 1688.00000 91311.80000 106147.72727
 1691.00000 171658.12500 117273.00000
 1694.00000 153026.00000 90718.00000
 1697.00000 197182.71429 98799.25000
 1700.00000 172961.37500 132252.33333
 1703.00000 173385.87500 85527.85714
 1706.00000 139138.20000 150169.25000
 1709.00000 232329.50000 75590.12500
 1712.00000 232760.00000 110461.27273
 1715.00000 199935.57143 93957.23077
 1718.00000 200356.57143 102261.50000
