~Version ---------------------------------------------------
VERS.   2.0 : CWLS log ASCII Standard -VERSION 2.0
WRAP.    NO : One line per depth step
DLM . SPACE : Column Data Section Delimiter
~Well ------------------------------------------------------
STRT..M  1061.00000 : START DEPTH
STOP..M 31307.00000 : STOP DEPTH
STEP..M     3.00000 : STEP
NULL.      -9999.25 : NULL VALUE
COMP.               : COMPANY
WELL.               : WELL
FLD .               : FIELD
LOC .               : LOCATION
PROV.               : PROVINCE
CNTY.               : COUNTY
STAT.               : STATE
CTRY.               : COUNTRY
SRVC.               : SERVICE COMPANY
DATE.               : DATE
UWI .               : UNIQUE WELL ID
API .               : API NUMBER
~Curve Information -----------------------------------------
DEPTH..M       : Depth
ГК   .имп/мин  : описание 1
НГК  .усл. ед  : описание 2
~Params ----------------------------------------------------
..M    0.0 : Start depth
..M 1920.0 : Stop depth
..M    0.2 : Step
..   -9999 : Null value
~Other -----------------------------------------------------
~ASCII -----------------------------------------------------
# ...
 19259.00000 1278147.65152 1910106.34426
 19262.00000 1339863.52381 2378931.83673
 19265.00000 982366.58140 1911996.14754
 19268.00000 1207687.80000 3240741.77778
 19271.00000 1128049.06667 1389952.27381
 19274.00000 1085559.67949 3539033.42424
 19277.00000 2352675.66667 2596153.91111
 19280.00000 2229517.68421 5842026.05000
 19283.00000 3259245.80769 2996593.79487
 19286.00000 2568792.06061 2051087.59649
 19289.00000 2231483.89474 1158523.27723
 19292.00000 2019666.19048 1801131.06154
 19295.00000 2651539.50000 1802056.18462
 19298.00000 2496236.26471 1247008.53191
 19301.00000 3690684.04348 1363808.96512
 19304.00000 4468228.89474 1235471.32632
 19307.00000 2830443.00000 1525258.45455
 19310.00000 2573693.00000 2499487.34043
 19313.00000 3397819.76000 2398172.06122
 19316.00000 2427538.25714 3791418.03226
 19319.00000 1976430.13953 4053612.13793
 19322.00000 4249876.75000 5878424.10000
 19325.00000 3036165.53571 1960140.70000
 19328.00000 2024647.07143 6534692.11111
 19331.00000 5315221.31250 3565220.84848
 19334.00000 4725178.66667 4358356.62963
 19337.00000 7088322.50000 1731579.20588
 19340.00000 4477385.26316 1571107.89333
 19343.00000 4726664.38889 1998337.59322
 19346.00000 3403739.36000 1734994.94118
 19349.00000 2934830.06897 1935290.00000
 19352.00000 3701035.91304 1514711.82051
 19355.00000 4054134.52381 1970195.53333
 19358.00000 3548005.20833 6222753.31579
 19361.00000 7096654.91667 4927309.29167
 19364.00000 10645619.37500 4078503.55172
 19367.00000 6551773.38462 6571642.88889
 19370.00000 4483443.63158 9099939.84615
 19373.00000 7744803.90909 5915697.40000
 19376.00000 7745473.90909 5378627.22727
 19379.00000 6554530.15385 3586497.51515
 19382.00000 8521541.70000 11836217.30000
 19385.00000 5013338.94118 4932519.70833
 19388.00000 4262009.60000 3819453.93548
 19391.00000 6089237.78571 4736854.92000
 19394.00000 8525567.40000 6966721.11765
 19397.00000 7105289.66667 3948539.60000
 19400.00000 8526993.10000 5641499.85714
 19403.00000 9475094.11111 4388590.22222
 19406.00000 7753023.72727 7900226.40000
 19409.00000 4738638.44444 5387268.50000
 19412.00000 2666146.90625 4087626.34483
 19415.00000 6563468.15385 6586382.72222
 19418.00000 5688999.86667 3293943.86111
 19421.00000 4741510.72222 3953439.13333
 19424.00000 2032742.52381 19767887.16667
 19427.00000 3712593.13043 9124340.23077
 19430.00000 4066777.42857 7908480.53333
 19433.00000 3713773.34783 8474092.50000
 19436.00000 5025194.88235 4746206.80000
 19439.00000 3560194.54167 3955924.50000
 19442.00000 2670802.37500 6594007.66667
 19445.00000 3885421.95455 1915165.79032
 19448.00000 4274602.55000 2328984.84314
 19451.00000 8549851.60000 1886164.65079
 19454.00000 5029963.47059 4401863.85185
 19457.00000 7126412.08333 4245452.92857
 19460.00000 5345455.62500 2123536.98214
 19463.00000 10691573.75000 3214870.91892
 19466.00000 12219605.42857 9150903.23077
 19469.00000 6110472.21429 3305364.33333
 19472.00000 3565132.29167 6263637.57895
 19475.00000 4504034.00000 7934791.93333
 19478.00000 2517662.67647 3217643.54054
 19481.00000 8560705.70000 3841205.25806
 19484.00000 10701525.62500 3402963.22857
 19487.00000 6586195.23077 17015548.14286
 19490.00000 14270694.16667 5414778.54545
 19493.00000 7135938.58333 29782043.50000
 19496.00000 3058864.89286 3309890.44444
 19499.00000 3724463.52174 2771894.95349
 19502.00000 7139187.58333 5960443.65000
 19505.00000 4509592.57895 5183860.47826
 19508.00000 2955212.65517 1728777.84058
 19511.00000 2255978.28947 14911489.37500
 19514.00000 4287060.25000 11929979.00000
 19517.00000 1824966.95745 7457021.37500
 19520.00000 2599822.48485 4589705.73077
 19523.00000 4766958.72222 5683237.80952
 19526.00000 2600798.21212 9181339.92308
 19529.00000 4291986.55000 5190183.00000
 19532.00000 3577329.95833 3411443.51429
 19535.00000 1951926.56818 4423027.44444
 19538.00000 5052655.23529 4976714.29167
 19541.00000 4772562.66667 5972864.65000
 19544.00000 2203357.23077 2489509.10417
 19547.00000 4523327.63158 6639541.38889
 19550.00000 3907140.72727 13279940.77778
 19553.00000 6612694.30769 3231127.86486
 19556.00000 4525087.05263 5198793.34783
 19559.00000 1563852.70909 808743.39189
 19562.00000 2607092.18182 5985435.60000
 19565.00000 3585426.25000 2784675.53488
 19568.00000 2608241.90909 2722183.90909
 19571.00000 2777138.77419 9214363.53846
 19574.00000 2609450.33333 4278927.85714
 19577.00000 2970016.51724 2787136.65116
 19580.00000 2692216.96875 3632590.51515
 19583.00000 5068334.52941 3746951.46875
 19586.00000 3191810.59259 3868685.87097
 19589.00000 3747559.08696 1237215.14433
 19592.00000 3918546.00000 4445602.96296
 19595.00000 4105769.42857 3531151.26471
 19598.00000 2536519.05882 6319730.26316
 19601.00000 4539621.10526 4141339.93103
 19604.00000 2464964.77143 2071529.56897
 19607.00000 2876411.73333 3876641.00000
 19610.00000 3319557.11538 1582111.31579
 19613.00000 3452938.40000 3006792.40000
 19616.00000 3597380.33333 9252430.92308
 19619.00000 3597923.70833 4812037.08000
 19622.00000 4318047.95000 5729406.57143
 19625.00000 4798385.55556 7078295.23529
 19628.00000 8637654.50000 4150128.58621
 19631.00000 7852969.18182 5471384.54545
 19634.00000 12340931.14286 9260008.15385
 19637.00000 4799809.50000 5016585.25000
 19640.00000 3756950.65217 2562436.55319
 19643.00000 8641594.80000 3650336.84848
 19646.00000 7856574.27273 10951828.54545
 19649.00000 7857145.27273 7530196.62500
 19652.00000 4549447.57895 5020933.58333
 19655.00000 3602237.50000 4635492.42308
 19658.00000 7205079.50000 5240884.91304
 19661.00000 8646699.90000 7534516.56250
 19664.00000 4804327.66667 5480378.90909
 19667.00000 1310901.68182 8612749.50000
 19670.00000 3090633.78571 3445851.05714
 19673.00000 3091277.28571 8615380.14286
 19676.00000 6658772.53846 9278853.69231
 19679.00000 3092199.85714 2742246.00000
 19682.00000 3092798.75000 6351243.42105
 19685.00000 3608858.70833 3771819.34375
 19688.00000 3331864.69231 3894247.93548
 19691.00000 2625710.51515 4312274.28571
 19694.00000 3209794.74074 5250513.21739
 19697.00000 2889421.76667 5489941.40909
 19700.00000 5779458.53333 2570539.80851
 19703.00000 4816825.94444 6041585.05000
 19706.00000 3211818.29630 3021593.02500
 19709.00000 3942372.00000 6043956.55000
 19712.00000 2628852.00000 2084912.44828
 19715.00000 2711621.78125 4837807.88000
 19718.00000 2345820.75676 4480240.11111
 19721.00000 1296112.53731 3902909.61290
 19724.00000 1206808.15278 1494498.80247
 19727.00000 1337506.41538 5044769.62500
 19730.00000 3220664.03704 2329175.71154
 19733.00000 3479102.80000 7125325.64706
 19736.00000 1673454.67308 12113836.10000
 19739.00000 2720201.34375 6376478.21053
 19742.00000 3224781.33333 3672086.63636
 19745.00000 3483597.84000 5508918.45455
 19748.00000 2292692.18421 2204335.41818
 19751.00000 5809017.53333 4181384.13793
 19754.00000 3961549.27273 5775051.38095
 19757.00000 2356375.78378 2958700.14634
 19760.00000 2491913.82857 3279273.62162
 19763.00000 3634948.50000 10111788.16667
 19766.00000 2644500.90909 5276417.56522
 19769.00000 1229999.30986 8091215.93333
 19772.00000 1180926.75676 4046307.46667
 19775.00000 1900477.93478 3679133.33333
 19778.00000 1507957.10345 5059458.83333
 19781.00000 3124291.92857 4670920.19231
 19784.00000 4860690.16667 5280831.65217
 19787.00000 6250136.42857 9343674.84615
 19790.00000 8750839.10000 8676928.00000
 19793.00000 7292993.41667 13498094.55556
 19796.00000 3366631.46154 4050112.10000
 19799.00000 17507171.40000 1960422.16129
 19802.00000 17507882.40000 5788633.04762
 19805.00000 87540113.00000 4192482.75862
 19808.00000 3979778.54545 4863975.00000
 19811.00000 3980471.13636 7153582.41176
 19814.00000 1460239.38333 2764574.61364
 19817.00000 4172866.52381 3802008.59375
 19820.00000 5155455.47059 4867291.00000
 19823.00000 7304275.41667 6760830.88889
 19826.00000 5478922.06250 4057202.03333
 19829.00000 2248517.89744 2435041.86000
 19832.00000 6746328.84615 11069126.09091
 19835.00000 9745476.22222 5535310.54545
 19838.00000 2924431.36667 6410037.10526
 19841.00000 2194118.02500 7612630.56250
