~Version ---------------------------------------------------
VERS.   2.0 : CWLS log ASCII Standard -VERSION 2.0
WRAP.    NO : One line per depth step
DLM . SPACE : Column Data Section Delimiter
~Well ------------------------------------------------------
STRT..M  1061.00000 : START DEPTH
STOP..M 31307.00000 : STOP DEPTH
STEP..M     3.00000 : STEP
NULL.      -9999.25 : NULL VALUE
COMP.               : COMPANY
WELL.               : WELL
FLD .               : FIELD
LOC .               : LOCATION
PROV.               : PROVINCE
CNTY.               : COUNTY
STAT.               : STATE
CTRY.               : COUNTRY
SRVC.               : SERVICE COMPANY
DATE.               : DATE
UWI .               : UNIQUE WELL ID
API .               : API NUMBER
~Curve Information -----------------------------------------
DEPTH..M       : Depth
ГК   .имп/мин  : описание 1
НГК  .усл. ед  : описание 2
~Params ----------------------------------------------------
..M    0.0 : Start depth
..M 1920.0 : Stop depth
..M    0.2 : Step
..   -9999 : Null value
~Other -----------------------------------------------------
~ASCII -----------------------------------------------------
# ...
 5507.00000 1009789.00000 1055960.66667
 5510.00000 539014.13333 1056470.16667
 5513.00000 735491.27273 2113450.83333
 5516.00000 1348873.16667 1057236.91667
 5519.00000 899719.77778 793451.18750
 5522.00000 476802.23529 1411114.88889
 5525.00000 450811.72222 977451.69231
 5528.00000 219803.64865 1588869.62500
 5531.00000 290860.07143 794954.31250
 5534.00000 1018396.75000 669970.21053
 5537.00000 582333.50000 749343.23529
 5540.00000 679794.58333 796743.68750
 5543.00000 742001.00000 850439.93333
 5546.00000 680562.83333 709293.44444
 5549.00000 4083755.50000 1277533.20000
 5552.00000 2042256.25000 2555665.40000
 5555.00000 1167389.57143 1278434.20000
 5558.00000 1362344.00000 913779.78571
 5561.00000 1022145.50000 984695.53846
 5564.00000 908953.77778 1422973.00000
 5567.00000 1022943.50000 1281306.20000
 5570.00000 1364289.16667 1165441.81818
 5573.00000 630035.92308 916305.78571
 5576.00000 409901.85000 987375.84615
 5579.00000 304028.00000 584037.86364
 5582.00000 456453.50000 559256.91304
 5585.00000 316411.76923 757276.70588
 5588.00000 484300.88235 920202.78571
 5591.00000 549228.33333 416241.45161
 5594.00000 458023.77778 380215.76471
 5597.00000 549954.53333 647096.30000
 5600.00000 458624.94444 539979.41667
 5603.00000 359266.86957 316767.51220
 5606.00000 318171.50000 500150.50000
 5609.00000 827612.40000 542430.20833
 5612.00000 591514.21429 1860341.71429
 5615.00000 637366.30769 1628383.50000
 5618.00000 1184020.28571 1184870.90909
 5621.00000 1381688.50000 1629792.00000
 5624.00000 592486.71429 652494.30000
 5627.00000 395337.14286 932690.21429
 5630.00000 461586.16667 816640.43750
 5633.00000 923536.33333 1188358.63636
 5636.00000 639729.30769 1452949.33333
 5639.00000 640078.30769 2615821.80000
 5642.00000 924897.55556 1189514.90909
 5645.00000 1387677.83333 1636077.50000
 5648.00000 555406.13333 1309356.50000
 5651.00000 1041725.00000 1091631.91667
 5654.00000 926313.77778 936195.00000
 5657.00000 926644.77778 874304.00000
 5660.00000 926973.77778 1093415.50000
 5663.00000 491085.82353 1093961.00000
 5666.00000 298507.75000 597244.50000
 5669.00000 239174.20000 773418.64706
 5672.00000 299351.25000 1315319.20000
 5675.00000 349627.50000 731253.38889
 5678.00000 599728.92857 1013039.69231
 5681.00000 700034.25000 1317488.10000
 5684.00000 1050389.87500 573338.95652
 5687.00000 420500.45000 1319175.10000
 5690.00000 290358.31034 776483.35294
 5693.00000 324236.69231 1100529.58333
 5696.00000 648858.38462 1651314.87500
 5699.00000 649241.38462 629583.33333
 5702.00000 603240.50000 2204038.16667
 5705.00000 1689434.60000 1202704.63636
 5708.00000 2816072.33333 1323486.60000
 5711.00000 939039.77778 1324007.10000
 5714.00000 402805.61905 1891962.71429
 5717.00000 352829.41667 1104161.41667
 5720.00000 770193.63636 1893361.14286
 5723.00000 605531.64286 1473132.22222
 5726.00000 605900.14286 1326343.50000
 5729.00000 942868.33333 1206299.81818
 5732.00000 1414651.00000 1106316.33333
 5735.00000 1414996.50000 1106867.83333
 5738.00000 499763.52941 531866.48000
 5741.00000 447519.84211 1023342.15385
 5744.00000 386871.90909 1023847.15385
 5747.00000 473235.94444 739950.66667
 5750.00000 710250.41667 1025066.07692
 5753.00000 448967.21053 1333103.40000
 5756.00000 1066674.62500 1666886.75000
 5759.00000 609917.85714 3334273.00000
 5762.00000 657221.61538 3334769.50000
 5765.00000 712365.58333 1482620.77778
 5768.00000 777490.09091 1668456.87500
 5771.00000 950617.66667 2670041.00000
 5774.00000 1222567.71429 1335533.00000
 5777.00000 503760.23529 742487.27778
 5780.00000 535607.75000 1028597.30769
 5783.00000 857339.90000 1114847.58333
 5786.00000 451591.52632 1115424.25000
 5789.00000 780385.81818 1487741.33333
 5792.00000 390573.40909 1913316.28571
 5795.00000 358422.12500 1488644.88889
 5798.00000 410036.28571 1489160.88889
 5801.00000 783212.54545 1675827.50000
 5804.00000 574773.86667 2234961.16667
 5807.00000 718893.83333 2235485.66667
 5810.00000 539591.87500 1219872.81818
 5813.00000 432079.00000 1917451.00000
 5816.00000 540485.25000 895325.46667
 5819.00000 865146.90000 1221426.36364
 5822.00000 786865.18182 1344098.50000
 5825.00000 1082309.12500 672563.75000
 5828.00000 866213.80000 1922104.71429
 5831.00000 866572.30000 791952.88235
 5834.00000 963208.11111 748470.00000
 5837.00000 1734117.60000 898693.00000
 5840.00000 963741.66667 1498352.66667
 5843.00000 1084554.87500 1124285.00000
 5846.00000 1446418.66667 1686943.00000
 5849.00000 1446761.16667 1038643.76923
 5852.00000 1736453.40000 1350771.40000
 5855.00000 789639.00000 2702081.80000
 5858.00000 620778.14286 844930.06250
 5861.00000 1241908.28571 2253665.33333
 5864.00000 966277.66667 1502968.55556
 5867.00000 1242700.00000 902297.13333
 5870.00000 1740119.00000 1230905.18182
 5873.00000 791304.18182 846731.81250
 5876.00000 580637.73333 616290.45455
 5879.00000 544704.37500 847903.87500
 5882.00000 726637.00000 904949.80000
 5885.00000 872327.90000 754659.33333
 5888.00000 969608.22222 715492.42105
 5891.00000 969959.22222 1699854.00000
 5894.00000 323682.74074 1133786.50000
 5897.00000 194594.64444 1701218.25000
 5900.00000 265761.33333 2268822.50000
 5903.00000 438927.70000 1134946.75000
 5906.00000 462447.15789 908503.40000
 5909.00000 976676.33333 1363311.60000
 5912.00000 -9999.00000 1239929.18182
 5915.00000 1465379.00000 974772.57143
 5918.00000 338540.88462 2729896.20000
 5921.00000 205100.13953 1137994.25000
 5924.00000 145017.78689 1707536.87500
 5927.00000 134511.09091 1366572.00000
 5930.00000 197783.93333 2733681.00000
 5933.00000 254753.62857 651422.42857
 5936.00000 229029.64103 570559.12500
 5939.00000 525795.94118 806079.23529
 5942.00000 331433.70370 721808.78947
 5945.00000 447835.00000 857709.43750
 5948.00000 995592.88889 1715966.37500
 5951.00000 995991.88889 1056531.30769
 5954.00000 815304.45455 1717422.87500
 5957.00000 498656.11111 859261.93750
 5960.00000 449220.00000 859892.43750
 5963.00000 561970.50000 1965993.42857
 5966.00000 642697.50000 1059143.84615
 5969.00000 750244.25000 918469.66667
 5972.00000 1000742.66667 1531333.77778
 5975.00000 1501533.66667 531054.03846
 5978.00000 563520.81250 2301766.66667
 5981.00000 301016.93333 1726858.50000
 5984.00000 301510.43333 1256438.09091
 5987.00000 532575.23529 2304016.33333
 5990.00000 696927.84615 2765365.60000
 5993.00000 604451.13333 1975808.14286
 5996.00000 245504.75676 814104.05882
 5999.00000 162696.75000 989069.42857
 6002.00000 240284.28947 1154426.83333
 6005.00000 537640.05882 1154950.33333
 6008.00000 415962.36364 1155485.83333
 6011.00000 508886.94444 1261076.00000
 6014.00000 278066.69697 1734534.00000
 6017.00000 180440.09804 991703.78571
 6020.00000 192276.35417 1388913.80000
 6023.00000 231314.67500 1389443.30000
 6026.00000 578881.18750 1263669.27273
 6029.00000 441634.33333 1158915.00000
 6032.00000 927996.80000 1545782.00000
 6035.00000 663403.35714 1988002.00000
 6038.00000 844870.54545 928294.26667
 6041.00000 465207.30000 1741104.25000
 6044.00000 372673.84000 1393443.90000
 6047.00000 423980.50000 2787454.80000
 6050.00000 444636.04762 1991606.14286
 6053.00000 346272.03704 1267960.72727
 6056.00000 668236.85714 1395341.30000
 6059.00000 334553.92857 332799.61905
 6062.00000 312703.83333 1553619.88889
 6065.00000 323961.72414 1076147.00000
 6068.00000 854564.90909 1399565.60000
 6071.00000 671919.35714 1750041.50000
 6074.00000 941151.60000 2000629.42857
 6077.00000 941614.10000 3501678.00000
 6080.00000 448861.66667 2801919.40000
 6083.00000 554953.17647 1274182.72727
 6086.00000 262513.69444 1752592.75000
 6089.00000 556330.23529 2003553.14286
 6092.00000 450779.57143 1753692.50000
 6095.00000 231326.09756 1754267.00000
 6098.00000 176114.42593 2005447.57143
 6101.00000 98567.02062 1276830.36364
 6104.00000 139148.66667 1405096.90000
 6107.00000 185229.36538 1277952.81818
 6110.00000 74580.30000 1406348.60000
 6113.00000 606381.43750 670277.80952
 6116.00000 334981.27586 640372.13636
 6119.00000 313823.58065 704948.85000
 6122.00000 374657.76923 1410422.20000
 6125.00000 295693.90909 784101.38889
