~Version ---------------------------------------------------
VERS.   2.0 : CWLS log ASCII Standard -VERSION 2.0
WRAP.    NO : One line per depth step
DLM . SPACE : Column Data Section Delimiter
~Well ------------------------------------------------------
STRT..M  1061.00000 : START DEPTH
STOP..M 31307.00000 : STOP DEPTH
STEP..M     3.00000 : STEP
NULL.      -9999.25 : NULL VALUE
COMP.               : COMPANY
WELL.               : WELL
FLD .               : FIELD
LOC .               : LOCATION
PROV.               : PROVINCE
CNTY.               : COUNTY
STAT.               : STATE
CTRY.               : COUNTRY
SRVC.               : SERVICE COMPANY
DATE.               : DATE
UWI .               : UNIQUE WELL ID
API .               : API NUMBER
~Curve Information -----------------------------------------
DEPTH..M       : Depth
ГК   .имп/мин  : описание 1
НГК  .усл. ед  : описание 2
~Params ----------------------------------------------------
..M    0.0 : Start depth
..M 1920.0 : Stop depth
..M    0.2 : Step
..   -9999 : Null value
~Other -----------------------------------------------------
~ASCII -----------------------------------------------------
# ...
 23294.00000  590.00000  729.00000
 23297.00000  598.00000  706.00000
 23300.00000  576.00000  704.00000
 23303.00000  541.00000  720.00000
 23306.00000  508.00000  744.00000
 23309.00000  482.00000  772.00000
 23312.00000  465.00000  798.00000
 23315.00000  462.00000  829.00000
 23318.00000  470.00000  836.00000
 23321.00000  490.00000  819.00000
 23324.00000  519.00000  794.00000
 23327.00000  510.00000  740.00000
 23330.00000  482.00000  710.00000
 23333.00000  474.00000  729.00000
 23336.00000  458.00000  768.00000
 23339.00000  441.00000  811.00000
 23342.00000  420.00000  846.00000
 23345.00000  417.00000  863.00000
 23348.00000  431.00000  860.00000
 23351.00000  460.00000  777.00000
 23354.00000  476.00000  658.00000
 23357.00000  498.00000  602.00000
 23360.00000  486.00000  599.00000
 23363.00000  447.00000  608.00000
 23366.00000  430.00000  618.00000
 23369.00000  385.00000  614.00000
 23372.00000  354.00000  626.00000
 23375.00000  351.00000  657.00000
 23378.00000  355.00000  700.00000
 23381.00000  385.00000  759.00000
 23384.00000  348.00000  811.00000
 23387.00000  361.00000  815.00000
 23390.00000  378.00000  780.00000
 23393.00000  380.00000  733.00000
 23396.00000  380.00000  716.00000
 23399.00000  382.00000  728.00000
 23402.00000  388.00000  757.00000
 23405.00000  396.00000  784.00000
 23408.00000  392.00000  837.00000
 23411.00000  377.00000  876.00000
 23414.00000  364.00000  919.00000
 23417.00000  364.00000  953.00000
 23420.00000  358.00000  962.00000
 23423.00000  348.00000  946.00000
 23426.00000  342.00000  924.00000
 23429.00000  348.00000  938.00000
 23432.00000  355.00000  959.00000
 23435.00000  358.00000  928.00000
 23438.00000  351.00000  859.00000
 23441.00000  350.00000  815.00000
 23444.00000  358.00000  779.00000
 23447.00000  387.00000  753.00000
 23450.00000  395.00000  745.00000
 23453.00000  410.00000  808.00000
 23456.00000  401.00000  861.00000
 23459.00000  374.00000  918.00000
 23462.00000  355.00000  974.00000
 23465.00000  354.00000 1028.00000
 23468.00000  360.00000 1073.00000
 23471.00000  357.00000 1112.00000
 23474.00000  344.00000 1134.00000
 23477.00000  350.00000 1151.00000
 23480.00000  370.00000 1180.00000
 23483.00000  396.00000 1206.00000
 23486.00000  406.00000 1088.00000
 23489.00000  386.00000 1012.00000
 23492.00000  358.00000  978.00000
 23495.00000  357.00000 1010.00000
 23498.00000  378.00000 1045.00000
 23501.00000  399.00000 1075.00000
 23504.00000  404.00000 1081.00000
 23507.00000  398.00000  994.00000
 23510.00000  384.00000  918.00000
 23513.00000  368.00000  930.00000
 23516.00000  360.00000  957.00000
 23519.00000  353.00000  987.00000
 23522.00000  358.00000 1018.00000
 23525.00000  373.00000 1053.00000
 23528.00000  394.00000 1086.00000
 23531.00000  391.00000 1120.00000
 23534.00000  366.00000 1064.00000
 23537.00000  350.00000 1015.00000
 23540.00000  356.00000 1065.00000
 23543.00000  373.00000 1108.00000
 23546.00000  402.00000 1141.00000
 23549.00000  427.00000 1094.00000
 23552.00000  464.00000 1094.00000
 23555.00000  486.00000 1007.00000
 23558.00000  482.00000  956.00000
 23561.00000  458.00000  883.00000
 23564.00000  405.00000  864.00000
 23567.00000  381.00000  874.00000
 23570.00000  382.00000  910.00000
 23573.00000  394.00000  949.00000
 23576.00000  385.00000  966.00000
 23579.00000  360.00000  964.00000
 23582.00000  338.00000  970.00000
 23585.00000  335.00000  996.00000
 23588.00000  336.00000 1034.00000
 23591.00000  328.00000 1060.00000
 23594.00000  389.00000 1040.00000
 23597.00000  313.00000 1024.00000
 23600.00000  316.00000 1042.00000
 23603.00000  326.00000 1072.00000
 23606.00000  328.00000 1109.00000
 23609.00000  325.00000 1104.00000
 23612.00000  324.00000 1063.00000
 23615.00000  334.00000 1095.00000
 23618.00000  352.00000 1014.00000
 23621.00000  366.00000 1124.00000
 23624.00000  368.00000 1089.00000
 23627.00000  412.00000 1114.00000
 23630.00000  353.00000 1085.00000
 23633.00000  364.00000 1045.00000
 23636.00000  390.00000 1063.00000
 23639.00000  420.00000 1070.00000
 23642.00000  470.00000 1070.00000
 23645.00000  526.00000 1056.00000
 23648.00000  597.00000  873.00000
 23651.00000  636.00000  871.00000
 23654.00000  620.00000  696.00000
 23657.00000  560.00000  670.00000
 23660.00000  525.00000  668.00000
 23663.00000  486.00000  680.00000
 23666.00000  409.00000  698.00000
 23669.00000  363.00000  736.00000
 23672.00000  350.00000  811.00000
 23675.00000  338.00000  887.00000
 23678.00000  336.00000  974.00000
 23681.00000  350.00000 1029.00000
 23684.00000  373.00000 1079.00000
 23687.00000  414.00000 1122.00000
 23690.00000  444.00000 1001.00000
 23693.00000  392.00000 1007.00000
 23696.00000  353.00000  873.00000
 23699.00000  350.00000  936.00000
 23702.00000  343.00000 1036.00000
 23705.00000  334.00000 1090.00000
 23708.00000  328.00000 1092.00000
 23711.00000  335.00000 1063.00000
 23714.00000  354.00000 1060.00000
 23717.00000  386.00000 1073.00000
 23720.00000  418.00000  950.00000
 23723.00000  447.00000  923.00000
 23726.00000  446.00000  752.00000
 23729.00000  437.00000  729.00000
 23732.00000  436.00000  750.00000
 23735.00000  422.00000  806.00000
 23738.00000  346.00000  842.00000
 23741.00000  376.00000  901.00000
 23744.00000  403.00000  982.00000
 23747.00000  385.00000 1068.00000
 23750.00000  344.00000 1149.00000
 23753.00000  361.00000 1217.00000
 23756.00000  388.00000 1264.00000
 23759.00000  418.00000 1186.00000
 23762.00000  452.00000 1029.00000
 23765.00000  451.00000  880.00000
 23768.00000  360.00000  826.00000
 23771.00000  323.00000  870.00000
 23774.00000  315.00000  944.00000
 23777.00000  326.00000 1058.00000
 23780.00000  323.00000 1087.00000
 23783.00000  316.00000 1063.00000
 23786.00000  320.00000 1037.00000
 23789.00000  335.00000 1050.00000
 23792.00000  342.00000 1056.00000
 23795.00000  362.00000 1040.00000
 23798.00000  368.00000 1013.00000
 23801.00000  344.00000 1007.00000
 23804.00000  327.00000 1034.00000
 23807.00000  320.00000 1061.00000
 23810.00000  316.00000 1078.00000
 23813.00000  314.00000 1096.00000
 23816.00000  312.00000 1072.00000
 23819.00000  308.00000 1008.00000
 23822.00000  303.00000  969.00000
 23825.00000  304.00000  975.00000
 23828.00000  312.00000 1006.00000
 23831.00000  322.00000 1018.00000
 23834.00000  334.00000 1016.00000
 23837.00000  338.00000 1028.00000
 23840.00000  327.00000 1050.00000
 23843.00000  312.00000 1045.00000
 23846.00000  307.00000 1010.00000
 23849.00000  308.00000  976.00000
 23852.00000  306.00000  973.00000
 23855.00000  296.00000  986.00000
 23858.00000  292.00000 1012.00000
 23861.00000  298.00000 1038.00000
 23864.00000  308.00000 1042.00000
 23867.00000  322.00000  997.00000
 23870.00000  325.00000  951.00000
 23873.00000  319.00000  961.00000
 23876.00000  310.00000  992.00000
 23879.00000  310.00000 1022.00000
 23882.00000  322.00000 1006.00000
 23885.00000  334.00000  953.00000
 23888.00000  344.00000  926.00000
 23891.00000  336.00000  931.00000
 23894.00000  320.00000  908.00000
 23897.00000  306.00000  868.00000
 23900.00000  302.00000  859.00000
 23903.00000  305.00000  871.00000
 23906.00000  311.00000  878.00000
 23909.00000  314.00000  872.00000
 23912.00000  314.00000  872.00000
 23915.00000  312.00000  884.00000
 23918.00000  308.00000  893.00000
 23921.00000  304.00000  934.00000
 23924.00000  300.00000  896.00000
 23927.00000  296.00000  910.00000
 23930.00000  296.00000  924.00000
 23933.00000  299.00000  921.00000
 23936.00000  304.00000  910.00000
 23939.00000  310.00000  909.00000
 23942.00000  316.00000  924.00000
 23945.00000  324.00000  941.00000
 23948.00000  322.00000  945.00000
 23951.00000  318.00000  944.00000
 23954.00000  311.00000  952.00000
 23957.00000  305.00000  966.00000
 23960.00000  298.00000  980.00000
 23963.00000  294.00000  994.00000
 23966.00000  292.00000  985.00000
 23969.00000  292.00000  966.00000
 23972.00000  292.00000  978.00000
 23975.00000  292.00000  988.00000
 23978.00000  294.00000  972.00000
