~Version ---------------------------------------------------
VERS.   2.0 : CWLS log ASCII Standard -VERSION 2.0
WRAP.    NO : One line per depth step
DLM . SPACE : Column Data Section Delimiter
~Well ------------------------------------------------------
STRT..M  1061.00000 : START DEPTH
STOP..M 31307.00000 : STOP DEPTH
STEP..M     3.00000 : STEP
NULL.      -9999.25 : NULL VALUE
COMP.               : COMPANY
WELL.               : WELL
FLD .               : FIELD
LOC .               : LOCATION
PROV.               : PROVINCE
CNTY.               : COUNTY
STAT.               : STATE
CTRY.               : COUNTRY
SRVC.               : SERVICE COMPANY
DATE.               : DATE
UWI .               : UNIQUE WELL ID
API .               : API NUMBER
~Curve Information -----------------------------------------
DEPTH..M       : Depth
ГК   .имп/мин  : описание 1
НГК  .усл. ед  : описание 2
~Params ----------------------------------------------------
..M    0.0 : Start depth
..M 1920.0 : Stop depth
..M    0.2 : Step
..   -9999 : Null value
~Other -----------------------------------------------------
~ASCII -----------------------------------------------------
# ...
 7367.00000 1362193.44444 953835.00000
 7370.00000 3065306.75000 954504.50000
 7373.00000 -9999.00000 709735.48571
 7376.00000 -9999.00000 654409.23684
 7379.00000 -9999.00000 592817.04762
 7382.00000 -9999.00000 803932.48387
 7385.00000 2452631.40000 623837.17500
 7388.00000 1752263.57143 1040527.12500
 7391.00000 1363248.66667 4162965.00000
 7394.00000 1534023.25000 1784916.35714
 7397.00000 4091089.66667 1190721.23810
 7400.00000 -9999.00000 610623.39024
 7403.00000 -9999.00000 626619.47500
 7406.00000 12273640.00000 716899.54286
 7409.00000 -9999.00000 1091717.08696
 7412.00000 -9999.00000 966463.96154
 7415.00000 -9999.00000 718624.22857
 7418.00000 -9999.00000 277112.63736
 7421.00000 -9999.00000 351038.09722
 7424.00000 6137160.50000 288075.34091
 7427.00000 3068911.75000 1208069.85714
 7430.00000 -9999.00000 705503.55556
 7433.00000 3069241.25000 1210276.66667
 7436.00000 -9999.00000 255010.65000
 7439.00000 6138796.00000 1063469.87500
 7442.00000 1754270.42857 623437.95122
 7445.00000 1023674.91667 400240.43750
 7448.00000 534464.21739 256915.47000
 7451.00000 723489.64706 734740.20000
 7454.00000 6150066.50000 757006.38235
 7457.00000 1118620.90909 1170628.22727
 7460.00000 946954.38462 954558.92593
 7463.00000 6155590.00000 1289343.05000
 7466.00000 12311549.00000 2344938.09091
 7469.00000 -9999.00000 549498.72340
 7472.00000 -9999.00000 284567.09890
 7475.00000 -9999.00000 185824.72143
 7478.00000 -9999.00000 283730.86957
 7481.00000 -9999.00000 323312.22222
 7484.00000 4104146.66667 430435.16393
 7487.00000 3078408.50000 584634.71111
 7490.00000 821217.93333 280995.94681
 7493.00000 880201.85714 362856.39726
 7496.00000 1232630.30000 379342.88571
 7499.00000 649145.57895 443425.35000
 7502.00000 1370819.44444 522466.17647
 7505.00000 881664.57143 592864.33333
 7508.00000 650089.57895 545154.38776
 7511.00000 772421.87500 891065.33333
 7514.00000 -9999.00000 2056930.61538
 7517.00000 -9999.00000 891852.56667
 7520.00000 -9999.00000 2973472.88889
 7523.00000 4120204.33333 515272.30769
 7526.00000 -9999.00000 609611.36364
 7529.00000 -9999.00000 2235848.16667
 7532.00000 -9999.00000 925792.41379
 7535.00000 -9999.00000 625007.62791
 7538.00000 -9999.00000 384614.75714
 7541.00000 -9999.00000 528624.27451
 7544.00000 -9999.00000 325588.16867
 7547.00000 -9999.00000 693695.17949
 7550.00000 687080.83333 1082840.44000
 7553.00000 -9999.00000 694686.74359
 7556.00000 476223.84615 1290809.61905
 7559.00000 1548305.00000 904243.03333
 7562.00000 6193826.50000 631553.81395
 7565.00000 -9999.00000 477094.75439
 7568.00000 -9999.00000 446480.73770
 7571.00000 1377064.44444 664958.43902
 7574.00000 1127360.45455 757982.38889
 7577.00000 1772193.14286 1137602.08333
 7580.00000 345212.16667 1437580.10526
 7583.00000 565525.13636 1188180.00000
 7586.00000 889214.85714 1367000.50000
 7589.00000 778594.50000 882538.77419
 7592.00000 -9999.00000 1954816.50000
 7595.00000 1246340.50000 4561859.83333
 7598.00000 -9999.00000 1955596.00000
 7601.00000 -9999.00000 1053531.19231
 7604.00000 -9999.00000 1712572.93750
 7607.00000 -9999.00000 3425741.25000
 7610.00000 -9999.00000 1142494.58333
 7613.00000 890785.71429 3428102.25000
 7616.00000 1247627.50000 3428718.75000
 7619.00000 -9999.00000 2743583.80000
 7622.00000 12476796.00000 1098018.84000
 7625.00000 227400.83636 584689.57447
 7628.00000 321285.48718 687684.75000
 7631.00000 291987.44186 332139.54217
 7634.00000 126063.29000 290973.23158
 7637.00000 293595.27907 169445.47561
 7640.00000 -9999.00000 276089.07921
 7643.00000 -9999.00000 139804.51244
 7646.00000 -9999.00000 670038.02381
 7649.00000 6312596.00000 971524.20690
 7652.00000 1803891.85714 2013704.50000
 7655.00000 2104833.00000 806720.80000
 7658.00000 3157566.00000 367663.46753
 7661.00000 12630596.00000 354994.58750
 7664.00000 -9999.00000 384805.72973
 7667.00000 -9999.00000 356851.37500
 7670.00000 3158044.75000 608295.59574
 7673.00000 1148819.90909 841663.11765
 7676.00000 632293.45000 1363510.66667
 7679.00000 702973.77778 623308.76087
 7682.00000 843974.53333 416436.17391
 7685.00000 1151264.36364 394582.49315
 7688.00000 3166355.50000 375067.07792
 7691.00000 2533443.40000 903589.65625
 7694.00000 1407826.55556 579372.88000
 7697.00000 1408192.44444 935506.38710
 7700.00000 1056525.83333 907272.31250
 7703.00000 2536050.00000 692214.59524
 7706.00000 1811849.28571 1939126.26667
 7709.00000 1057297.58333 1940053.26667
 7712.00000 -9999.00000 1617656.50000
 7715.00000 -9999.00000 486216.36667
 7718.00000 -9999.00000 789325.16216
 7721.00000 -9999.00000 457122.00000
 7724.00000 195812.40000 574430.17647
 7727.00000 -9999.00000 1047059.03571
 7730.00000 -9999.00000 946536.74194
 7733.00000 471786.51852 474126.87097
 7736.00000 472129.51852 433212.64706
 7739.00000 12747812.00000 719474.97561
 7742.00000 2124935.83333 687030.02326
 7745.00000 708618.44444 469993.98413
 7748.00000 554894.95652 486520.26230
 7751.00000 425767.96667 900457.30303
 7754.00000 473451.51852 201766.10811
 7757.00000 852606.80000 348082.45349
 7760.00000 1066161.00000 1576314.10526
 7763.00000 1163486.72727 1362110.63636
 7766.00000 -9999.00000 1665597.11111
 7769.00000 1600176.12500 297616.08911
 7772.00000 2133972.33333 626931.39583
 7775.00000 474658.62963 971376.96774
 7778.00000 513106.32000 1076079.82143
 7781.00000 493864.96154 1674515.44444
 7784.00000 584154.09091 2740724.18182
 7787.00000 857225.53333 1370980.59091
 7790.00000 714798.11111 1207095.92000
 7793.00000 459938.57143 816261.35135
 7796.00000 678200.21053 604727.98000
 7799.00000 805738.25000 550489.56364
 7802.00000 992028.84615 374546.91358
 7805.00000 -9999.00000 289792.02857
 7808.00000 -9999.00000 293549.99038
 7811.00000 2149696.33333 210198.60274
 7814.00000 3224830.00000 394629.34615
 7817.00000 3225117.50000 514005.96667
 7820.00000 -9999.00000 351546.23864
 7823.00000 -9999.00000 720416.90698
 7826.00000 2580418.00000 969024.71875
 7829.00000 992797.46154 575153.37037
 7832.00000 478356.59259 863592.66667
 7835.00000 239555.79630 676672.63043
 7838.00000 170646.19737 1074106.79310
 7841.00000 333041.30769 1298625.54167
 7844.00000 565206.65217 1247401.52000
 7847.00000 -9999.00000 1076039.13793
 7850.00000 867061.20000 1248893.40000
 7853.00000 482116.66667 3122934.00000
 7856.00000 3254719.25000 1358408.78261
 7859.00000 2604237.40000 651566.89583
 7862.00000 -9999.00000 626253.72000
 7865.00000 -9999.00000 151352.66346
 7868.00000 -9999.00000 297950.58491
 7871.00000 -9999.00000 518718.78689
 7874.00000 -9999.00000 633932.88000
 7877.00000 6510896.00000 661498.25000
 7880.00000 1860561.00000 1096050.65517
 7883.00000 1628298.37500 1674063.42105
 7886.00000 2605587.40000 1097963.17241
 7889.00000 2605896.40000 1099139.17241
 7892.00000 2606202.40000 1450008.77273
 7895.00000 2172137.83333 743011.95349
 7898.00000 3258506.25000 761889.92857
 7901.00000 6517311.00000 1067835.13333
 7904.00000 4345175.00000 802055.75000
 7907.00000 1862524.85714 2469066.84615
 7910.00000 2607846.80000 1529642.57143
 7913.00000 2608156.80000 869378.45946
 7916.00000 2608465.80000 847657.57895
 7919.00000 1630625.62500 1007712.87500
 7922.00000 725062.00000 1344722.66667
 7925.00000 -9999.00000 979108.12121
 7928.00000 -9999.00000 1155103.35714
 7931.00000 2175467.50000 1044469.83871
 7934.00000 -9999.00000 1905819.47059
 7937.00000 -9999.00000 831922.82051
 7940.00000 -9999.00000 613304.62264
 7943.00000 -9999.00000 210730.49032
 7946.00000 621912.14286 436382.34667
 7949.00000 1088717.75000 862097.44737
 7952.00000 653629.15000 886176.37838
 7955.00000 304430.55814 1058442.38710
 7958.00000 397132.24242 1313190.64000
 7961.00000 215337.00000 1642189.80000
 7964.00000 156928.19048 1729305.84211
 7967.00000 197355.77612 1933424.58824
 7970.00000 401370.03030 1644065.60000
 7973.00000 349231.68421 1934837.82353
 7976.00000 699079.42105 2530804.53846
 7979.00000 1328833.00000 1316654.36000
 7982.00000 3322626.00000 1097860.40000
 7985.00000 380285.20000 1029924.12500
 7988.00000 13310569.00000 423226.52564
 7991.00000 701223.26316 486215.14706
