~Version ---------------------------------------------------
VERS.   2.0 : CWLS log ASCII Standard -VERSION 2.0
WRAP.    NO : One line per depth step
DLM . SPACE : Column Data Section Delimiter
~Well ------------------------------------------------------
STRT..M  1061.00000 : START DEPTH
STOP..M 31307.00000 : STOP DEPTH
STEP..M     3.00000 : STEP
NULL.      -9999.25 : NULL VALUE
COMP.               : COMPANY
WELL.               : WELL
FLD .               : FIELD
LOC .               : LOCATION
PROV.               : PROVINCE
CNTY.               : COUNTY
STAT.               : STATE
CTRY.               : COUNTRY
SRVC.               : SERVICE COMPANY
DATE.               : DATE
UWI .               : UNIQUE WELL ID
API .               : API NUMBER
~Curve Information -----------------------------------------
DEPTH..M       : Depth
ГК   .имп/мин  : описание 1
НГК  .усл. ед  : описание 2
~Params ----------------------------------------------------
..M    0.0 : Start depth
..M 1920.0 : Stop depth
..M    0.2 : Step
..   -9999 : Null value
~Other -----------------------------------------------------
~ASCII -----------------------------------------------------
# ...
 5303.00000  463.00000  497.00000
 5306.00000  456.00000  488.00000
 5309.00000  465.00000  483.00000
 5312.00000  492.00000  488.00000
 5315.00000  506.00000  498.00000
 5318.00000  490.00000  503.00000
 5321.00000  462.00000  494.00000
 5324.00000  447.00000  484.00000
 5327.00000  450.00000  480.00000
 5330.00000  469.00000  489.00000
 5333.00000  478.00000  504.00000
 5336.00000  471.00000  504.00000
 5339.00000  451.00000  494.00000
 5342.00000  444.00000  484.00000
 5345.00000  452.00000  768.00000
 5348.00000  467.00000  498.00000
 5351.00000  473.00000  505.00000
 5354.00000  458.00000  498.00000
 5357.00000  424.00000  491.00000
 5360.00000  398.00000  502.00000
 5363.00000  378.00000  522.00000
 5366.00000  370.00000  532.00000
 5369.00000  382.00000  537.00000
 5372.00000  406.00000  546.00000
 5375.00000  412.00000  536.00000
 5378.00000  399.00000  550.00000
 5381.00000  386.00000  570.00000
 5384.00000  373.00000  589.00000
 5387.00000  363.00000  598.00000
 5390.00000  372.00000  586.00000
 5393.00000  398.00000  574.00000
 5396.00000  409.00000  575.00000
 5399.00000  402.00000  586.00000
 5402.00000  389.00000  593.00000
 5405.00000  376.00000  586.00000
 5408.00000  371.00000  565.00000
 5411.00000  368.00000  554.00000
 5414.00000  360.00000  539.00000
 5417.00000  356.00000  520.00000
 5420.00000  366.00000  506.00000
 5423.00000  380.00000  512.00000
 5426.00000  402.00000  518.00000
 5429.00000  422.00000  498.00000
 5432.00000  445.00000  498.00000
 5435.00000  462.00000  512.00000
 5438.00000  476.00000  525.00000
 5441.00000  467.00000  532.00000
 5444.00000  442.00000  518.00000
 5447.00000  422.00000  506.00000
 5450.00000  413.00000  515.00000
 5453.00000  417.00000  536.00000
 5456.00000  408.00000  553.00000
 5459.00000  390.00000  535.00000
 5462.00000  386.00000  517.00000
 5465.00000  399.00000  534.00000
 5468.00000  403.00000  493.00000
 5471.00000  394.00000  503.00000
 5474.00000  378.00000  520.00000
 5477.00000  364.00000  528.00000
 5480.00000  354.00000  537.00000
 5483.00000  358.00000  548.00000
 5486.00000  370.00000  537.00000
 5489.00000  384.00000  546.00000
 5492.00000  397.00000  542.00000
 5495.00000  408.00000  526.00000
 5498.00000  423.00000  504.00000
 5501.00000  436.00000  587.00000
 5504.00000  453.00000  490.00000
 5507.00000  454.00000  500.00000
 5510.00000  460.00000  510.00000
 5513.00000  472.00000  510.00000
 5516.00000  472.00000  512.00000
 5519.00000  471.00000  524.00000
 5522.00000  480.00000  535.00000
 5525.00000  498.00000  526.00000
 5528.00000  490.00000  511.00000
 5531.00000  405.00000  520.00000
 5534.00000  386.00000  535.00000
 5537.00000  392.00000  553.00000
 5540.00000  406.00000  566.00000
 5543.00000  407.00000  580.00000
 5546.00000  395.00000  594.00000
 5549.00000  378.00000  805.00000
 5552.00000  378.00000  599.00000
 5555.00000  386.00000  602.00000
 5558.00000  390.00000  612.00000
 5561.00000  388.00000  625.00000
 5564.00000  380.00000  635.00000
 5567.00000  370.00000  630.00000
 5570.00000  364.00000  618.00000
 5573.00000  364.00000  602.00000
 5576.00000  378.00000  585.00000
 5579.00000  397.00000  588.00000
 5582.00000  412.00000  612.00000
 5585.00000  406.00000  635.00000
 5588.00000  377.00000  652.00000
 5591.00000  354.00000  666.00000
 5594.00000  334.00000  702.00000
 5597.00000  326.00000  730.00000
 5600.00000  330.00000  732.00000
 5603.00000  343.00000  682.00000
 5606.00000  358.00000  632.00000
 5609.00000  366.00000  600.00000
 5612.00000  362.00000  581.00000
 5615.00000  351.00000  584.00000
 5618.00000  340.00000  592.00000
 5621.00000  332.00000  594.00000
 5624.00000  334.00000  578.00000
 5627.00000  346.00000  556.00000
 5630.00000  360.00000  536.00000
 5633.00000  364.00000  518.00000
 5636.00000  358.00000  511.00000
 5639.00000  349.00000  513.00000
 5642.00000  340.00000  505.00000
 5645.00000  332.00000  494.00000
 5648.00000  335.00000  494.00000
 5651.00000  338.00000  502.00000
 5654.00000  336.00000  510.00000
 5657.00000  331.00000  522.00000
 5660.00000  329.00000  536.00000
 5663.00000  335.00000  546.00000
 5666.00000  348.00000  538.00000
 5669.00000  368.00000  514.00000
 5672.00000  384.00000  508.00000
 5675.00000  384.00000  520.00000
 5678.00000  368.00000  535.00000
 5681.00000  350.00000  536.00000
 5684.00000  338.00000  518.00000
 5687.00000  344.00000  496.00000
 5690.00000  358.00000  498.00000
 5693.00000  376.00000  512.00000
 5696.00000  385.00000  520.00000
 5699.00000  383.00000  511.00000
 5702.00000  374.00000  496.00000
 5705.00000  361.00000  502.00000
 5708.00000  348.00000  512.00000
 5711.00000  349.00000  520.00000
 5714.00000  360.00000  524.00000
 5717.00000  374.00000  516.00000
 5720.00000  384.00000  513.00000
 5723.00000  380.00000  518.00000
 5726.00000  368.00000  524.00000
 5729.00000  357.00000  533.00000
 5732.00000  348.00000  542.00000
 5735.00000  346.00000  552.00000
 5738.00000  353.00000  570.00000
 5741.00000  363.00000  522.00000
 5744.00000  378.00000  505.00000
 5747.00000  392.00000  506.00000
 5750.00000  396.00000  519.00000
 5753.00000  388.00000  518.00000
 5756.00000  378.00000  508.00000
 5759.00000  390.00000  500.00000
 5762.00000  387.00000  496.00000
 5765.00000  376.00000  501.00000
 5768.00000  364.00000  508.00000
 5771.00000  352.00000  510.00000
 5774.00000  345.00000  512.00000
 5777.00000  350.00000  524.00000
 5780.00000  362.00000  538.00000
 5783.00000  368.00000  534.00000
 5786.00000  360.00000  577.00000
 5789.00000  364.00000  509.00000
 5792.00000  380.00000  506.00000
 5795.00000  396.00000  510.00000
 5798.00000  411.00000  516.00000
 5801.00000  416.00000  522.00000
 5804.00000  418.00000  524.00000
 5807.00000  426.00000  524.00000
 5810.00000  422.00000  517.00000
 5813.00000  406.00000  508.00000
 5816.00000  386.00000  515.00000
 5819.00000  370.00000  528.00000
 5822.00000  368.00000  530.00000
 5825.00000  370.00000  514.00000
 5828.00000  366.00000  494.00000
 5831.00000  358.00000  498.00000
 5834.00000  350.00000  514.00000
 5837.00000  343.00000  529.00000
 5840.00000  343.00000  531.00000
 5843.00000  346.00000  520.00000
 5846.00000  346.00000  516.00000
 5849.00000  342.00000  525.00000
 5852.00000  340.00000  534.00000
 5855.00000  342.00000  539.00000
 5858.00000  348.00000  530.00000
 5861.00000  352.00000  518.00000
 5864.00000  349.00000  525.00000
 5867.00000  343.00000  516.00000
 5870.00000  339.00000  500.00000
 5873.00000  341.00000  484.00000
 5876.00000  348.00000  486.00000
 5879.00000  356.00000  504.00000
 5882.00000  364.00000  519.00000
 5885.00000  364.00000  534.00000
 5888.00000  355.00000  552.00000
 5891.00000  351.00000  560.00000
 5894.00000  363.00000  550.00000
 5897.00000  385.00000  538.00000
 5900.00000  405.00000  532.00000
 5903.00000  422.00000  536.00000
 5906.00000  418.00000  546.00000
 5909.00000  399.00000  556.00000
 5912.00000 -9999.00000  555.00000
 5915.00000  364.00000  542.00000
 5918.00000  376.00000  533.00000
 5921.00000  401.00000  538.00000
 5924.00000  439.00000  546.00000
 5927.00000  480.00000  542.00000
 5930.00000  501.00000  537.00000
 5933.00000  460.00000  546.00000
 5936.00000  405.00000  564.00000
 5939.00000  375.00000  584.00000
 5942.00000  377.00000  580.00000
 5945.00000  400.00000  562.00000
 5948.00000  404.00000  548.00000
 5951.00000  399.00000  552.00000
 5954.00000  402.00000  560.00000
 5957.00000  414.00000  550.00000
 5960.00000  430.00000  630.00000
 5963.00000  446.00000  525.00000
 5966.00000  446.00000  532.00000
 5969.00000  430.00000  545.00000
 5972.00000  417.00000  551.00000
 5975.00000  420.00000  977.00000
 5978.00000  446.00000  532.00000
 5981.00000  472.00000  534.00000
 5984.00000  494.00000  541.00000
 5987.00000  498.00000  546.00000
 5990.00000  483.00000  546.00000
 5993.00000  447.00000  547.00000
 5996.00000  457.00000  536.00000
 5999.00000  488.00000  514.00000
 6002.00000  521.00000  512.00000
 6005.00000  534.00000  524.00000
 6008.00000  513.00000  536.00000
