~Version ---------------------------------------------------
VERS.   2.0 : CWLS log ASCII Standard -VERSION 2.0
WRAP.    NO : One line per depth step
DLM . SPACE : Column Data Section Delimiter
~Well ------------------------------------------------------
STRT..M  1061.00000 : START DEPTH
STOP..M 31307.00000 : STOP DEPTH
STEP..M     3.00000 : STEP
NULL.      -9999.25 : NULL VALUE
COMP.               : COMPANY
WELL.               : WELL
FLD .               : FIELD
LOC .               : LOCATION
PROV.               : PROVINCE
CNTY.               : COUNTY
STAT.               : STATE
CTRY.               : COUNTRY
SRVC.               : SERVICE COMPANY
DATE.               : DATE
UWI .               : UNIQUE WELL ID
API .               : API NUMBER
~Curve Information -----------------------------------------
DEPTH..M       : Depth
ГК   .имп/мин  : описание 1
НГК  .усл. ед  : описание 2
~Params ----------------------------------------------------
..M    0.0 : Start depth
..M 1920.0 : Stop depth
..M    0.2 : Step
..   -9999 : Null value
~Other -----------------------------------------------------
~ASCII -----------------------------------------------------
# ...
 8834.00000  464.00000  706.00000
 8837.00000  503.00000  687.00000
 8840.00000  537.00000  673.00000
 8843.00000  482.00000  684.00000
 8846.00000  492.00000  706.00000
 8849.00000  552.00000  720.00000
 8852.00000  664.00000  706.00000
 8855.00000  715.00000  686.00000
 8858.00000  753.00000  674.00000
 8861.00000  789.00000  677.00000
 8864.00000  820.00000  684.00000
 8867.00000  815.00000  676.00000
 8870.00000  709.00000  660.00000
 8873.00000  598.00000  656.00000
 8876.00000  592.00000  667.00000
 8879.00000  626.00000  682.00000
 8882.00000  666.00000  697.00000
 8885.00000  699.00000  716.00000
 8888.00000  754.00000  717.00000
 8891.00000  786.00000  694.00000
 8894.00000  828.00000  670.00000
 8897.00000  867.00000  660.00000
 8900.00000  892.00000  684.00000
 8903.00000  810.00000  708.00000
 8906.00000 -9999.00000  701.00000
 8909.00000  638.00000  672.00000
 8912.00000  580.00000  662.00000
 8915.00000  560.00000  669.00000
 8918.00000  585.00000  680.00000
 8921.00000  637.00000  685.00000
 8924.00000  720.00000  672.00000
 8927.00000  809.00000  654.00000
 8930.00000  874.00000  661.00000
 8933.00000  945.00000  685.00000
 8936.00000  947.00000  710.00000
 8939.00000  865.00000  735.00000
 8942.00000  791.00000  747.00000
 8945.00000  693.00000  730.00000
 8948.00000  643.00000  702.00000
 8951.00000  654.00000  684.00000
 8954.00000  671.00000  700.00000
 8957.00000  690.00000  736.00000
 8960.00000  636.00000  750.00000
 8963.00000  645.00000  734.00000
 8966.00000  784.00000  717.00000
 8969.00000  835.00000  697.00000
 8972.00000  881.00000  682.00000
 8975.00000  891.00000  690.00000
 8978.00000  899.00000  711.00000
 8981.00000  878.00000  717.00000
 8984.00000  711.00000  694.00000
 8987.00000  641.00000  666.00000
 8990.00000  674.00000  648.00000
 8993.00000  699.00000  665.00000
 8996.00000  743.00000  689.00000
 8999.00000  755.00000  700.00000
 9002.00000  749.00000  700.00000
 9005.00000  772.00000  709.00000
 9008.00000  777.00000  727.00000
 9011.00000  683.00000  738.00000
 9014.00000  626.00000  732.00000
 9017.00000  595.00000  722.00000
 9020.00000  571.00000  722.00000
 9023.00000  574.00000  728.00000
 9026.00000  585.00000  732.00000
 9029.00000  584.00000  718.00000
 9032.00000  583.00000  696.00000
 9035.00000  601.00000  682.00000
 9038.00000  616.00000  645.00000
 9041.00000  618.00000  630.00000
 9044.00000  580.00000  646.00000
 9047.00000  544.00000  662.00000
 9050.00000  512.00000  672.00000
 9053.00000  500.00000  668.00000
 9056.00000  506.00000  661.00000
 9059.00000  512.00000  664.00000
 9062.00000  514.00000  666.00000
 9065.00000  526.00000  656.00000
 9068.00000  513.00000  641.00000
 9071.00000  474.00000  639.00000
 9074.00000  449.00000  628.00000
 9077.00000  441.00000  606.00000
 9080.00000  460.00000  592.00000
 9083.00000  498.00000  588.00000
 9086.00000  548.00000  600.00000
 9089.00000  583.00000  614.00000
 9092.00000  597.00000  620.00000
 9095.00000  548.00000  621.00000
 9098.00000  508.00000  626.00000
 9101.00000  472.00000  624.00000
 9104.00000  446.00000  612.00000
 9107.00000  434.00000  596.00000
 9110.00000  430.00000  598.00000
 9113.00000  419.00000  614.00000
 9116.00000  402.00000  630.00000
 9119.00000  417.00000  632.00000
 9122.00000  459.00000  622.00000
 9125.00000  488.00000  610.00000
 9128.00000  512.00000  611.00000
 9131.00000  509.00000  628.00000
 9134.00000  480.00000  636.00000
 9137.00000  460.00000  628.00000
 9140.00000  446.00000  620.00000
 9143.00000  432.00000  610.00000
 9146.00000  426.00000  598.00000
 9149.00000  444.00000  590.00000
 9152.00000  475.00000  588.00000
 9155.00000  474.00000  592.00000
 9158.00000  437.00000  602.00000
 9161.00000  412.00000  606.00000
 9164.00000  416.00000  605.00000
 9167.00000  435.00000  617.00000
 9170.00000  441.00000  632.00000
 9173.00000  422.00000  618.00000
 9176.00000  396.00000  598.00000
 9179.00000  395.00000  586.00000
 9182.00000  439.00000  593.00000
 9185.00000  471.00000  604.00000
 9188.00000  498.00000  616.00000
 9191.00000  528.00000  626.00000
 9194.00000  555.00000  624.00000
 9197.00000  538.00000  616.00000
 9200.00000  468.00000  610.00000
 9203.00000  430.00000  614.00000
 9206.00000  410.00000  626.00000
 9209.00000  423.00000  643.00000
 9212.00000  452.00000  660.00000
 9215.00000  464.00000  678.00000
 9218.00000  452.00000  678.00000
 9221.00000  447.00000  670.00000
 9224.00000  446.00000  674.00000
 9227.00000  437.00000  693.00000
 9230.00000  426.00000  698.00000
 9233.00000  410.00000  687.00000
 9236.00000  393.00000  671.00000
 9239.00000  385.00000  664.00000
 9242.00000  402.00000  678.00000
 9245.00000  416.00000  680.00000
 9248.00000  416.00000  670.00000
 9251.00000  408.00000  657.00000
 9254.00000  413.00000  642.00000
 9257.00000  417.00000  634.00000
 9260.00000  396.00000  628.00000
 9263.00000  391.00000  634.00000
 9266.00000  408.00000  646.00000
 9269.00000  415.00000  665.00000
 9272.00000  418.00000  677.00000
 9275.00000  448.00000  689.00000
 9278.00000  480.00000  708.00000
 9281.00000  505.00000  702.00000
 9284.00000  519.00000  672.00000
 9287.00000  514.00000  646.00000
 9290.00000  502.00000  618.00000
 9293.00000  510.00000  630.00000
 9296.00000  517.00000  651.00000
 9299.00000  498.00000  663.00000
 9302.00000  474.00000  670.00000
 9305.00000  454.00000  682.00000
 9308.00000  464.00000  700.00000
 9311.00000  552.00000  710.00000
 9314.00000  572.00000  710.00000
 9317.00000  541.00000  716.00000
 9320.00000  539.00000  727.00000
 9323.00000  586.00000  730.00000
 9326.00000  560.00000  686.00000
 9329.00000  520.00000  653.00000
 9332.00000  491.00000  622.00000
 9335.00000  475.00000  592.00000
 9338.00000  471.00000  583.00000
 9341.00000  472.00000  590.00000
 9344.00000  454.00000  606.00000
 9347.00000  430.00000  628.00000
 9350.00000  406.00000  646.00000
 9353.00000  402.00000  662.00000
 9356.00000  406.00000  676.00000
 9359.00000  401.00000  684.00000
 9362.00000  388.00000  684.00000
 9365.00000  376.00000  698.00000
 9368.00000  367.00000  720.00000
 9371.00000  378.00000  734.00000
 9374.00000  384.00000  731.00000
 9377.00000  372.00000  742.00000
 9380.00000  354.00000  764.00000
 9383.00000  346.00000  784.00000
 9386.00000  344.00000  804.00000
 9389.00000  346.00000  820.00000
 9392.00000  352.00000  828.00000
 9395.00000  357.00000  836.00000
 9398.00000  367.00000  850.00000
 9401.00000  372.00000  832.00000
 9404.00000  370.00000  794.00000
 9407.00000  369.00000  774.00000
 9410.00000  374.00000  755.00000
 9413.00000  388.00000  716.00000
 9416.00000  401.00000  678.00000
 9419.00000  400.00000  638.00000
 9422.00000  394.00000  606.00000
 9425.00000  398.00000  635.00000
 9428.00000  416.00000  672.00000
 9431.00000  434.00000  702.00000
 9434.00000  431.00000  719.00000
 9437.00000  424.00000  733.00000
 9440.00000  430.00000  760.00000
 9443.00000  454.00000  776.00000
 9446.00000  481.00000  756.00000
 9449.00000  492.00000  722.00000
 9452.00000  470.00000  688.00000
 9455.00000  442.00000  659.00000
 9458.00000  442.00000  656.00000
 9461.00000  441.00000  693.00000
 9464.00000  426.00000  736.00000
 9467.00000  403.00000  776.00000
 9470.00000  385.00000  816.00000
 9473.00000  384.00000  854.00000
 9476.00000  392.00000  869.00000
 9479.00000  408.00000  846.00000
 9482.00000  414.00000  813.00000
 9485.00000  445.00000  772.00000
 9488.00000  425.00000  725.00000
 9491.00000  434.00000  687.00000
 9494.00000  422.00000  651.00000
 9497.00000  406.00000  646.00000
 9500.00000 -9999.00000  672.00000
 9503.00000 -9999.00000  700.00000
 9506.00000 -9999.00000  673.00000
 9509.00000 -9999.00000  621.00000
 9512.00000 -9999.00000  586.00000
 9515.00000  410.00000  582.00000
 9518.00000  427.00000  604.00000
 9521.00000  490.00000  624.00000
 9524.00000  518.00000  628.00000
 9527.00000  503.00000  609.00000
 9530.00000  487.00000  598.00000
 9533.00000  493.00000  612.00000
 9536.00000  537.00000  632.00000
 9539.00000  578.00000  654.00000
