~Version ---------------------------------------------------
VERS.   2.0 : CWLS log ASCII Standard -VERSION 2.0
WRAP.    NO : One line per depth step
DLM . SPACE : Column Data Section Delimiter
~Well ------------------------------------------------------
STRT..M  1061.00000 : START DEPTH
STOP..M 31307.00000 : STOP DEPTH
STEP..M     3.00000 : STEP
NULL.      -9999.25 : NULL VALUE
COMP.               : COMPANY
WELL.               : WELL
FLD .               : FIELD
LOC .               : LOCATION
PROV.               : PROVINCE
CNTY.               : COUNTY
STAT.               : STATE
CTRY.               : COUNTRY
SRVC.               : SERVICE COMPANY
DATE.               : DATE
UWI .               : UNIQUE WELL ID
API .               : API NUMBER
~Curve Information -----------------------------------------
DEPTH..M       : Depth
ГК   .имп/мин  : описание 1
НГК  .усл. ед  : описание 2
~Params ----------------------------------------------------
..M    0.0 : Start depth
..M 1920.0 : Stop depth
..M    0.2 : Step
..   -9999 : Null value
~Other -----------------------------------------------------
~ASCII -----------------------------------------------------
# ...
 25079.00000 16366991.57143 4680381.10256
 25082.00000 19095144.00000 5216201.65714
 25085.00000 16367589.28571 5370566.79412
 25088.00000 22914949.00000 5073176.47222
 25091.00000 16368142.71429 5074177.97222
 25094.00000 16368460.71429 5709479.71875
 25097.00000 19096851.00000 22838960.37500
 25100.00000 16369038.42857 9617449.36842
 25103.00000 14323212.12500 5711431.75000
 25106.00000 22917440.40000 18277657.10000
 25109.00000 22917743.40000 6528820.17857
 25112.00000 22918049.40000 6529928.67857
 25115.00000 19098683.00000 2315497.10127
 25118.00000 19098994.50000 3734216.44898
 25121.00000 22919107.40000 2288220.05000
 25124.00000 16371104.00000 7959995.95652
 25127.00000 14325024.50000 11443461.68750
 25130.00000 19100335.16667 4578374.17500
 25133.00000 22920704.20000 5088103.86111
 25136.00000 14325746.62500 9159617.45000
 25139.00000 12734310.00000 4580815.27500
 25142.00000 11461200.50000 3984284.13043
 25145.00000 11461531.00000 3160914.98276
 25148.00000 11461870.50000 3274808.75000
 25151.00000 8187387.85714 3987774.19565
 25154.00000 12736262.66667 4368649.69048
 25157.00000 12736588.66667 3463085.77358
 25160.00000 9552776.00000 6556286.14286
 25163.00000 8818291.07692 10199803.83333
 25166.00000 4776912.66667 11475925.87500
 25169.00000 14331048.50000 7984398.78261
 25172.00000 14331344.00000 7985564.78261
 25175.00000 22930441.40000 6123457.83333
 25178.00000 16379179.71429 3909771.10638
 25181.00000 10423411.36364 4712929.35897
 25184.00000 6744866.29412 4484121.36585
 25187.00000 4985654.95652 3912774.34043
 25190.00000 4410722.57692 3679147.38000
 25193.00000 3584069.59375 7359467.76000
 25196.00000 2341009.87755 1143878.49068
 25199.00000 4779970.33333 10232382.55556
 25202.00000 3701010.12903 1755090.75238
 25205.00000 3701357.32258 1562628.41525
 25208.00000 12749445.66667 7683768.54167
 25211.00000 12749765.66667 4853765.94737
 25214.00000 16392869.85714 4392400.02381
 25217.00000 19125325.33333 3237447.56140
 25220.00000 22950697.40000 6152109.86667
 25223.00000 14344641.62500 3619806.15686
 25226.00000 22951728.60000 8027423.69565
 25229.00000 22952029.60000 3847416.22917
 25232.00000 28690336.50000 5597174.78788
 25235.00000 38254081.00000 5598072.81818
 25238.00000 28690859.25000 4016912.26087
 25241.00000 16395076.71429 2567309.11111
 25244.00000 19127894.00000 2533141.41096
 25247.00000 14346322.25000 2126576.31034
 25250.00000 14346621.75000 3034109.83607
 25253.00000 19129123.50000 2128475.36782
 25256.00000 22955241.20000 1557106.63866
 25259.00000 22955534.20000 2896138.28125
 25262.00000 19129907.33333 1279143.62069
 25265.00000 19130204.83333 10304985.88889
 25268.00000 28695604.75000 20610755.77778
 25271.00000 22956780.80000 14269768.76923
 25274.00000 22957076.80000 4033563.00000
 25277.00000 10435334.90909 6185632.10000
 25280.00000 10435641.90909 2379956.88462
 25283.00000 12754986.44444 2411802.41558
 25286.00000 16399581.28571 15476702.66667
 25289.00000 19133154.33333 11608499.50000
 25292.00000 19133463.83333 5020876.35135
 25295.00000 14350409.37500 4645293.12500
 25298.00000 12756235.44444 3574232.73077
 25301.00000 12756557.44444 7745068.50000
 25304.00000 10437512.36364 2734485.82353
 25307.00000 12757293.55556 2906378.48438
 25310.00000 7654707.13333 3721158.96000
 25313.00000 7176609.43750 5169228.52778
 25316.00000 8202149.85714 3102499.61667
 25319.00000 12759199.77778 4899696.94737
 25322.00000 19139092.16667 3211158.70690
 25325.00000 16405223.14286 1172263.57862
 25328.00000 19139710.50000 4142792.20000
 25331.00000 16405750.14286 15536242.25000
 25334.00000 11484313.60000 6659177.92857
 25337.00000 11484609.10000 5040192.89189
 25340.00000 12760975.77778 5181046.75000
 25343.00000 10441094.36364 20725051.00000
 25346.00000 14356794.25000 6909204.33333
 25349.00000 16408048.85714 6910031.33333
 25352.00000 19143008.16667 12438862.53333
 25355.00000 14357543.62500 5831533.15625
 25358.00000 14357836.12500 5489358.29412
 25361.00000 12762820.00000 10369658.38889
 25364.00000 12763126.00000 3733927.52000
 25367.00000 14358827.25000 6224019.03333
 25370.00000 8836508.38462 5835793.46875
 25373.00000 12764144.44444 9829453.00000
 25376.00000 12764435.44444 10986589.23529
 25379.00000 28720265.25000 14367805.23077
 25382.00000 28720550.75000 4061211.19565
 25385.00000 22976829.80000 3013940.00000
 25388.00000 22977117.80000 7187915.11538
 25391.00000 16412521.00000 13349828.71429
 25394.00000 19148242.66667 6230754.56667
 25397.00000 19148550.16667 6446413.27586
 25400.00000 22978569.20000 8902965.76190
 25403.00000 19149114.16667 14382477.92308
 25406.00000 19149417.66667 6233186.60000
 25409.00000 22979602.20000 13357637.92857
 25412.00000 11490105.60000 6449314.86207
 25415.00000 7181629.50000 11002558.41176
 25418.00000 8207901.07143 11691020.81250
 25421.00000 7661030.66667 9353626.15000
 25424.00000 12768696.44444 8504088.00000
 25427.00000 19153349.16667 7796182.50000
 25430.00000 22984320.00000 8135914.95652
 25433.00000 19153903.50000 5058249.64865
 25436.00000 19154210.00000 4799671.17949
 25439.00000 16418204.28571 5200493.16667
 25442.00000 14366243.25000 3745237.58000
 25445.00000 14366562.75000 6041617.41935
 25448.00000 16419252.85714 5853728.37500
 25451.00000 22987281.00000 3406679.60000
 25454.00000 16419812.42857 2677487.77143
 25457.00000 11494190.20000 5857764.00000
 25460.00000 11494505.70000 9866459.78947
 25463.00000 11494812.20000 4261285.22727
 25466.00000 16421458.28571 5515407.91176
 25469.00000 14369073.50000 5860956.40625
 25472.00000 12772811.77778 8931843.19048
 25475.00000 16422488.57143 5070278.51351
 25478.00000 12773343.66667 5518466.88235
 25481.00000 14370302.12500 12509328.66667
 25484.00000 16423490.42857 11728313.12500
 25487.00000 12774117.88889 23457454.75000
 25490.00000 16424161.85714 8159934.69565
 25493.00000 22994122.60000 11730709.62500
 25496.00000 22994416.60000 15641736.66667
 25499.00000 22994711.60000 6473240.75862
 25502.00000 16425091.00000 6474062.75862
 25505.00000 16425392.00000 6954470.96296
 25508.00000 14372523.50000 9883541.21053
 25511.00000 12775886.44444 6058519.29032
 25514.00000 14373187.75000 9391544.45000
 25517.00000 14373504.25000 9886756.73684
 25520.00000 7187063.62500 12524067.93333
 25523.00000 8214085.50000 9393898.90000
 25526.00000 19166494.00000 8540762.59091
 25529.00000 23000089.80000 11053624.58824
 25532.00000 10454890.27273 11054513.58824
 25535.00000 9583960.91667 4584569.51220
 25538.00000 12778928.55556 1979575.72632
 25541.00000 8215333.00000 4478515.30952
 25544.00000 14377127.25000 6487095.37931
 25547.00000 23003690.60000 3421455.74545
 25550.00000 12780121.11111 3422382.10909
 25553.00000 8848079.15385 3086705.16393
 25556.00000 11502818.40000 2729818.02899
 25559.00000 10457422.63636 6728030.07143
 25562.00000 23006639.80000 7536396.68000
 25565.00000 12781781.55556 8972925.80952
 25568.00000 10458140.27273 6730742.85714
 25571.00000 7669615.86667 2945741.32812
 25574.00000 19174341.16667 1964781.25000
 25577.00000 28761805.25000 7545676.00000
 25580.00000 16435611.28571 6505829.10345
 25583.00000 14381459.37500 8576827.13636
 25586.00000 14381764.87500 9932045.00000
 25589.00000 12784103.00000 5242886.13889
 25592.00000 16437023.85714 7260321.69231
 25595.00000 14382715.37500 14521573.38462
 25598.00000 16437704.00000 3433278.89091
 25601.00000 10460863.45455 6295205.13333
 25604.00000 11507262.30000 11804362.12500
 25607.00000 10461467.54545 9444358.15000
 25610.00000 16439771.00000 10494617.77778
 25613.00000 10461989.45455 10495509.27778
 25616.00000 14385544.00000 4723855.82500
 25619.00000 14385845.50000 8998686.61905
 25622.00000 14386141.00000 7269033.46154
 25625.00000 14386438.50000 7000648.03704
 25628.00000 11509453.30000 5907637.28125
 25631.00000 12788590.44444 8593797.45455
 25634.00000 16442788.42857 11817363.00000
 25637.00000 16443108.42857 23635620.50000
 25640.00000 16443432.42857 14545892.23077
 25643.00000 19184330.00000 9953358.57895
 25646.00000 14388571.00000 7880666.70833
 25649.00000 9592699.16667 13510652.85714
