~Version ---------------------------------------------------
VERS.   2.0 : CWLS log ASCII Standard -VERSION 2.0
WRAP.    NO : One line per depth step
DLM . SPACE : Column Data Section Delimiter
~Well ------------------------------------------------------
STRT..M  1061.00000 : START DEPTH
STOP..M 31307.00000 : STOP DEPTH
STEP..M     3.00000 : STEP
NULL.      -9999.25 : NULL VALUE
COMP.               : COMPANY
WELL.               : WELL
FLD .               : FIELD
LOC .               : LOCATION
PROV.               : PROVINCE
CNTY.               : COUNTY
STAT.               : STATE
CTRY.               : COUNTRY
SRVC.               : SERVICE COMPANY
DATE.               : DATE
UWI .               : UNIQUE WELL ID
API .               : API NUMBER
~Curve Information -----------------------------------------
DEPTH..M       : Depth
ГК   .имп/мин  : описание 1
НГК  .усл. ед  : описание 2
~Params ----------------------------------------------------
..M    0.0 : Start depth
..M 1920.0 : Stop depth
..M    0.2 : Step
..   -9999 : Null value
~Other -----------------------------------------------------
~ASCII -----------------------------------------------------
 1061.00000 -9999.00000 -9999.00000
 1064.00000 -9999.00000 -9999.00000
 1067.00000 -9999.00000 -9999.00000
 1070.00000 -9999.00000 -9999.00000
 1073.00000 -9999.00000 -9999.00000
 1076.00000 -9999.00000 -9999.00000
 1079.00000 -9999.00000 -9999.00000
 1082.00000 -9999.00000 -9999.00000
 1085.00000 -9999.00000 -9999.00000
 1088.00000 -9999.00000 -9999.00000
 1091.00000 -9999.00000 -9999.00000
 1094.00000 -9999.00000 -9999.00000
 1097.00000 -9999.00000 1309.00000
 1100.00000 -9999.00000 -9999.00000
 1103.00000  460.00000 -9999.00000
 1106.00000  503.00000 -9999.00000
 1109.00000  388.00000 -9999.00000
 1112.00000  362.00000 -9999.00000
 1115.00000  354.00000 -9999.00000
 1118.00000  362.00000 -9999.00000
 1121.00000  380.00000 -9999.00000
 1124.00000  399.00000 -9999.00000
 1127.00000  404.00000 -9999.00000
 1130.00000  386.00000 -9999.00000
 1133.00000  382.00000 -9999.00000
 1136.00000  392.00000 -9999.00000
 1139.00000  408.00000 -9999.00000
 1142.00000  412.00000 -9999.00000
 1145.00000  412.00000 -9999.00000
 1148.00000  418.00000 -9999.00000
 1151.00000  432.00000 -9999.00000
 1154.00000  448.00000  751.00000
 1157.00000  454.00000  619.00000
 1160.00000  446.00000  513.00000
 1163.00000  436.00000  502.00000
 1166.00000  421.00000  507.00000
 1169.00000  411.00000  491.00000
 1172.00000  422.00000  484.00000
 1175.00000  442.00000  497.00000
 1178.00000  451.00000  500.00000
 1181.00000  440.00000  501.00000
 1184.00000  429.00000  509.00000
 1187.00000  434.00000  526.00000
 1190.00000  443.00000  516.00000
 1193.00000  448.00000  508.00000
 1196.00000  446.00000  530.00000
 1199.00000  437.00000  525.00000
 1202.00000  424.00000  507.00000
 1205.00000  422.00000  506.00000
 1208.00000  422.00000  522.00000
 1211.00000  414.00000  538.00000
 1214.00000  394.00000  514.00000
 1217.00000  386.00000  513.00000
 1220.00000  402.00000  530.00000
 1223.00000  408.00000  524.00000
 1226.00000  394.00000  510.00000
 1229.00000  396.00000  499.00000
 1232.00000  420.00000  511.00000
 1235.00000  424.00000  502.00000
 1238.00000  410.00000  488.00000
 1241.00000  412.00000  480.00000
 1244.00000  413.00000  516.00000
 1247.00000  404.00000  536.00000
 1250.00000  418.00000  521.00000
 1253.00000  414.00000  498.00000
 1256.00000  390.00000  478.00000
 1259.00000  376.00000  462.00000
 1262.00000  376.00000  481.00000
 1265.00000  386.00000  499.00000
 1268.00000  409.00000  489.00000
 1271.00000  422.00000  472.00000
 1274.00000  440.00000  480.00000
 1277.00000  447.00000  492.00000
 1280.00000  428.00000  494.00000
 1283.00000  414.00000  497.00000
 1286.00000  424.00000  507.00000
 1289.00000  420.00000  518.00000
 1292.00000  416.00000  520.00000
 1295.00000  432.00000  524.00000
 1298.00000  446.00000  515.00000
 1301.00000  441.00000  500.00000
 1304.00000  416.00000  492.00000
 1307.00000  401.00000  498.00000
 1310.00000  403.00000  510.00000
 1313.00000  415.00000  512.00000
 1316.00000  426.00000  518.00000
 1319.00000  419.00000  537.00000
 1322.00000  400.00000  534.00000
 1325.00000  400.00000  520.00000
 1328.00000  405.00000  525.00000
 1331.00000  384.00000  536.00000
 1334.00000  387.00000  538.00000
 1337.00000  396.00000  543.00000
 1340.00000  390.00000  558.00000
 1343.00000  386.00000  566.00000
 1346.00000  400.00000  548.00000
 1349.00000  412.00000  533.00000
 1352.00000  427.00000  509.00000
 1355.00000  413.00000  499.00000
 1358.00000  402.00000  520.00000
 1361.00000  389.00000  534.00000
 1364.00000  390.00000  546.00000
 1367.00000  401.00000  558.00000
 1370.00000  411.00000  560.00000
 1373.00000  410.00000  548.00000
 1376.00000  401.00000  535.00000
 1379.00000  398.00000  523.00000
 1382.00000  404.00000  515.00000
 1385.00000  414.00000  530.00000
 1388.00000  425.00000  532.00000
 1391.00000  435.00000  514.00000
 1394.00000  436.00000  506.00000
 1397.00000  427.00000  512.00000
 1400.00000  425.00000  522.00000
 1403.00000  438.00000  532.00000
 1406.00000  451.00000  528.00000
 1409.00000  435.00000  540.00000
 1412.00000  411.00000  611.00000
 1415.00000  402.00000  526.00000
 1418.00000  411.00000  522.00000
 1421.00000  430.00000  537.00000
 1424.00000  452.00000  534.00000
 1427.00000  466.00000  522.00000
 1430.00000  460.00000  514.00000
 1433.00000  448.00000  523.00000
 1436.00000  434.00000  536.00000
 1439.00000  421.00000  530.00000
 1442.00000  408.00000  521.00000
 1445.00000  404.00000  512.00000
 1448.00000  406.00000  503.00000
 1451.00000  408.00000  509.00000
 1454.00000  402.00000  522.00000
 1457.00000  396.00000  527.00000
 1460.00000  402.00000  519.00000
 1463.00000  412.00000  508.00000
 1466.00000  427.00000  500.00000
 1469.00000  432.00000  515.00000
 1472.00000  424.00000  512.00000
 1475.00000  410.00000  501.00000
 1478.00000  406.00000  492.00000
 1481.00000  414.00000  486.00000
 1484.00000  422.00000  496.00000
 1487.00000  414.00000  511.00000
 1490.00000  407.00000  518.00000
 1493.00000  404.00000  514.00000
 1496.00000  412.00000  511.00000
 1499.00000  428.00000  517.00000
 1502.00000  448.00000  530.00000
 1505.00000  464.00000  536.00000
 1508.00000  456.00000  520.00000
 1511.00000  428.00000  500.00000
 1514.00000  408.00000  494.00000
 1517.00000  408.00000  493.00000
 1520.00000  420.00000  501.00000
 1523.00000  435.00000  512.00000
 1526.00000  442.00000  522.00000
 1529.00000  435.00000  519.00000
 1532.00000  424.00000  518.00000
 1535.00000  422.00000  518.00000
 1538.00000  422.00000  610.00000
 1541.00000  414.00000  515.00000
 1544.00000  404.00000  532.00000
 1547.00000  397.00000  542.00000
 1550.00000  397.00000  538.00000
 1553.00000  406.00000  530.00000
 1556.00000  421.00000  534.00000
 1559.00000  433.00000  541.00000
 1562.00000  431.00000  539.00000
 1565.00000  424.00000  532.00000
 1568.00000  418.00000  526.00000
 1571.00000  423.00000  528.00000
 1574.00000  420.00000  529.00000
 1577.00000  417.00000  525.00000
 1580.00000  429.00000  519.00000
 1583.00000  452.00000  512.00000
 1586.00000  451.00000  504.00000
 1589.00000  447.00000  498.00000
 1592.00000  448.00000  507.00000
 1595.00000  440.00000  514.00000
 1598.00000  426.00000  504.00000
 1601.00000  418.00000  494.00000
 1604.00000  413.00000  500.00000
 1607.00000  416.00000  511.00000
 1610.00000  429.00000  524.00000
 1613.00000  433.00000  524.00000
 1616.00000  434.00000  514.00000
 1619.00000  443.00000  507.00000
 1622.00000  464.00000  500.00000
 1625.00000  480.00000  504.00000
 1628.00000  476.00000  517.00000
 1631.00000  468.00000  520.00000
 1634.00000  455.00000  510.00000
 1637.00000  444.00000  501.00000
 1640.00000  438.00000  500.00000
 1643.00000  442.00000  508.00000
 1646.00000  454.00000  521.00000
 1649.00000  465.00000  524.00000
 1652.00000  464.00000  530.00000
 1655.00000  448.00000  528.00000
 1658.00000  438.00000  514.00000
 1661.00000  423.00000  504.00000
 1664.00000  420.00000  505.00000
 1667.00000  432.00000  512.00000
 1670.00000  436.00000  522.00000
 1673.00000  428.00000  535.00000
 1676.00000  416.00000  532.00000
 1679.00000  404.00000  597.00000
 1682.00000  409.00000  528.00000
 1685.00000  427.00000  534.00000
 1688.00000  447.00000  525.00000
 1691.00000  448.00000  510.00000
 1694.00000  441.00000  508.00000
 1697.00000  435.00000  521.00000
 1700.00000  426.00000  520.00000
 1703.00000  424.00000  508.00000
 1706.00000  430.00000  496.00000
 1709.00000  432.00000  506.00000
 1712.00000  430.00000  512.00000
 1715.00000  427.00000  490.00000
 1718.00000  421.00000  474.00000
 1721.00000  416.00000  470.00000
 1724.00000  412.00000  477.00000
 1727.00000  410.00000  487.00000
 1730.00000  418.00000  498.00000
 1733.00000  434.00000  507.00000
 1736.00000  448.00000  508.00000
 1739.00000  446.00000  504.00000
 1742.00000  438.00000  511.00000
 1745.00000  430.00000  523.00000
 1748.00000  430.00000  522.00000
 1751.00000  448.00000  514.00000
 1754.00000  457.00000  507.00000
 1757.00000 -9999.00000  656.00000
 1760.00000  419.00000  514.00000
