~Version ---------------------------------------------------
VERS.   2.0 : CWLS log ASCII Standard -VERSION 2.0
WRAP.    NO : One line per depth step
DLM . SPACE : Column Data Section Delimiter
~Well ------------------------------------------------------
STRT..M  1061.00000 : START DEPTH
STOP..M 31307.00000 : STOP DEPTH
STEP..M     3.00000 : STEP
NULL.      -9999.25 : NULL VALUE
COMP.               : COMPANY
WELL.               : WELL
FLD .               : FIELD
LOC .               : LOCATION
PROV.               : PROVINCE
CNTY.               : COUNTY
STAT.               : STATE
CTRY.               : COUNTRY
SRVC.               : SERVICE COMPANY
DATE.               : DATE
UWI .               : UNIQUE WELL ID
API .               : API NUMBER
~Curve Information -----------------------------------------
DEPTH..M       : Depth
ГК   .имп/мин  : описание 1
НГК  .усл. ед  : описание 2
~Params ----------------------------------------------------
..M    0.0 : Start depth
..M 1920.0 : Stop depth
..M    0.2 : Step
..   -9999 : Null value
~Other -----------------------------------------------------
~ASCII -----------------------------------------------------
# ...
 23351.00000 3860077.13793 817618.52308
 23354.00000 3611515.90323 1519092.70476
 23357.00000 5598347.15000 9383233.41176
 23360.00000 2434549.47826 22788451.57143
 23363.00000 10181290.27273 7976565.55000
 23366.00000 2666958.90476 13294893.41667
 23369.00000 3394696.60606 12272823.30769
 23372.00000 5601602.90000 4432478.36111
 23375.00000 6590472.05882 3129465.37255
 23378.00000 12449024.44444 2574937.14516
 23381.00000 9337153.66667 2314470.57971
 23384.00000 10186333.81818 3327862.39583
 23387.00000 4872085.86957 3896849.02439
 23390.00000 9338542.08333 2536824.93651
 23393.00000 18677464.66667 4440176.22222
 23396.00000 22413337.60000 19981508.50000
 23399.00000 16009908.85714 4702259.91176
 23402.00000 9339502.00000 2132448.38667
 23405.00000 9339898.50000 1927695.00000
 23408.00000 5899275.26316 2712679.05085
 23411.00000 7472792.33333 3020650.79245
 23414.00000 16013490.42857 2542101.41270
 23417.00000 16013854.42857 4449630.86111
 23420.00000 8007285.71429 7628900.61905
 23423.00000 8623578.76923 3642011.97727
 23426.00000 18684762.16667 10016457.43750
 23429.00000 11211204.80000 5170722.48387
 23432.00000 12457249.22222 5937714.44444
 23435.00000 14014762.87500 1843666.96552
 23438.00000 12457918.00000 2917204.92727
 23441.00000 10193192.00000 3343445.33333
 23444.00000 5606613.10000 5732399.35714
 23447.00000 4485677.68000 5945463.44444
 23450.00000 4153800.29630 3733942.60465
 23453.00000 5608039.90000 3416968.25532
 23456.00000 3618491.54839 2920815.67273
 23459.00000 5099158.04545 2770656.50000
 23462.00000 6599265.41176 2771630.00000
 23465.00000 7012073.00000 3495692.41304
 23468.00000 7479904.53333 3574447.46667
 23471.00000 5905544.78947 4469171.83333
 23474.00000 8631524.84615 11493290.64286
 23477.00000 4156269.37037 5549636.13793
 23480.00000 3741011.93333 4236429.13158
 23483.00000 3033649.24324 7000523.60870
 23486.00000 5102451.95455 622756.11969
 23489.00000 3118550.58333 9488884.82353
 23492.00000 4491070.84000 4889191.39394
 23495.00000 4491427.84000 3433846.51064
 23498.00000 4491805.96000 4484122.86111
 23501.00000 6605996.00000 4140265.33333
 23504.00000 11230596.70000 5569024.00000
 23507.00000 7019521.43750 956625.33728
 23510.00000 5911559.94737 7349539.59091
 23513.00000 8023199.85714 3944585.39024
 23516.00000 10211705.27273 4256957.31579
 23519.00000 12481326.11111 3762949.30233
 23522.00000 6241020.55556 3371992.91667
 23525.00000 3624191.38710 3765138.02326
 23528.00000 5913548.36842 4048609.87500
 23531.00000 4885496.17391 4499575.91667
 23534.00000 12485522.88889 994835.36810
 23537.00000 14046563.75000 2703651.51667
 23540.00000 6243272.72222 2847013.94737
 23543.00000 3037640.81081 4162128.28205
 23546.00000 4163094.96296 4638940.88571
 23549.00000 3211957.45714 2005574.81481
 23552.00000 2810926.27500 2902015.16071
 23555.00000 5111261.54545 3010504.68519
 23558.00000 5622870.20000 1549215.75238
 23561.00000 2811892.65000 4648530.31429
 23564.00000 5356391.19048 9571367.58824
 23567.00000 7499328.66667 5085662.53125
 23570.00000 8035377.50000 4521498.41667
 23573.00000 7031348.81250 3971045.17073
 23576.00000 5625463.80000 14802134.36364
 23579.00000 4892067.65217 11631211.92857
 23582.00000 7501508.40000 6263929.76923
 23585.00000 16074995.85714 4072549.85000
 23588.00000 18754497.33333 4937458.06061
 23591.00000 7502126.93333 8576645.05263
 23594.00000 11253579.10000 4405263.62162
 23597.00000 22507471.20000 10188195.62500
 23600.00000 11254052.10000 5095139.31250
 23603.00000 11254378.60000 5435886.76667
 23606.00000 18757626.16667 4797479.44118
 23609.00000 16078290.28571 5098426.40625
 23612.00000 12505660.88889 7770093.80952
 23615.00000 6253164.94444 3472839.04255
 23618.00000 5116578.36364 3332104.77551
 23621.00000 6253962.27778 2722342.46667
 23624.00000 9381311.91667 3630879.40000
 23627.00000 7505461.40000 1297857.09524
 23630.00000 16083484.57143 5276246.45161
 23633.00000 5629583.10000 6816197.12500
 23636.00000 4895679.30435 2821558.29310
 23639.00000 2559525.59091 8183589.30000
 23642.00000 1681352.47761 16368248.10000
 23645.00000 1463521.01299 3807625.32558
 23648.00000 1358321.31325 811407.36634
 23651.00000 4698163.37500 490137.53134
 23654.00000 2014118.08929 3284617.44000
 23657.00000 1484647.51316 9124607.83333
 23660.00000 6637772.70588 13687580.25000
 23663.00000 1447180.55128 9662501.35294
 23666.00000 1393990.27160 6571198.92000
 23669.00000 4909633.08696 1910967.74419
 23672.00000 6273770.55556 1326160.01613
 23675.00000 6643153.88235 1246673.96970
 23678.00000 8067022.35714 2224770.31081
 23681.00000 3322064.58824 2352929.48571
 23684.00000 3137878.83333 2657612.75806
 23687.00000 2755624.68293 3833028.74419
 23690.00000 3896327.13793 733535.51556
 23693.00000 2092864.48148 907850.80220
 23696.00000 12557539.88889 3118398.41509
 23699.00000 14127581.87500 1132957.84247
 23702.00000 8694239.53846 2236331.70270
 23705.00000 7064403.12500 3598667.58696
 23708.00000 16147535.14286 4357374.31579
 23711.00000 8695161.61538 9741076.58824
 23714.00000 3324974.11765 11829510.64286
 23717.00000 3325360.61765 7887413.42857
 23720.00000 2692377.09524 674265.99593
 23723.00000 6652202.17647 659134.76984
 23726.00000 6283081.88889 3195020.00000
 23729.00000 5952830.36842 18460844.55556
 23732.00000 5953266.36842 3864647.69767
 23735.00000 2571151.15909 1889212.89773
 23738.00000 5656878.05000 5038742.60606
 23741.00000 4525878.36000 1569565.70755
 23744.00000 6656106.23529 2005487.45783
 23747.00000 7543972.13333 1617140.35922
 23750.00000 8083171.78571 2057512.66667
 23753.00000 2902012.41026 2733323.91803
 23756.00000 2978769.65789 4388968.68421
 23759.00000 2310484.26531 893062.08021
 23762.00000 2177638.59615 753293.04505
 23765.00000 2097435.88889 1563787.06542
 23768.00000 3905930.27586 3892110.37209
 23771.00000 3432807.18182 1579744.74528
 23774.00000 5962559.05263 915987.29508
 23777.00000 9441045.00000 2891156.32759
 23780.00000 8715133.76923 7291829.04348
 23783.00000 12588842.55556 5411129.74194
 23786.00000 5963455.94737 9868391.23529
 23789.00000 8716155.23077 6991159.95833
 23792.00000 11331344.30000 9322603.11111
 23795.00000 2635558.34884 5994141.50000
 23798.00000 3541899.03125 5415076.29032
 23801.00000 9445407.58333 5789536.82759
 23804.00000 12594203.77778 5247802.25000
 23807.00000 18891626.16667 8839464.78947
 23810.00000 28337755.75000 7635160.72727
 23813.00000 28338070.25000 7636256.22727
 23816.00000 18892359.33333 2585651.03077
 23819.00000 14169577.00000 3654645.13043
 23822.00000 12595482.55556 5604757.86667
 23825.00000 11336237.80000 4425784.10526
 23828.00000 14170608.75000 6469460.19231
 23831.00000 11336808.50000 18690569.66667
 23834.00000 9447673.91667 16822528.20000
 23837.00000 11337546.20000 7010414.25000
 23840.00000 6669471.82353 7316264.86957
 23843.00000 14172939.12500 5100259.90909
 23846.00000 22677009.60000 5260652.59375
 23849.00000 18897816.50000 7015179.95833
 23852.00000 11338995.40000 8862252.94737
 23855.00000 10308473.63636 5613746.70000
 23858.00000 16199322.00000 6015741.10714
 23861.00000 14174705.25000 5809339.75862
 23864.00000 14175013.75000 5810381.75862
 23867.00000 14175336.25000 3304939.64706
 23870.00000 12600623.88889 11237745.80000
 23873.00000 10309920.36364 6244153.11111
 23876.00000 16201613.42857 6022140.14286
 23879.00000 10310427.63636 8030542.19048
 23882.00000 9451546.83333 3373834.22000
 23885.00000 9451881.33333 2860134.54237
 23888.00000 8101956.07143 18750696.88889
 23891.00000 5671705.75000 18751627.88889
 23894.00000 10312512.27273 2557947.66667
 23897.00000 14180009.87500 4966295.67647
 23900.00000 18906981.33333 11257795.73333
 23903.00000 16206289.00000 12990635.30769
 23906.00000 22689115.60000 18765129.00000
 23909.00000 28361708.00000 16889487.60000
 23912.00000 28362021.50000 14075444.50000
 23915.00000 22689929.20000 12065550.21429
 23918.00000 18908582.83333 24131993.42857
 23921.00000 18908887.33333 18770262.22222
 23924.00000 16207917.71429 10559169.00000
 23927.00000 18909533.83333 11264023.60000
 23930.00000 22691736.60000 14080953.00000
