~Version ---------------------------------------------------
VERS.   2.0 : CWLS log ASCII Standard -VERSION 2.0
WRAP.    NO : One line per depth step
DLM . SPACE : Column Data Section Delimiter
~Well ------------------------------------------------------
STRT..M  1061.00000 : START DEPTH
STOP..M 31307.00000 : STOP DEPTH
STEP..M     3.00000 : STEP
NULL.      -9999.25 : NULL VALUE
COMP.               : COMPANY
WELL.               : WELL
FLD .               : FIELD
LOC .               : LOCATION
PROV.               : PROVINCE
CNTY.               : COUNTY
STAT.               : STATE
CTRY.               : COUNTRY
SRVC.               : SERVICE COMPANY
DATE.               : DATE
UWI .               : UNIQUE WELL ID
API .               : API NUMBER
~Curve Information -----------------------------------------
DEPTH..M       : Depth
ГК   .имп/мин  : описание 1
НГК  .усл. ед  : описание 2
~Params ----------------------------------------------------
..M    0.0 : Start depth
..M 1920.0 : Stop depth
..M    0.2 : Step
..   -9999 : Null value
~Other -----------------------------------------------------
~ASCII -----------------------------------------------------
# ...
 3179.00000  456.00000  558.00000
 3182.00000  433.00000  568.00000
 3185.00000  416.00000  568.00000
 3188.00000  398.00000  560.00000
 3191.00000  392.00000  554.00000
 3194.00000  398.00000  548.00000
 3197.00000  416.00000  546.00000
 3200.00000  417.00000  554.00000
 3203.00000  414.00000  562.00000
 3206.00000  419.00000  570.00000
 3209.00000  434.00000  562.00000
 3212.00000  448.00000  550.00000
 3215.00000  462.00000  538.00000
 3218.00000  477.00000  530.00000
 3221.00000  482.00000  520.00000
 3224.00000  480.00000  512.00000
 3227.00000  486.00000  506.00000
 3230.00000  484.00000  506.00000
 3233.00000  475.00000  514.00000
 3236.00000  460.00000  520.00000
 3239.00000  448.00000  512.00000
 3242.00000  455.00000  510.00000
 3245.00000  465.00000  517.00000
 3248.00000  458.00000  515.00000
 3251.00000  438.00000  504.00000
 3254.00000 -9999.00000  492.00000
 3257.00000  420.00000  492.00000
 3260.00000  422.00000  502.00000
 3263.00000  448.00000  513.00000
 3266.00000  446.00000  518.00000
 3269.00000  434.00000  520.00000
 3272.00000  404.00000  532.00000
 3275.00000  406.00000  552.00000
 3278.00000  416.00000  574.00000
 3281.00000  428.00000  572.00000
 3284.00000  442.00000  555.00000
 3287.00000  449.00000  540.00000
 3290.00000  448.00000  528.00000
 3293.00000  438.00000  528.00000
 3296.00000  419.00000  536.00000
 3299.00000  402.00000  544.00000
 3302.00000  392.00000  554.00000
 3305.00000  383.00000  552.00000
 3308.00000  387.00000  542.00000
 3311.00000  399.00000  546.00000
 3314.00000  416.00000  536.00000
 3317.00000  433.00000  514.00000
 3320.00000  453.00000  505.00000
 3323.00000  458.00000  517.00000
 3326.00000  435.00000  530.00000
 3329.00000  405.00000  547.00000
 3332.00000  381.00000  562.00000
 3335.00000  374.00000  554.00000
 3338.00000  388.00000  540.00000
 3341.00000  396.00000  528.00000
 3344.00000  388.00000  516.00000
 3347.00000  378.00000  506.00000
 3350.00000  372.00000  513.00000
 3353.00000  378.00000  526.00000
 3356.00000  390.00000  537.00000
 3359.00000  404.00000  531.00000
 3362.00000  420.00000  523.00000
 3365.00000  431.00000  531.00000
 3368.00000  426.00000  552.00000
 3371.00000  413.00000  548.00000
 3374.00000  410.00000  538.00000
 3377.00000 -9999.00000  526.00000
 3380.00000  408.00000  515.00000
 3383.00000  426.00000  508.00000
 3386.00000  418.00000  513.00000
 3389.00000  376.00000  524.00000
 3392.00000  348.00000  528.00000
 3395.00000  340.00000  522.00000
 3398.00000  348.00000  512.00000
 3401.00000  363.00000  506.00000
 3404.00000  380.00000  509.00000
 3407.00000  387.00000  520.00000
 3410.00000  382.00000  529.00000
 3413.00000  360.00000  526.00000
 3416.00000  356.00000  516.00000
 3419.00000  368.00000  508.00000
 3422.00000  363.00000  501.00000
 3425.00000  348.00000  506.00000
 3428.00000  354.00000  518.00000
 3431.00000  380.00000  528.00000
 3434.00000  393.00000  531.00000
 3437.00000  393.00000  524.00000
 3440.00000  378.00000  520.00000
 3443.00000  362.00000  531.00000
 3446.00000  358.00000  546.00000
 3449.00000  364.00000  562.00000
 3452.00000  374.00000  577.00000
 3455.00000  387.00000  633.00000
 3458.00000  398.00000  558.00000
 3461.00000  398.00000  540.00000
 3464.00000  386.00000  534.00000
 3467.00000  364.00000  548.00000
 3470.00000  353.00000  526.00000
 3473.00000  362.00000  509.00000
 3476.00000  385.00000  517.00000
 3479.00000  409.00000  518.00000
 3482.00000  414.00000  520.00000
 3485.00000  391.00000  534.00000
 3488.00000  398.00000  550.00000
 3491.00000  412.00000  567.00000
 3494.00000  407.00000  578.00000
 3497.00000  392.00000  589.00000
 3500.00000  380.00000  588.00000
 3503.00000  388.00000  576.00000
 3506.00000  398.00000  565.00000
 3509.00000  394.00000  548.00000
 3512.00000  388.00000  534.00000
 3515.00000  396.00000  550.00000
 3518.00000  421.00000  565.00000
 3521.00000  440.00000  560.00000
 3524.00000  444.00000  545.00000
 3527.00000  434.00000  540.00000
 3530.00000  420.00000  550.00000
 3533.00000  412.00000  564.00000
 3536.00000  434.00000  572.00000
 3539.00000  452.00000  572.00000
 3542.00000  432.00000  561.00000
 3545.00000  414.00000  546.00000
 3548.00000  392.00000  538.00000
 3551.00000  373.00000  540.00000
 3554.00000  366.00000  556.00000
 3557.00000  377.00000  573.00000
 3560.00000  377.00000  578.00000
 3563.00000 -9999.00000  570.00000
 3566.00000  336.00000  559.00000
 3569.00000  343.00000  548.00000
 3572.00000  362.00000  541.00000
 3575.00000  382.00000  544.00000
 3578.00000  388.00000  556.00000
 3581.00000  374.00000  564.00000
 3584.00000 -9999.00000  560.00000
 3587.00000  351.00000  558.00000
 3590.00000  354.00000  550.00000
 3593.00000  366.00000  530.00000
 3596.00000  367.00000  529.00000
 3599.00000  360.00000  544.00000
 3602.00000 -9999.00000  546.00000
 3605.00000  331.00000  554.00000
 3608.00000  344.00000  558.00000
 3611.00000  364.00000  539.00000
 3614.00000  384.00000  525.00000
 3617.00000  402.00000  534.00000
 3620.00000  403.00000  547.00000
 3623.00000  379.00000  562.00000
 3626.00000 -9999.00000  576.00000
 3629.00000  354.00000  588.00000
 3632.00000  358.00000  584.00000
 3635.00000  370.00000  572.00000
 3638.00000  389.00000  556.00000
 3641.00000  388.00000  554.00000
 3644.00000  378.00000  572.00000
 3647.00000  356.00000  592.00000
 3650.00000  354.00000  615.00000
 3653.00000  346.00000  625.00000
 3656.00000  326.00000  608.00000
 3659.00000  308.00000  606.00000
 3662.00000  294.00000  638.00000
 3665.00000  292.00000  674.00000
 3668.00000  304.00000  721.00000
 3671.00000  320.00000  765.00000
 3674.00000  331.00000  804.00000
 3677.00000  332.00000  827.00000
 3680.00000  334.00000  823.00000
 3683.00000  344.00000  786.00000
 3686.00000  348.00000  726.00000
 3689.00000  340.00000  658.00000
 3692.00000  325.00000  617.00000
 3695.00000  322.00000  624.00000
 3698.00000  329.00000  645.00000
 3701.00000  340.00000  658.00000
 3704.00000  356.00000  630.00000
 3707.00000  366.00000  603.00000
 3710.00000  363.00000  576.00000
 3713.00000  352.00000  555.00000
 3716.00000  342.00000  544.00000
 3719.00000  330.00000  546.00000
 3722.00000 -9999.00000  554.00000
 3725.00000  318.00000  564.00000
 3728.00000  322.00000  570.00000
 3731.00000  331.00000  564.00000
 3734.00000  345.00000  554.00000
 3737.00000  350.00000  545.00000
 3740.00000  346.00000  546.00000
 3743.00000  337.00000  559.00000
 3746.00000  339.00000  566.00000
 3749.00000  346.00000  552.00000
 3752.00000  354.00000  538.00000
 3755.00000  364.00000  538.00000
 3758.00000  368.00000  538.00000
 3761.00000  364.00000  526.00000
 3764.00000  354.00000  509.00000
 3767.00000  346.00000  510.00000
 3770.00000  336.00000  528.00000
 3773.00000  332.00000  542.00000
 3776.00000  342.00000  556.00000
 3779.00000  360.00000  570.00000
 3782.00000  371.00000  575.00000
 3785.00000  372.00000  570.00000
 3788.00000  370.00000  572.00000
 3791.00000  374.00000  583.00000
 3794.00000  384.00000  596.00000
 3797.00000  393.00000  581.00000
 3800.00000  387.00000  540.00000
 3803.00000  376.00000  529.00000
 3806.00000  370.00000  543.00000
 3809.00000  377.00000  567.00000
 3812.00000  374.00000  582.00000
 3815.00000  365.00000  566.00000
 3818.00000  350.00000  542.00000
 3821.00000  340.00000  524.00000
 3824.00000  342.00000  528.00000
 3827.00000  354.00000  536.00000
 3830.00000  365.00000  543.00000
 3833.00000  356.00000  536.00000
 3836.00000  332.00000  524.00000
 3839.00000  325.00000  519.00000
 3842.00000  339.00000  529.00000
 3845.00000  355.00000  543.00000
 3848.00000  352.00000  562.00000
 3851.00000  343.00000  578.00000
 3854.00000  335.00000  595.00000
 3857.00000  332.00000  614.00000
 3860.00000  347.00000  616.00000
 3863.00000  353.00000  590.00000
 3866.00000  346.00000  567.00000
 3869.00000  330.00000  592.00000
 3872.00000  316.00000  634.00000
 3875.00000  304.00000  668.00000
 3878.00000  296.00000  676.00000
 3881.00000  294.00000  642.00000
 3884.00000  298.00000  590.00000
