~Version ---------------------------------------------------
VERS.   2.0 : CWLS log ASCII Standard -VERSION 2.0
WRAP.    NO : One line per depth step
DLM . SPACE : Column Data Section Delimiter
~Well ------------------------------------------------------
STRT..M  1061.00000 : START DEPTH
STOP..M 31307.00000 : STOP DEPTH
STEP..M     3.00000 : STEP
NULL.      -9999.25 : NULL VALUE
COMP.               : COMPANY
WELL.               : WELL
FLD .               : FIELD
LOC .               : LOCATION
PROV.               : PROVINCE
CNTY.               : COUNTY
STAT.               : STATE
CTRY.               : COUNTRY
SRVC.               : SERVICE COMPANY
DATE.               : DATE
UWI .               : UNIQUE WELL ID
API .               : API NUMBER
~Curve Information -----------------------------------------
DEPTH..M       : Depth
ГК   .имп/мин  : описание 1
НГК  .усл. ед  : описание 2
~Params ----------------------------------------------------
..M    0.0 : Start depth
..M 1920.0 : Stop depth
..M    0.2 : Step
..   -9999 : Null value
~Other -----------------------------------------------------
~ASCII -----------------------------------------------------
# ...
 17111.00000  777.00000  804.00000
 17114.00000  788.00000  816.00000
 17117.00000  768.00000  837.00000
 17120.00000  744.00000  840.00000
 17123.00000  722.00000  818.00000
 17126.00000  711.00000  800.00000
 17129.00000  731.00000  786.00000
 17132.00000  776.00000  776.00000
 17135.00000  844.00000  750.00000
 17138.00000  936.00000  722.00000
 17141.00000 1012.00000  692.00000
 17144.00000  954.00000  680.00000
 17147.00000  896.00000  694.00000
 17150.00000  888.00000  718.00000
 17153.00000  930.00000  741.00000
 17156.00000  977.00000  740.00000
 17159.00000 1003.00000  714.00000
 17162.00000  934.00000  720.00000
 17165.00000  905.00000  735.00000
 17168.00000  943.00000  732.00000
 17171.00000  975.00000  704.00000
 17174.00000  983.00000  685.00000
 17177.00000  972.00000  698.00000
 17180.00000  972.00000  723.00000
 17183.00000  950.00000  738.00000
 17186.00000  922.00000  728.00000
 17189.00000  929.00000  706.00000
 17192.00000  942.00000  702.00000
 17195.00000  907.00000  715.00000
 17198.00000  894.00000  729.00000
 17201.00000  909.00000  740.00000
 17204.00000  934.00000  748.00000
 17207.00000  958.00000  741.00000
 17210.00000  962.00000  722.00000
 17213.00000  945.00000  700.00000
 17216.00000  920.00000  690.00000
 17219.00000  881.00000  695.00000
 17222.00000  843.00000  704.00000
 17225.00000  816.00000  714.00000
 17228.00000  792.00000  726.00000
 17231.00000  760.00000  739.00000
 17234.00000  722.00000  750.00000
 17237.00000  696.00000  738.00000
 17240.00000  690.00000  696.00000
 17243.00000  713.00000  678.00000
 17246.00000  708.00000  678.00000
 17249.00000  651.00000  691.00000
 17252.00000  620.00000  699.00000
 17255.00000  636.00000  710.00000
 17258.00000  683.00000  731.00000
 17261.00000  708.00000  721.00000
 17264.00000  704.00000  673.00000
 17267.00000  660.00000  694.00000
 17270.00000  637.00000  723.00000
 17273.00000  621.00000  744.00000
 17276.00000  620.00000  764.00000
 17279.00000  610.00000  792.00000
 17282.00000  603.00000  813.00000
 17285.00000  618.00000  824.00000
 17288.00000  654.00000  826.00000
 17291.00000  662.00000  818.00000
 17294.00000  624.00000  822.00000
 17297.00000  610.00000  832.00000
 17300.00000  633.00000  836.00000
 17303.00000  626.00000  815.00000
 17306.00000  601.00000  778.00000
 17309.00000  594.00000  781.00000
 17312.00000  628.00000  794.00000
 17315.00000  650.00000  817.00000
 17318.00000  648.00000  839.00000
 17321.00000  626.00000  862.00000
 17324.00000  640.00000  871.00000
 17327.00000  674.00000  827.00000
 17330.00000  694.00000  792.00000
 17333.00000  726.00000  754.00000
 17336.00000  769.00000  716.00000
 17339.00000  830.00000  680.00000
 17342.00000  840.00000  668.00000
 17345.00000  790.00000  676.00000
 17348.00000  752.00000  672.00000
 17351.00000  722.00000  672.00000
 17354.00000  695.00000  684.00000
 17357.00000  677.00000  704.00000
 17360.00000  712.00000  722.00000
 17363.00000  770.00000  735.00000
 17366.00000  784.00000  736.00000
 17369.00000  760.00000  746.00000
 17372.00000  711.00000  764.00000
 17375.00000  714.00000  782.00000
 17378.00000  744.00000  800.00000
 17381.00000  763.00000  777.00000
 17384.00000  802.00000  723.00000
 17387.00000  826.00000  694.00000
 17390.00000  826.00000  680.00000
 17393.00000  759.00000  682.00000
 17396.00000  695.00000  688.00000
 17399.00000  654.00000  686.00000
 17402.00000  649.00000  675.00000
 17405.00000  699.00000  664.00000
 17408.00000  736.00000  662.00000
 17411.00000  763.00000  666.00000
 17414.00000  783.00000  674.00000
 17417.00000  807.00000  700.00000
 17420.00000  803.00000  737.00000
 17423.00000  736.00000  761.00000
 17426.00000  674.00000  788.00000
 17429.00000  650.00000  808.00000
 17432.00000  664.00000  806.00000
 17435.00000  699.00000  817.00000
 17438.00000  734.00000  839.00000
 17441.00000  760.00000  854.00000
 17444.00000  760.00000  855.00000
 17447.00000  706.00000  846.00000
 17450.00000  645.00000  846.00000
 17453.00000  598.00000  864.00000
 17456.00000  613.00000  894.00000
 17459.00000  636.00000  918.00000
 17462.00000  620.00000  950.00000
 17465.00000  591.00000  988.00000
 17468.00000  582.00000 1014.00000
 17471.00000  606.00000 1012.00000
 17474.00000  645.00000  989.00000
 17477.00000  668.00000  963.00000
 17480.00000  684.00000  944.00000
 17483.00000  695.00000  925.00000
 17486.00000  705.00000  908.00000
 17489.00000  716.00000  905.00000
 17492.00000  660.00000  921.00000
 17495.00000  559.00000  938.00000
 17498.00000  538.00000  961.00000
 17501.00000  544.00000  980.00000
 17504.00000  562.00000  972.00000
 17507.00000  580.00000  943.00000
 17510.00000  594.00000  918.00000
 17513.00000  598.00000  902.00000
 17516.00000  602.00000  906.00000
 17519.00000  602.00000  923.00000
 17522.00000  590.00000  924.00000
 17525.00000  558.00000  895.00000
 17528.00000  532.00000  874.00000
 17531.00000  516.00000  852.00000
 17534.00000  528.00000  831.00000
 17537.00000  560.00000  817.00000
 17540.00000  592.00000  830.00000
 17543.00000  614.00000  860.00000
 17546.00000  630.00000  868.00000
 17549.00000  662.00000  844.00000
 17552.00000  709.00000  816.00000
 17555.00000  775.00000  791.00000
 17558.00000  907.00000  769.00000
 17561.00000 1000.00000  801.00000
 17564.00000  950.00000  860.00000
 17567.00000  757.00000  902.00000
 17570.00000  653.00000  914.00000
 17573.00000  582.00000  884.00000
 17576.00000  544.00000  850.00000
 17579.00000  524.00000  825.00000
 17582.00000  517.00000  796.00000
 17585.00000  528.00000  788.00000
 17588.00000  552.00000  806.00000
 17591.00000  585.00000  832.00000
 17594.00000  620.00000  862.00000
 17597.00000  646.00000  890.00000
 17600.00000  674.00000  912.00000
 17603.00000  743.00000  896.00000
 17606.00000  780.00000  865.00000
 17609.00000  748.00000  855.00000
 17612.00000  706.00000  874.00000
 17615.00000  689.00000  876.00000
 17618.00000  692.00000  842.00000
 17621.00000  687.00000  851.00000
 17624.00000  650.00000  880.00000
 17627.00000  637.00000  882.00000
 17630.00000  650.00000  863.00000
 17633.00000  664.00000  860.00000
 17636.00000  688.00000  860.00000
 17639.00000  735.00000  842.00000
 17642.00000  803.00000  816.00000
 17645.00000  839.00000  785.00000
 17648.00000  883.00000  750.00000
 17651.00000  916.00000  726.00000
 17654.00000  939.00000  715.00000
 17657.00000  954.00000  696.00000
 17660.00000  930.00000  671.00000
 17663.00000  873.00000  676.00000
 17666.00000  800.00000  712.00000
 17669.00000  701.00000  743.00000
 17672.00000  575.00000  785.00000
 17675.00000  482.00000  804.00000
 17678.00000  412.00000  780.00000
 17681.00000  399.00000  760.00000
 17684.00000  406.00000  765.00000
 17687.00000 -9999.00000  756.00000
 17690.00000  454.00000  738.00000
 17693.00000  452.00000  736.00000
 17696.00000  422.00000  732.00000
 17699.00000  406.00000  709.00000
 17702.00000  389.00000  678.00000
 17705.00000  379.00000  667.00000
 17708.00000  380.00000  682.00000
 17711.00000  384.00000  694.00000
 17714.00000  387.00000  688.00000
 17717.00000  382.00000  690.00000
 17720.00000  376.00000  708.00000
 17723.00000  370.00000  726.00000
 17726.00000  371.00000  740.00000
 17729.00000  382.00000  744.00000
 17732.00000  404.00000  732.00000
 17735.00000  437.00000  746.00000
 17738.00000  472.00000  774.00000
 17741.00000  502.00000  797.00000
 17744.00000  538.00000  818.00000
 17747.00000  558.00000  838.00000
 17750.00000  556.00000  858.00000
 17753.00000  539.00000  870.00000
 17756.00000  524.00000  874.00000
 17759.00000  535.00000  890.00000
 17762.00000  562.00000  909.00000
 17765.00000  578.00000  911.00000
 17768.00000  565.00000  908.00000
 17771.00000  550.00000  896.00000
 17774.00000  536.00000  857.00000
 17777.00000  524.00000  820.00000
 17780.00000  512.00000  831.00000
 17783.00000  516.00000  859.00000
 17786.00000  526.00000  874.00000
 17789.00000  537.00000  860.00000
 17792.00000  540.00000  836.00000
 17795.00000  545.00000  820.00000
