~Version ---------------------------------------------------
VERS.   2.0 : CWLS log ASCII Standard -VERSION 2.0
WRAP.    NO : One line per depth step
DLM . SPACE : Column Data Section Delimiter
~Well ------------------------------------------------------
STRT..M  1061.00000 : START DEPTH
STOP..M 31307.00000 : STOP DEPTH
STEP..M     3.00000 : STEP
NULL.      -9999.25 : NULL VALUE
COMP.               : COMPANY
WELL.               : WELL
FLD .               : FIELD
LOC .               : LOCATION
PROV.               : PROVINCE
CNTY.               : COUNTY
STAT.               : STATE
CTRY.               : COUNTRY
SRVC.               : SERVICE COMPANY
DATE.               : DATE
UWI .               : UNIQUE WELL ID
API .               : API NUMBER
~Curve Information -----------------------------------------
DEPTH..M       : Depth
ГК   .имп/мин  : описание 1
НГК  .усл. ед  : описание 2
~Params ----------------------------------------------------
..M    0.0 : Start depth
..M 1920.0 : Stop depth
..M    0.2 : Step
..   -9999 : Null value
~Other -----------------------------------------------------
~ASCII -----------------------------------------------------
# ...
 19172.00000  500.00000  966.00000
 19175.00000  466.00000  950.00000
 19178.00000  462.00000  932.00000
 19181.00000  484.00000  908.00000
 19184.00000  492.00000  894.00000
 19187.00000  458.00000  910.00000
 19190.00000  446.00000  930.00000
 19193.00000  449.00000  914.00000
 19196.00000  471.00000  898.00000
 19199.00000  498.00000  910.00000
 19202.00000  533.00000  910.00000
 19205.00000  544.00000  894.00000
 19208.00000  519.00000 1119.00000
 19211.00000  497.00000 1158.00000
 19214.00000  474.00000 1066.00000
 19217.00000  482.00000 1073.00000
 19220.00000  492.00000 1226.00000
 19223.00000  465.00000 1051.00000
 19226.00000  483.00000 1051.00000
 19229.00000  552.00000 1154.00000
 19232.00000  588.00000  988.00000
 19235.00000  586.00000 1034.00000
 19238.00000  604.00000 1065.00000
 19241.00000  560.00000 1102.00000
 19244.00000  642.00000 1120.00000
 19247.00000  571.00000 1148.00000
 19250.00000  683.00000 1137.00000
 19253.00000  759.00000 1037.00000
 19256.00000  752.00000 1024.00000
 19259.00000  647.00000 1067.00000
 19262.00000  852.00000 1044.00000
 19265.00000  839.00000 1051.00000
 19268.00000  780.00000  971.00000
 19271.00000  874.00000 1063.00000
 19274.00000  897.00000  973.00000
 19277.00000  630.00000  863.00000
 19280.00000  667.00000  680.00000
 19283.00000  720.00000  683.00000
 19286.00000  901.00000  787.00000
 19289.00000  691.00000  979.00000
 19292.00000  705.00000  964.00000
 19295.00000  728.00000  925.00000
 19298.00000  670.00000  906.00000
 19301.00000  596.00000  800.00000
 19304.00000  559.00000  865.00000
 19307.00000  565.00000  976.00000
 19310.00000  563.00000  660.00000
 19313.00000  545.00000  705.00000
 19316.00000  524.00000  759.00000
 19319.00000  527.00000  717.00000
 19322.00000  552.00000  686.00000
 19325.00000  539.00000  666.00000
 19328.00000  537.00000  890.00000
 19331.00000  523.00000  843.00000
 19334.00000  538.00000  864.00000
 19337.00000  554.00000 1055.00000
 19340.00000  550.00000 1143.00000
 19343.00000  536.00000 1167.00000
 19346.00000  541.00000 1143.00000
 19349.00000  572.00000 1197.00000
 19352.00000  598.00000 1216.00000
 19355.00000  619.00000 1070.00000
 19358.00000  638.00000 1083.00000
 19361.00000  644.00000  963.00000
 19364.00000  637.00000  730.00000
 19367.00000  623.00000  720.00000
 19370.00000  651.00000  742.00000
 19373.00000  674.00000  736.00000
 19376.00000  670.00000  720.00000
 19379.00000  668.00000  746.00000
 19382.00000  652.00000  776.00000
 19385.00000  667.00000  762.00000
 19388.00000  672.00000  729.00000
 19391.00000  653.00000  732.00000
 19394.00000  634.00000  758.00000
 19397.00000  650.00000  731.00000
 19400.00000  646.00000  729.00000
 19403.00000  657.00000  757.00000
 19406.00000  674.00000  764.00000
 19409.00000  680.00000  750.00000
 19412.00000  663.00000  733.00000
 19415.00000  645.00000  762.00000
 19418.00000  661.00000  752.00000
 19421.00000  678.00000  706.00000
 19424.00000  666.00000  692.00000
 19427.00000  629.00000  700.00000
 19430.00000  604.00000  719.00000
 19433.00000  629.00000  720.00000
 19436.00000  678.00000  715.00000
 19439.00000  682.00000  752.00000
 19442.00000  656.00000  800.00000
 19445.00000  618.00000  776.00000
 19448.00000  638.00000  744.00000
 19451.00000  646.00000  796.00000
 19454.00000  639.00000  813.00000
 19457.00000  630.00000  798.00000
 19460.00000  647.00000  811.00000
 19463.00000  662.00000  869.00000
 19466.00000  664.00000  886.00000
 19469.00000  670.00000  872.00000
 19472.00000  690.00000  842.00000
 19475.00000  709.00000  851.00000
 19478.00000  702.00000  836.00000
 19481.00000  653.00000  792.00000
 19484.00000  644.00000  753.00000
 19487.00000  641.00000  732.00000
 19490.00000  604.00000  740.00000
 19493.00000  592.00000  762.00000
 19496.00000  606.00000  774.00000
 19499.00000  628.00000  824.00000
 19502.00000  632.00000  870.00000
 19505.00000  632.00000  866.00000
 19508.00000  652.00000  824.00000
 19511.00000  684.00000  780.00000
 19514.00000  702.00000  788.00000
 19517.00000  686.00000  784.00000
 19520.00000  627.00000  770.00000
 19523.00000  618.00000  745.00000
 19526.00000  639.00000  725.00000
 19529.00000  670.00000  730.00000
 19532.00000  674.00000  752.00000
 19535.00000  656.00000  786.00000
 19538.00000  610.00000  808.00000
 19541.00000  610.00000  808.00000
 19544.00000  636.00000  816.00000
 19547.00000  647.00000  850.00000
 19550.00000  630.00000  858.00000
 19553.00000  610.00000  872.00000
 19556.00000  612.00000  892.00000
 19559.00000  641.00000  823.00000
 19562.00000  671.00000  734.00000
 19565.00000  674.00000  752.00000
 19568.00000  659.00000  796.00000
 19571.00000  623.00000  818.00000
 19574.00000  623.00000  830.00000
 19577.00000  642.00000  858.00000
 19580.00000  640.00000  867.00000
 19583.00000  632.00000  842.00000
 19586.00000  637.00000  865.00000
 19589.00000  651.00000  831.00000
 19592.00000  643.00000  793.00000
 19595.00000  626.00000  820.00000
 19598.00000  603.00000  828.00000
 19601.00000  587.00000  827.00000
 19604.00000  599.00000  860.00000
 19607.00000  620.00000  876.00000
 19610.00000  620.00000  850.00000
 19613.00000  599.00000  781.00000
 19616.00000  570.00000  762.00000
 19619.00000  543.00000  773.00000
 19622.00000  540.00000  791.00000
 19625.00000  554.00000  793.00000
 19628.00000  560.00000  783.00000
 19631.00000  556.00000  760.00000
 19634.00000  551.00000  742.00000
 19637.00000  558.00000  748.00000
 19640.00000  578.00000  776.00000
 19643.00000  608.00000  806.00000
 19646.00000  579.00000  818.00000
 19649.00000  571.00000  814.00000
 19652.00000  574.00000  802.00000
 19655.00000  592.00000  784.00000
 19658.00000  604.00000  763.00000
 19661.00000  604.00000  744.00000
 19664.00000  606.00000  730.00000
 19667.00000  630.00000  726.00000
 19670.00000  651.00000  751.00000
 19673.00000  644.00000  752.00000
 19676.00000  637.00000  752.00000
 19679.00000  627.00000  766.00000
 19682.00000  599.00000  779.00000
 19685.00000  594.00000  769.00000
 19688.00000  610.00000  757.00000
 19691.00000  605.00000  786.00000
 19694.00000  593.00000  788.00000
 19697.00000  606.00000  768.00000
 19700.00000  615.00000  780.00000
 19703.00000  610.00000  816.00000
 19706.00000  601.00000  800.00000
 19709.00000  595.00000  770.00000
 19712.00000  604.00000  790.00000
 19715.00000  618.00000  811.00000
 19718.00000  634.00000  788.00000
 19721.00000  659.00000  765.00000
 19724.00000  703.00000  793.00000
 19727.00000  734.00000  836.00000
 19730.00000  741.00000  820.00000
 19733.00000  786.00000  788.00000
 19736.00000  809.00000  782.00000
 19739.00000  838.00000  775.00000
 19742.00000  839.00000  781.00000
 19745.00000  834.00000  788.00000
 19748.00000  852.00000  768.00000
 19751.00000  864.00000  748.00000
 19754.00000  856.00000  759.00000
 19757.00000  860.00000  747.00000
 19760.00000  888.00000  714.00000
 19763.00000  908.00000  694.00000
 19766.00000  902.00000  702.00000
 19769.00000  865.00000  709.00000
 19772.00000  792.00000  700.00000
 19775.00000  726.00000  672.00000
 19778.00000  682.00000  650.00000
 19781.00000  666.00000  650.00000
 19784.00000  680.00000  661.00000
 19787.00000  678.00000  665.00000
 19790.00000  648.00000  658.00000
 19793.00000  628.00000  651.00000
 19796.00000  634.00000  684.00000
 19799.00000  688.00000  690.00000
 19802.00000  711.00000  720.00000
 19805.00000  701.00000  714.00000
 19808.00000  682.00000  695.00000
 19811.00000  693.00000  678.00000
 19814.00000  733.00000  690.00000
 19817.00000  754.00000  718.00000
 19820.00000  738.00000  720.00000
 19823.00000  714.00000  704.00000
 19826.00000  716.00000  704.00000
 19829.00000  755.00000  721.00000
 19832.00000  775.00000  754.00000
 19835.00000  779.00000  748.00000
 19838.00000  788.00000  730.00000
 19841.00000  794.00000  712.00000
 19844.00000  742.00000  691.00000
 19847.00000  707.00000  684.00000
 19850.00000  703.00000  694.00000
 19853.00000  701.00000  723.00000
 19856.00000  714.00000  752.00000
