~Version ---------------------------------------------------
VERS.   2.0 : CWLS log ASCII Standard -VERSION 2.0
WRAP.    NO : One line per depth step
DLM . SPACE : Column Data Section Delimiter
~Well ------------------------------------------------------
STRT..M  1061.00000 : START DEPTH
STOP..M 31307.00000 : STOP DEPTH
STEP..M     3.00000 : STEP
NULL.      -9999.25 : NULL VALUE
COMP.               : COMPANY
WELL.               : WELL
FLD .               : FIELD
LOC .               : LOCATION
PROV.               : PROVINCE
CNTY.               : COUNTY
STAT.               : STATE
CTRY.               : COUNTRY
SRVC.               : SERVICE COMPANY
DATE.               : DATE
UWI .               : UNIQUE WELL ID
API .               : API NUMBER
~Curve Information -----------------------------------------
DEPTH..M       : Depth
ГК   .имп/мин  : описание 1
НГК  .усл. ед  : описание 2
~Params ----------------------------------------------------
..M    0.0 : Start depth
..M 1920.0 : Stop depth
..M    0.2 : Step
..   -9999 : Null value
~Other -----------------------------------------------------
~ASCII -----------------------------------------------------
# ...
 12989.00000  619.00000  907.00000
 12992.00000  604.00000  936.00000
 12995.00000  631.00000  961.00000
 12998.00000  647.00000  985.00000
 13001.00000  624.00000 1008.00000
 13004.00000  618.00000 1032.00000
 13007.00000  616.00000 1043.00000
 13010.00000  600.00000 1028.00000
 13013.00000  580.00000 1002.00000
 13016.00000  560.00000  969.00000
 13019.00000  544.00000  953.00000
 13022.00000  550.00000  958.00000
 13025.00000  572.00000  976.00000
 13028.00000  604.00000  996.00000
 13031.00000  640.00000 1014.00000
 13034.00000  664.00000 1010.00000
 13037.00000  640.00000  988.00000
 13040.00000  584.00000  978.00000
 13043.00000  538.00000  980.00000
 13046.00000  521.00000  960.00000
 13049.00000  536.00000  934.00000
 13052.00000  550.00000  896.00000
 13055.00000  525.00000  860.00000
 13058.00000  528.00000  854.00000
 13061.00000  586.00000  874.00000
 13064.00000  606.00000  890.00000
 13067.00000  569.00000  906.00000
 13070.00000  541.00000  922.00000
 13073.00000  509.00000  934.00000
 13076.00000  469.00000  929.00000
 13079.00000  455.00000  914.00000
 13082.00000  474.00000  898.00000
 13085.00000  496.00000  897.00000
 13088.00000  514.00000  914.00000
 13091.00000  530.00000  927.00000
 13094.00000  536.00000  906.00000
 13097.00000  546.00000  886.00000
 13100.00000  560.00000  894.00000
 13103.00000  579.00000  914.00000
 13106.00000  614.00000  932.00000
 13109.00000  634.00000  954.00000
 13112.00000  624.00000  971.00000
 13115.00000  594.00000  978.00000
 13118.00000  586.00000  958.00000
 13121.00000  617.00000  954.00000
 13124.00000  661.00000  972.00000
 13127.00000  701.00000  968.00000
 13130.00000  753.00000  968.00000
 13133.00000  800.00000  960.00000
 13136.00000  876.00000  941.00000
 13139.00000  944.00000  923.00000
 13142.00000  923.00000  905.00000
 13145.00000  815.00000  880.00000
 13148.00000  753.00000  854.00000
 13151.00000  768.00000  867.00000
 13154.00000  728.00000  904.00000
 13157.00000  644.00000  936.00000
 13160.00000  546.00000  970.00000
 13163.00000  506.00000  964.00000
 13166.00000  509.00000  906.00000
 13169.00000  524.00000  849.00000
 13172.00000  566.00000  860.00000
 13175.00000  608.00000  897.00000
 13178.00000  630.00000  918.00000
 13181.00000  602.00000  946.00000
 13184.00000  576.00000  971.00000
 13187.00000  542.00000  998.00000
 13190.00000  534.00000 1007.00000
 13193.00000  549.00000  986.00000
 13196.00000  553.00000  963.00000
 13199.00000  534.00000  952.00000
 13202.00000  538.00000  970.00000
 13205.00000  574.00000  971.00000
 13208.00000  645.00000  958.00000
 13211.00000  687.00000  940.00000
 13214.00000  660.00000  950.00000
 13217.00000  659.00000  994.00000
 13220.00000  665.00000  997.00000
 13223.00000  646.00000  968.00000
 13226.00000  624.00000  934.00000
 13229.00000  674.00000  906.00000
 13232.00000  731.00000  884.00000
 13235.00000  734.00000  912.00000
 13238.00000  716.00000  951.00000
 13241.00000  692.00000  978.00000
 13244.00000  665.00000  999.00000
 13247.00000  647.00000 1020.00000
 13250.00000  636.00000 1023.00000
 13253.00000  645.00000 1006.00000
 13256.00000  669.00000  986.00000
 13259.00000  692.00000  962.00000
 13262.00000  727.00000  982.00000
 13265.00000  708.00000 1017.00000
 13268.00000  676.00000 1018.00000
 13271.00000  650.00000  996.00000
 13274.00000  630.00000  978.00000
 13277.00000  612.00000  954.00000
 13280.00000  612.00000  943.00000
 13283.00000  622.00000  961.00000
 13286.00000  602.00000  981.00000
 13289.00000  594.00000  996.00000
 13292.00000  624.00000 1016.00000
 13295.00000  631.00000 1026.00000
 13298.00000  617.00000 1004.00000
 13301.00000  600.00000  984.00000
 13304.00000  610.00000  974.00000
 13307.00000  614.00000  984.00000
 13310.00000  606.00000  972.00000
 13313.00000  594.00000  949.00000
 13316.00000  588.00000  946.00000
 13319.00000  591.00000  974.00000
 13322.00000  593.00000  994.00000
 13325.00000  584.00000 1008.00000
 13328.00000  566.00000 1030.00000
 13331.00000  547.00000 1044.00000
 13334.00000  527.00000 1032.00000
 13337.00000  524.00000 1006.00000
 13340.00000  538.00000  994.00000
 13343.00000  558.00000 1008.00000
 13346.00000  563.00000 1015.00000
 13349.00000  572.00000 1000.00000
 13352.00000  588.00000  982.00000
 13355.00000  606.00000  966.00000
 13358.00000  604.00000  981.00000
 13361.00000  597.00000  998.00000
 13364.00000  604.00000 1022.00000
 13367.00000  620.00000 1024.00000
 13370.00000  640.00000 1003.00000
 13373.00000  643.00000 1000.00000
 13376.00000  632.00000  965.00000
 13379.00000  692.00000  944.00000
 13382.00000  684.00000  925.00000
 13385.00000  642.00000  932.00000
 13388.00000  595.00000  947.00000
 13391.00000  545.00000  954.00000
 13394.00000  518.00000  978.00000
 13397.00000  507.00000 1003.00000
 13400.00000  507.00000  983.00000
 13403.00000  520.00000  948.00000
 13406.00000  558.00000  916.00000
 13409.00000  592.00000  883.00000
 13412.00000  645.00000  864.00000
 13415.00000  664.00000  890.00000
 13418.00000  640.00000  939.00000
 13421.00000  618.00000  982.00000
 13424.00000  603.00000 1026.00000
 13427.00000  611.00000 1062.00000
 13430.00000  634.00000 1060.00000
 13433.00000  646.00000 1018.00000
 13436.00000  632.00000  980.00000
 13439.00000  613.00000  954.00000
 13442.00000  593.00000  936.00000
 13445.00000  572.00000  946.00000
 13448.00000  550.00000  962.00000
 13451.00000  529.00000  970.00000
 13454.00000  504.00000  959.00000
 13457.00000  496.00000  952.00000
 13460.00000  502.00000  964.00000
 13463.00000  500.00000  984.00000
 13466.00000  495.00000 1002.00000
 13469.00000  504.00000 1014.00000
 13472.00000  523.00000 1008.00000
 13475.00000  546.00000 1004.00000
 13478.00000  562.00000  996.00000
 13481.00000  573.00000  976.00000
 13484.00000  598.00000  959.00000
 13487.00000  626.00000  944.00000
 13490.00000  634.00000  939.00000
 13493.00000  596.00000  959.00000
 13496.00000  570.00000  989.00000
 13499.00000  552.00000 1015.00000
 13502.00000  528.00000 1046.00000
 13505.00000  516.00000 1081.00000
 13508.00000  534.00000 1080.00000
 13511.00000  568.00000 1049.00000
 13514.00000  610.00000 1026.00000
 13517.00000  635.00000 1025.00000
 13520.00000  614.00000 1018.00000
 13523.00000  588.00000  987.00000
 13526.00000  561.00000  955.00000
 13529.00000  565.00000  907.00000
 13532.00000  592.00000  856.00000
 13535.00000  602.00000  810.00000
 13538.00000  553.00000  772.00000
 13541.00000  512.00000  730.00000
 13544.00000  468.00000  695.00000
 13547.00000  402.00000  672.00000
 13550.00000  388.00000  672.00000
 13553.00000  414.00000  693.00000
 13556.00000  436.00000  710.00000
 13559.00000  467.00000  722.00000
 13562.00000  544.00000  758.00000
 13565.00000  610.00000  768.00000
 13568.00000  643.00000  797.00000
 13571.00000  638.00000  816.00000
 13574.00000  620.00000  832.00000
 13577.00000  627.00000  856.00000
 13580.00000  654.00000  879.00000
 13583.00000  659.00000  902.00000
 13586.00000  611.00000  925.00000
 13589.00000  572.00000  944.00000
 13592.00000  552.00000  948.00000
 13595.00000  555.00000  936.00000
 13598.00000  572.00000  924.00000
 13601.00000  595.00000  930.00000
 13604.00000  615.00000  949.00000
 13607.00000  638.00000  970.00000
 13610.00000  664.00000  996.00000
 13613.00000  668.00000 1025.00000
 13616.00000  642.00000 1051.00000
 13619.00000  627.00000 1069.00000
 13622.00000  608.00000 1042.00000
 13625.00000  610.00000 1013.00000
 13628.00000  622.00000  988.00000
 13631.00000  620.00000  962.00000
 13634.00000  594.00000  948.00000
 13637.00000  567.00000  940.00000
 13640.00000  547.00000  916.00000
 13643.00000  544.00000  896.00000
 13646.00000  558.00000  896.00000
 13649.00000  572.00000  880.00000
 13652.00000  568.00000  858.00000
 13655.00000  548.00000  833.00000
 13658.00000  528.00000  814.00000
 13661.00000  494.00000  794.00000
 13664.00000  465.00000  776.00000
 13667.00000  448.00000  762.00000
 13670.00000  436.00000  748.00000
 13673.00000  426.00000  728.00000
