~Version ---------------------------------------------------
VERS.   2.0 : CWLS log ASCII Standard -VERSION 2.0
WRAP.    NO : One line per depth step
DLM . SPACE : Column Data Section Delimiter
~Well ------------------------------------------------------
STRT..M  1061.00000 : START DEPTH
STOP..M 31307.00000 : STOP DEPTH
STEP..M     3.00000 : STEP
NULL.      -9999.25 : NULL VALUE
COMP.               : COMPANY
WELL.               : WELL
FLD .               : FIELD
LOC .               : LOCATION
PROV.               : PROVINCE
CNTY.               : COUNTY
STAT.               : STATE
CTRY.               : COUNTRY
SRVC.               : SERVICE COMPANY
DATE.               : DATE
UWI .               : UNIQUE WELL ID
API .               : API NUMBER
~Curve Information -----------------------------------------
DEPTH..M       : Depth
ГК   .имп/мин  : описание 1
НГК  .усл. ед  : описание 2
~Params ----------------------------------------------------
..M    0.0 : Start depth
..M 1920.0 : Stop depth
..M    0.2 : Step
..   -9999 : Null value
~Other -----------------------------------------------------
~ASCII -----------------------------------------------------
# ...
 26795.00000 9158593.15385 12513592.87500
 26798.00000 10824086.90909 5134903.69231
 26801.00000 10824379.90909 6906726.13793
 26804.00000 8505172.42857 7419499.55556
 26807.00000 5953977.20000 12521539.25000
 26810.00000 5954346.35000 3853929.30769
 26813.00000 5671128.04762 2638033.22368
 26816.00000 9924786.58333 6266413.40625
 26819.00000 7443890.43750 8022123.12000
 26822.00000 10827773.00000 22284800.33333
 26825.00000 6617276.88889 10557070.05263
 26828.00000 7941046.26667 18236037.18182
 26831.00000 7941358.26667 11800901.76471
 26834.00000 8508911.64286 10559814.57895
 26837.00000 9163755.30769 10032937.35000
 26840.00000 7445848.68750 11148835.66667
 26843.00000 10830618.36364 10563114.84211
 26846.00000 8510073.07143 3650134.03636
 26849.00000 9928727.08333 9126353.59091
 26852.00000 5957539.75000 20079008.40000
 26855.00000 9929530.41667 4366003.34783
 26858.00000 7447454.31250 5429015.35135
 26861.00000 7944258.26667 4464916.02222
 26864.00000 7448046.62500 14352600.28571
 26867.00000 8512363.78571 6280324.59375
 26870.00000 3972736.93333 25122344.87500
 26873.00000 6273041.52632 6281652.71875
 26876.00000 8513726.00000 12564393.93750
 26879.00000 9933003.83333 14360373.85714
 26882.00000 13244330.11111 20105577.90000
 26885.00000 7946915.06667 8043306.92000
 26888.00000 14900777.25000 6934998.27586
 26891.00000 14901194.75000 8045746.00000
 26894.00000 9170275.00000 4790269.02381
 26897.00000 11921657.00000 11178396.88889
 26900.00000 11922121.90000 8049571.76000
 26903.00000 10838596.63636 11181093.27778
 26906.00000 13247527.33333 15482645.76923
 26909.00000 9935952.00000 3005180.79104
 26912.00000 11923444.90000 14382983.14286
 26915.00000 9936510.58333 6713094.30000
 26918.00000 7452698.43750 10600615.57895
 26921.00000 5184936.56522 4685023.95349
 26924.00000 6625739.00000 5597086.33333
 26927.00000 4587378.57692 3732467.37037
 26930.00000 5679914.57143 14397712.35714
 26933.00000 4418051.77778 10609904.05263
 26936.00000 6627534.55556 6720700.30000
 26939.00000 8521424.35714 3601426.69643
 26942.00000 9941959.25000 16807741.41667
 26945.00000 9942256.75000 4691625.48837
 26948.00000 7954111.40000 18341116.54545
 26951.00000 14914272.37500 7760801.65385
 26954.00000 10847355.72727 2968490.61765
 26957.00000 10847668.72727 4038351.74000
 26960.00000 7019401.76471 6311099.06250
 26963.00000 5188572.47826 13464810.00000
 26966.00000 11934020.20000 5941509.85294
 26969.00000 10849413.27273 9620759.38095
 26972.00000 7956548.40000 5613283.13889
 26975.00000 8525194.78571 7218278.82143
 26978.00000 7459863.93750 12633115.43750
 26981.00000 6282294.68421 10107630.85000
 26984.00000 7460528.43750 6971894.89655
 26987.00000 6631896.33333 6973003.89655
 26990.00000 6283171.15789 7778725.76923
 26993.00000 4116870.41379 3678406.81818
 26996.00000 7023202.58824 7782471.69231
 26999.00000 6633343.16667 6978563.51724
 27002.00000 6284543.84211 7496658.14815
 27005.00000 7960797.13333 3681335.49091
 27008.00000 8529751.00000 7788575.00000
 27011.00000 10856374.72727 6751286.56667
 27014.00000 6635051.05556 4134610.24490
 27017.00000 9952896.08333 4503285.15556
 27020.00000 9187614.69231 6142067.24242
 27023.00000 3318060.25000 5335124.00000
 27026.00000 10859399.27273 9655196.90476
 27029.00000 6287559.31579 2897756.57143
 27032.00000 8533422.71429 12678911.50000
 27035.00000 9955968.33333 13525370.26667
 27038.00000 11947459.10000 3382570.03333
 27041.00000 10861621.45455 3904193.92308
 27044.00000 8534434.64286 8121902.36000
 27047.00000 10862319.72727 4415293.78261
 27050.00000 11948861.20000 5974854.26471
 27053.00000 7966220.46667 5079866.62500
 27056.00000 9192113.84615 15631612.84615
 27059.00000 5690666.33333 5211761.61538
 27062.00000 9192917.84615 10164153.75000
 27065.00000 6290248.78947 3506057.27586
 27068.00000 6290562.78947 4960957.34146
 27071.00000 13280372.88889 1654849.62602
 27074.00000 9960575.16667 8143118.16000
 27077.00000 7968765.13333 6363035.56250
 27080.00000 7969082.13333 3133748.89231
 27083.00000 14942351.50000 11983188.05882
 27086.00000 7032021.82353 7276694.53571
 27089.00000 5197915.34783 3135772.10769
 27092.00000 6642102.22222 9707200.28571
 27095.00000 19926617.16667 8155284.24000
 27098.00000 6642569.50000 7552382.11111
 27101.00000 10869982.18182 5998655.41176
 27104.00000 17081723.57143 11332001.72222
 27107.00000 10870508.72727 7286055.75000
 27110.00000 4982623.00000 4534725.80000
 27113.00000 6643789.83333 6803310.06667
 27116.00000 5979711.35000 4003156.09804
 27119.00000 9966499.08333 4641195.11364
 27122.00000 17085741.00000 6007418.08824
 27125.00000 13289220.66667 7566018.85185
 27128.00000 5695698.28571 8512856.70833
 27131.00000 9201134.69231 4007169.15686
 27134.00000 9201467.69231 6194050.78788
 27137.00000 6645844.94444 5841257.02857
 27140.00000 5981589.95000 7302679.78571
 27143.00000 7975763.26667 8180087.36000
 27146.00000 7477585.56250 5244734.74359
 27149.00000 13293802.44444 3527703.48276
 27152.00000 14955847.25000 3528848.72414
 27155.00000 10877301.81818 6020956.26471
 27158.00000 7478569.37500 8901646.08696
 27161.00000 9971833.33333 12797185.75000
 27164.00000 5203012.65217 6399667.37500
 27167.00000 7978273.73333 4453054.97826
 27170.00000 8548457.92857 12803659.56250
 27173.00000 8548752.42857 2594300.25316
 27176.00000 4127289.58621 5124957.50000
 27179.00000 6649836.61111 10790609.21053
 27182.00000 3420213.97143 3943920.09615
 27185.00000 7041902.00000 3870634.54717
 27188.00000 5700923.33333 3800047.62963
 27191.00000 7482775.37500 5131144.80000
 27194.00000 9977343.33333 3158762.50769
 27197.00000 9210165.38462 9778302.04762
 27200.00000 11973529.50000 4465171.95652
 27203.00000 8552827.57143 5552438.86486
 27206.00000 17105954.14286 5011829.41463
 27209.00000 7043933.17647 5138207.65000
 27212.00000 8553664.92857 5710243.02778
 27215.00000 7484773.31250 20558014.40000
 27218.00000 19959702.00000 10821138.57895
 27221.00000 8554467.50000 6854521.26667
 27224.00000 6653790.22222 7092059.82759
 27227.00000 4277742.07143 13712497.66667
 27230.00000 13308824.88889 12856642.06250
 27233.00000 6654935.61111 5878520.08571
 27236.00000 14973909.62500 15828009.84615
 27239.00000 23958562.40000 6236488.60606
 27242.00000 13310616.44444 17151537.16667
 27245.00000 17113948.71429 6433038.93750
 27248.00000 7986812.40000 15836396.76923
 27251.00000 8557611.50000 7626140.77778
 27254.00000 11980976.60000 4382139.48936
 27257.00000 9216698.30769 2861694.77778
 27260.00000 14977452.25000 7632292.07407
 27263.00000 7988498.13333 5725322.38889
 27266.00000 11983053.70000 2082961.45455
 27269.00000 19972057.66667 8593117.62500
 27272.00000 9986334.33333 7639170.77778
 27275.00000 10894494.90909 18751530.90909
 27278.00000 9218731.76923 7640334.59259
 27281.00000 17120806.85714 14735725.50000
 27284.00000 8560710.92857 6068431.20588
 27287.00000 7490936.56250 3821700.55556
 27290.00000 7050607.23529 15875617.15385
 27293.00000 5707935.42857 3686295.62500
 27296.00000 7991444.60000 2868069.31944
 27299.00000 3632774.81818 2909477.60563
 27302.00000 8563280.71429 7651909.25926
 27305.00000 5709193.04762 2719476.94737
 27308.00000 10899663.54545 3334589.87097
 27311.00000 6310630.52632 12922609.25000
 27314.00000 14988054.00000 7130780.44828
 27317.00000 17129511.57143 6894089.30000
 27320.00000 5995642.55000 29547107.00000
 27323.00000 8565525.14286 4497329.34783
 27326.00000 7054385.41176 12170314.11765
 27329.00000 7995402.73333 4498776.28261
 27332.00000 7995749.80000 5749381.97222
 27335.00000 7055386.35294 12937030.93750
 27338.00000 13327159.88889 7393522.60714
 27341.00000 9995727.33333 7668316.77778
 27344.00000 13327946.44444 13803937.20000
 27347.00000 5997893.40000 6680294.45161
 27350.00000 11996110.30000 11505951.05556
 27353.00000 9997073.08333 7142616.75862
 27356.00000 8569221.28571 8286422.44000
 27359.00000 11997198.30000 11509931.55556
 27362.00000 6314600.89474 7400246.21429
 27365.00000 3749607.34375 5756694.72222
 27368.00000 7058399.41176 5602041.37838
 27371.00000 11999600.50000 18844189.09091
