~Version ---------------------------------------------------
VERS.   2.0 : CWLS log ASCII Standard -VERSION 2.0
WRAP.    NO : One line per depth step
DLM . SPACE : Column Data Section Delimiter
~Well ------------------------------------------------------
STRT..M  1061.00000 : START DEPTH
STOP..M 31307.00000 : STOP DEPTH
STEP..M     3.00000 : STEP
NULL.      -9999.25 : NULL VALUE
COMP.               : COMPANY
WELL.               : WELL
FLD .               : FIELD
LOC .               : LOCATION
PROV.               : PROVINCE
CNTY.               : COUNTY
STAT.               : STATE
CTRY.               : COUNTRY
SRVC.               : SERVICE COMPANY
DATE.               : DATE
UWI .               : UNIQUE WELL ID
API .               : API NUMBER
~Curve Information -----------------------------------------
DEPTH..M       : Depth
ГК   .имп/мин  : описание 1
НГК  .усл. ед  : описание 2
~Params ----------------------------------------------------
..M    0.0 : Start depth
..M 1920.0 : Stop depth
..M    0.2 : Step
..   -9999 : Null value
~Other -----------------------------------------------------
~ASCII -----------------------------------------------------
# ...
 30851.00000  802.00000  691.00000
 30854.00000  802.00000  703.00000
 30857.00000  792.00000  708.00000
 30860.00000  797.00000  721.00000
 30863.00000  830.00000  728.00000
 30866.00000  816.00000  701.00000
 30869.00000  756.00000  656.00000
 30872.00000  764.00000  637.00000
 30875.00000  774.00000  646.00000
 30878.00000  794.00000  658.00000
 30881.00000  832.00000  648.00000
 30884.00000  876.00000  618.00000
 30887.00000  900.00000  611.00000
 30890.00000  924.00000  602.00000
 30893.00000  975.00000  584.00000
 30896.00000  980.00000  584.00000
 30899.00000  964.00000  598.00000
 30902.00000  998.00000  591.00000
 30905.00000  993.00000  584.00000
 30908.00000  949.00000  613.00000
 30911.00000  878.00000  699.00000
 30914.00000  780.00000  712.00000
 30917.00000  760.00000  812.00000
 30920.00000  738.00000  853.00000
 30923.00000  681.00000  836.00000
 30926.00000  610.00000  864.00000
 30929.00000  552.00000  856.00000
 30932.00000  520.00000  805.00000
 30935.00000  578.00000  754.00000
 30938.00000  514.00000  707.00000
 30941.00000  552.00000  670.00000
 30944.00000  585.00000  644.00000
 30947.00000  601.00000  648.00000
 30950.00000  604.00000  662.00000
 30953.00000  584.00000  658.00000
 30956.00000  587.00000  648.00000
 30959.00000  629.00000  644.00000
 30962.00000 -9999.00000  661.00000
 30965.00000  655.00000  674.00000
 30968.00000  623.00000  699.00000
 30971.00000  617.00000  765.00000
 30974.00000  536.00000  851.00000
 30977.00000  479.00000  896.00000
 30980.00000  454.00000  924.00000
 30983.00000  451.00000  920.00000
 30986.00000  462.00000  882.00000
 30989.00000  497.00000  862.00000
 30992.00000  523.00000  882.00000
 30995.00000  521.00000  930.00000
 30998.00000  498.00000  949.00000
 31001.00000  566.00000  915.00000
 31004.00000  491.00000  840.00000
 31007.00000  538.00000  781.00000
 31010.00000  548.00000  785.00000
 31013.00000  554.00000  788.00000
 31016.00000  578.00000  757.00000
 31019.00000  609.00000  705.00000
 31022.00000  652.00000  683.00000
 31025.00000  700.00000  692.00000
 31028.00000  718.00000  718.00000
 31031.00000  646.00000  754.00000
 31034.00000  565.00000  797.00000
 31037.00000  514.00000  823.00000
 31040.00000  508.00000  783.00000
 31043.00000  498.00000  788.00000
 31046.00000  482.00000  806.00000
 31049.00000  484.00000  812.00000
 31052.00000  501.00000  796.00000
 31055.00000  526.00000  761.00000
 31058.00000  550.00000  746.00000
 31061.00000  570.00000  726.00000
 31064.00000  576.00000  680.00000
 31067.00000  568.00000  666.00000
 31070.00000  575.00000  682.00000
 31073.00000  584.00000  708.00000
 31076.00000  556.00000  723.00000
 31079.00000  567.00000  714.00000
 31082.00000  610.00000  691.00000
 31085.00000  593.00000  696.00000
 31088.00000  580.00000  720.00000
 31091.00000  610.00000  726.00000
 31094.00000  665.00000  712.00000
 31097.00000  705.00000  691.00000
 31100.00000  740.00000  653.00000
 31103.00000  766.00000  626.00000
 31106.00000  866.00000  624.00000
 31109.00000 1014.00000  653.00000
 31112.00000 1169.00000  698.00000
 31115.00000 1202.00000  706.00000
 31118.00000 1220.00000  695.00000
 31121.00000 1206.00000  680.00000
 31124.00000 1178.00000  666.00000
 31127.00000 1155.00000  656.00000
 31130.00000 1148.00000  668.00000
 31133.00000 1155.00000  691.00000
 31136.00000 1184.00000  706.00000
 31139.00000 1174.00000  700.00000
 31142.00000 1147.00000  688.00000
 31145.00000 1128.00000  686.00000
 31148.00000 1119.00000  745.00000
 31151.00000 1148.00000  762.00000
 31154.00000 1162.00000  748.00000
 31157.00000 1155.00000  727.00000
 31160.00000 1130.00000  710.00000
 31163.00000 1102.00000  696.00000
 31166.00000 1110.00000  693.00000
 31169.00000 1137.00000  706.00000
 31172.00000 1182.00000  739.00000
 31175.00000 1194.00000  742.00000
 31178.00000 1180.00000  735.00000
 31181.00000 1126.00000  754.00000
 31184.00000 1104.00000  784.00000
 31187.00000 1098.00000  770.00000
 31190.00000 1126.00000  750.00000
 31193.00000 1116.00000  756.00000
 31196.00000 1102.00000  732.00000
 31199.00000 1110.00000  718.00000
 31202.00000 1158.00000  765.00000
 31205.00000 1198.00000  772.00000
 31208.00000 1208.00000  757.00000
 31211.00000 1195.00000  751.00000
 31214.00000 1152.00000  781.00000
 31217.00000 1215.00000  786.00000
 31220.00000 1236.00000  775.00000
 31223.00000 1230.00000  752.00000
 31226.00000 1163.00000  732.00000
 31229.00000 1170.00000  739.00000
 31232.00000 -9999.00000  772.00000
 31235.00000 1119.00000  793.00000
 31238.00000 1108.00000  787.00000
 31241.00000 1114.00000  763.00000
 31244.00000 1112.00000  752.00000
 31247.00000 1086.00000  772.00000
 31250.00000 1088.00000  789.00000
 31253.00000 1109.00000  780.00000
 31256.00000 1155.00000  754.00000
 31259.00000 1166.00000  762.00000
 31262.00000 1153.00000  761.00000
 31265.00000 1148.00000  752.00000
 31268.00000 1143.00000  730.00000
 31271.00000 1119.00000  726.00000
 31274.00000 1093.00000  750.00000
 31277.00000 1098.00000  769.00000
 31280.00000 1124.00000  766.00000
 31283.00000 1148.00000  760.00000
 31286.00000 1172.00000  780.00000
 31289.00000 1198.00000  797.00000
 31292.00000 1208.00000  785.00000
 31295.00000 1201.00000  760.00000
 31298.00000 1182.00000  761.00000
 31301.00000 1178.00000  774.00000
 31304.00000 1190.00000  764.00000
 31307.00000 1205.00000  746.00000
