~Version ---------------------------------------------------
VERS.   2.0 : CWLS log ASCII Standard -VERSION 2.0
WRAP.    NO : One line per depth step
DLM . SPACE : Column Data Section Delimiter
~Well ------------------------------------------------------
STRT..M  1061.00000 : START DEPTH
STOP..M 31307.00000 : STOP DEPTH
STEP..M     3.00000 : STEP
NULL.      -9999.25 : NULL VALUE
COMP.               : COMPANY
WELL.               : WELL
FLD .               : FIELD
LOC .               : LOCATION
PROV.               : PROVINCE
CNTY.               : COUNTY
STAT.               : STATE
CTRY.               : COUNTRY
SRVC.               : SERVICE COMPANY
DATE.               : DATE
UWI .               : UNIQUE WELL ID
API .               : API NUMBER
~Curve Information -----------------------------------------
DEPTH..M       : Depth
ГК   .имп/мин  : описание 1
НГК  .усл. ед  : описание 2
~Params ----------------------------------------------------
..M    0.0 : Start depth
..M 1920.0 : Stop depth
..M    0.2 : Step
..   -9999 : Null value
~Other -----------------------------------------------------
~ASCII -----------------------------------------------------
# ...
 13388.00000 888997.87037 4485267.46667
 13391.00000 1372141.71429 4205892.75000
 13394.00000 1549710.25806 1463896.71739
 13397.00000 5338397.88889 2694572.96000
 13400.00000 4368287.09091 2174025.77419
 13403.00000 1716632.28571 2407905.60714
 13406.00000 1144980.02381 2107833.90625
 13409.00000 729216.15152 2811327.75000
 13412.00000 669093.62500 4217856.12500
 13415.00000 1417567.64706 1227902.69091
 13418.00000 2191426.86364 1185757.38596
 13421.00000 3444289.00000 1409069.39583
 13424.00000 3709837.30769 1025803.24242
 13427.00000 1786828.96296 2257828.63333
 13430.00000 1787462.81481 2336744.79310
 13433.00000 3218079.06667 2118692.46875
 13436.00000 2194777.31818 2712906.36000
 13439.00000 2840913.05882 3570567.63158
 13442.00000 2841506.05882 7538801.00000
 13445.00000 2013304.95833 3231860.71429
 13448.00000 2101389.95652 3771465.66667
 13451.00000 2014361.37500 8486767.25000
 13454.00000 1791047.44444 5223585.00000
 13457.00000 2545668.68421 9701895.57143
 13460.00000 3455338.57143 3087931.27273
 13463.00000 3455839.07143 3397707.90000
 13466.00000 5376244.66667 3236914.28571
 13469.00000 2016596.25000 8497913.50000
 13472.00000 1467138.45455 4856958.07143
 13475.00000 1513532.03125 6800745.80000
 13478.00000 3027625.56250 4251462.62500
 13481.00000 1938253.36000 4859790.92857
 13484.00000 932451.07692 6186147.45455
 13487.00000 795502.32787 6805706.70000
 13490.00000 1078981.60000 6187945.09091
 13493.00000 1868064.65385 2002941.70588
 13496.00000 2313411.95238 2197763.77419
 13499.00000 2024787.08333 2065580.96970
 13502.00000 3037709.12500 1550231.22727
 13505.00000 2700701.38889 1844599.21622
 13508.00000 868616.08929 2069267.00000
 13511.00000 785124.96774 3252754.28571
 13514.00000 1036306.76596 4019134.35294
 13517.00000 1571809.77419 2971689.52174
 13520.00000 2215436.36364 2072195.54545
 13523.00000 1477545.57576 2974137.13043
 13526.00000 2868737.70588 2073838.45455
 13529.00000 1806807.29630 1245210.07273
 13532.00000 1435410.05882 1427658.79167
 13535.00000 1284916.76316 1632419.54762
 13538.00000 1320197.29730 2143323.15625
 13541.00000 1396149.17143 1559509.97727
 13544.00000 1136868.48837 2542118.66667
 13547.00000 679364.62500 3269110.28571
 13550.00000 1359116.75000 2861144.00000
 13553.00000 1687593.44828 3614769.63158
 13556.00000 1882752.26923 4293249.43750
 13559.00000 689925.57746 5284721.30769
 13562.00000 434036.86726 2216931.41935
 13565.00000 721877.55882 2546133.70370
 13568.00000 2338151.28571 1964957.17143
 13571.00000 2046520.87500 4585716.06667
 13574.00000 3508941.00000 2293689.53333
 13577.00000 1694598.55172 2549399.92593
 13580.00000 1170734.45238 2993652.82609
 13583.00000 806738.45902 2026019.58824
 13586.00000 1491854.81818 2756311.64000
 13589.00000 1539047.78125 2996934.91304
 13592.00000 2592632.47368 5303217.46154
 13595.00000 1970955.68000 5746087.75000
 13598.00000 1895722.19231 8620056.12500
 13601.00000 2465033.55000 2653255.46154
 13604.00000 1826565.74074 2760334.68000
 13607.00000 1644546.66667 2876319.12500
 13610.00000 1592160.48387 2227823.67742
 13613.00000 1828704.11111 1974240.25714
 13616.00000 3527429.00000 1868575.56757
 13619.00000 3799396.53846 3293321.19048
 13622.00000 4116621.41667 2162284.53125
 13625.00000 3088075.56250 2768737.20000
 13628.00000 2471081.95000 2663234.80769
 13631.00000 1901452.76923 3645388.57895
 13634.00000 2060500.75000 4948260.57143
 13637.00000 1978647.80000 2887424.83333
 13640.00000 4497473.81818 3150833.50000
 13643.00000 4947765.70000 5777423.58333
 13646.00000 2062126.54167 4622834.86667
 13649.00000 2250164.09091 3468006.65000
 13652.00000 1980712.40000 3153590.81818
 13655.00000 2606748.52632 3304594.80952
 13658.00000 1208533.41463 3856174.11111
 13661.00000 1457842.61765 3856968.61111
 13664.00000 1983130.96000 3019273.17391
 13667.00000 4131971.33333 4960997.00000
 13670.00000 2479619.30000 3308079.33333
 13673.00000 2755558.11111 3308807.33333
 13676.00000 2362331.00000 1390438.58000
 13679.00000 886323.62500 2318175.13333
 13682.00000 886818.12500 1987815.25714
 13685.00000 700001.18310 1513311.63043
 13688.00000 994585.18000 1741188.87500
 13691.00000 2763339.11111 6332497.90909
 13694.00000 2163219.21739 2111745.63636
 13697.00000 1605594.09677 1992015.40000
 13700.00000 1556058.78125 2405126.48276
 13703.00000 2621347.57895 2406124.06897
 13706.00000 2621940.57895 3489898.35000
 13709.00000 1779744.46429 5817528.75000
 13712.00000 1133142.15909 2328030.00000
 13715.00000 733814.22059 1704418.58537
 13718.00000 1559998.71875 2255174.03226
 13721.00000 1314307.18421 1748665.47500
 13724.00000 1561326.28125 2591487.51852
 13727.00000 2271599.54545 2187407.28125
 13730.00000 1136403.27273 1400797.16000
 13733.00000 981062.31373 1668516.16667
 13736.00000 1516831.21212 1752883.47500
 13739.00000 3129095.87500 3049460.56522
 13742.00000 3129726.37500 2126330.66667
 13745.00000 2504414.60000 2506951.07143
 13748.00000 808535.12903 1950737.36111
 13751.00000 660296.94737 1634022.46512
 13754.00000 478677.21905 2423673.89655
 13757.00000 698810.72222 2424460.89655
 13760.00000 1525372.93939 2197927.25000
 13763.00000 968734.63462 4138018.82353
 13766.00000 1799813.57143 4397389.50000
 13769.00000 1120567.42222 1020468.55072
 13772.00000 1201263.45238 1084108.60000
 13775.00000 970931.75000 1532778.08696
 13778.00000 1202818.47619 1356840.57692
 13781.00000 1296084.97436 2714626.65385
 13784.00000 3159963.62500 3361921.76190
 13787.00000 2528737.40000 4153867.17647
 13790.00000 2023762.92000 3210698.95455
 13793.00000 920646.23636 2019066.62857
 13796.00000 921354.72727 1607024.29545
 13799.00000 1584250.09375 2720557.00000
 13802.00000 1748786.03448 2081376.52941
 13805.00000 2415630.23810 4423841.62500
 13808.00000 1492657.41176 3371460.00000
 13811.00000 2307499.68182 3079221.56522
 13814.00000 2538913.15000 2951873.16667
 13817.00000 2539557.65000 3374540.33333
 13820.00000 2988345.11765 3544254.85000
 13823.00000 941420.81481 3731774.57895
 13826.00000 978309.80769 4432439.81250
 13829.00000 1542274.09091 4433378.31250
 13832.00000 2036468.80000 3378727.14286
 13835.00000 2995453.17647 2957315.75000
 13838.00000 1756606.31034 2958265.25000
 13841.00000 1084498.91489 2630489.11111
 13844.00000 1416465.08333 2537430.57143
 13847.00000 1275374.22500 2538329.28571
 13850.00000 1759672.86207 4181608.94118
 13853.00000 1546892.21212 2962810.50000
 13856.00000 912076.98214 3951252.50000
 13859.00000 516459.33333 2371567.00000
 13862.00000 527715.00000 2541743.14286
 13865.00000 595860.86047 3095047.00000
 13868.00000 754277.23529 1483788.85417
 13871.00000 1115752.60870 750496.92632
 13874.00000 2333682.77273 545142.49618
 13877.00000 2445537.52381 3968399.16667
 13880.00000 1253292.39024 1624371.52273
 13883.00000 1606450.46875 1117620.92188
 13886.00000 1353450.94737 1987694.13889
 13889.00000 578551.93258 3578632.95000
 13892.00000 1226679.59524 3409001.85714
 13895.00000 1321689.10256 4211898.94118
 13898.00000 955143.62963 3769302.15789
 13901.00000 806437.93750 3411060.00000
 13904.00000 1098616.42553 4776207.00000
 13907.00000 1986414.96154 1666860.72093
 13910.00000 1721983.13333 1379142.09615
 13913.00000 1845376.60714 1668615.74419
 13916.00000 2583899.75000 1560643.45652
 13919.00000 3040240.05882 3590351.45000
 13922.00000 1397233.29730 2317202.77419
 13925.00000 708603.21918 1796637.65000
 13928.00000 507615.11765 2246569.56250
 13931.00000 647748.76250 2996169.58333
 13934.00000 691527.01333 4794594.33333
 13937.00000 1265623.43902 11987198.33333
 13940.00000 405979.60938 3596877.00000
 13943.00000 896450.05172 1439490.30000
 13946.00000 1368698.36842 1800135.37500
 13949.00000 3467774.20000 2182784.27273
 13952.00000 2167770.20833 2573392.67857
 13955.00000 1734649.66667 3276053.54545
 13958.00000 1301450.75000 3604467.40000
 13961.00000 964530.09259 4241340.88235
 13964.00000 1184264.97727 3434239.42857
 13967.00000 1447976.47222 3136364.91304
 13970.00000 1133724.15217 4008311.88889
 13973.00000 1863026.32143 4244825.94118
 13976.00000 1304566.92500 3138227.04348
