~Version ---------------------------------------------------
VERS.   2.0 : CWLS log ASCII Standard -VERSION 2.0
WRAP.    NO : One line per depth step
DLM . SPACE : Column Data Section Delimiter
~Well ------------------------------------------------------
STRT..M  1061.00000 : START DEPTH
STOP..M 31307.00000 : STOP DEPTH
STEP..M     3.00000 : STEP
NULL.      -9999.25 : NULL VALUE
COMP.               : COMPANY
WELL.               : WELL
FLD .               : FIELD
LOC .               : LOCATION
PROV.               : PROVINCE
CNTY.               : COUNTY
STAT.               : STATE
CTRY.               : COUNTRY
SRVC.               : SERVICE COMPANY
DATE.               : DATE
UWI .               : UNIQUE WELL ID
API .               : API NUMBER
~Curve Information -----------------------------------------
DEPTH..M       : Depth
ГК   .имп/мин  : описание 1
НГК  .усл. ед  : описание 2
~Params ----------------------------------------------------
..M    0.0 : Start depth
..M 1920.0 : Stop depth
..M    0.2 : Step
..   -9999 : Null value
~Other -----------------------------------------------------
~ASCII -----------------------------------------------------
# ...
 17501.00000 2134218.31429 4683048.31818
 17504.00000 2334862.78125 3553629.34483
 17507.00000 2874257.76923 3817804.14815
 17510.00000 4396517.64706 5154954.10000
 17513.00000 7474678.50000 10310810.70000
 17516.00000 6229500.25000 5156311.85000
 17519.00000 4984202.20000 4911696.19048
 17522.00000 2077340.41667 3557669.51724
 17525.00000 2337566.46875 4486652.21739
 17528.00000 1969008.52632 4300581.87500
 17531.00000 3401530.22727 4915802.71429
 17534.00000 1740845.79070 4916633.71429
 17537.00000 1701840.61364 6884104.20000
 17540.00000 2080618.91667 2718239.05263
 17543.00000 3567389.28571 2952090.97143
 17546.00000 2204018.00000 6458567.43750
 17549.00000 1249605.03333 3975347.53846
 17552.00000 1071798.58571 4307442.00000
 17555.00000 715307.75238 4923581.85714
 17558.00000 404709.77957 3336098.64516
 17561.00000 271776.74101 1176017.07955
 17564.00000 525630.17361 1991043.25000
 17567.00000 537570.79433 2030985.31373
 17570.00000 583710.37692 3984769.30769
 17573.00000 1133154.49254 2960998.34286
 17576.00000 1726028.79545 3455348.43333
 17579.00000 3164910.62500 3987765.03846
 17582.00000 5843428.92308 3240855.59375
 17585.00000 2302484.87879 5186156.45000
 17588.00000 1617190.21277 4322603.54167
 17591.00000 1728038.65909 3458915.33333
 17594.00000 1311546.37931 2965646.57143
 17597.00000 3308023.82609 2884158.00000
 17600.00000 1103348.60870 7417318.78571
 17603.00000 581896.05344 3994837.38462
 17606.00000 1059508.04167 5467484.57895
 17609.00000 1659108.91304 6111573.05882
 17612.00000 1590685.87500 3711471.42857
 17615.00000 2314413.90909 2735644.92105
 17618.00000 1959042.23077 6497999.18750
 17621.00000 1777492.74419 3151396.00000
 17624.00000 2548389.10000 4160722.72000
 17627.00000 3058703.92000 5779664.05556
 17630.00000 1865713.17073 8003474.76923
 17633.00000 5464538.78571 5781147.83333
 17636.00000 1234616.61290 6504651.81250
 17639.00000 751188.25490 4731498.36364
 17642.00000 958567.92500 4526597.04348
 17645.00000 1218068.25397 3590845.00000
 17648.00000 1505555.54902 3471900.66667
 17651.00000 1829090.09524 9469546.00000
 17654.00000 1921483.12500 6511027.62500
 17657.00000 2745930.39286 5788276.61111
 17660.00000 1451610.20755 4341878.29167
 17663.00000 1262108.00000 2605802.47500
 17666.00000 896016.36047 2005174.94231
 17669.00000 1329277.44828 2173016.16667
 17672.00000 918408.98810 2426477.23256
 17675.00000 671319.46087 4969305.00000
 17678.00000 1979943.28205 4744208.00000
 17681.00000 5148251.53333 8698475.16667
 17684.00000 6435719.91667 3866753.96296
 17687.00000 -9999.00000 4746317.27273
 17690.00000 2032787.07895 7459236.07143
 17693.00000 2033239.57895 5802364.55556
 17696.00000 5151295.60000 4748120.68182
 17699.00000 5151701.60000 4542389.65217
 17702.00000 5944660.07692 3073470.50000
 17705.00000 11040462.00000 6147608.00000
 17708.00000 6440650.00000 6148290.00000
 17711.00000 6441034.50000 13065809.75000
 17714.00000 15458869.80000 8711228.33333
 17717.00000 7027141.00000 5227427.50000
 17720.00000 9662694.37500 4356897.08333
 17723.00000 15460681.00000 5809922.61111
 17726.00000 7027953.27273 6152422.76471
 17729.00000 2666157.37931 10459863.20000
 17732.00000 2274479.91176 8046780.76923
 17735.00000 1798862.97674 3375202.45161
 17738.00000 1459926.86792 3488482.70000
 17741.00000 1382219.00000 4186976.24000
 17744.00000 1683239.89130 4985313.52381
 17747.00000 2868300.03704 4362986.83333
 17750.00000 3872761.55000 4553539.91304
 17753.00000 11065572.00000 8728487.66667
 17756.00000 6455441.50000 5819866.27778
 17759.00000 2347968.27273 4365790.20833
 17762.00000 1649135.46809 4556516.17391
 17765.00000 4306653.44444 5516693.73684
 17768.00000 5168549.13333 6551982.31250
 17771.00000 8614798.44444 2621688.42500
 17774.00000 6461634.33333 3616978.96552
 17777.00000 7049579.18182 4995695.71429
 17780.00000 12924741.00000 4562118.39130
 17783.00000 5539690.21429 2998822.51429
 17786.00000 3525783.90909 6998126.53333
 17789.00000 5171686.73333 4564855.56522
 17792.00000 12929757.33333 7500241.07143
 17795.00000 5968125.30769 8751101.75000
 17798.00000 4310866.22222 15002699.71429
 17801.00000 1848055.42857 11669576.44444
 17804.00000 3375203.91304 7002564.86667
 17807.00000 3375670.91304 6565737.06250
 17810.00000 3376110.43478 10506023.80000
 17813.00000 4853580.25000 6180855.00000
 17816.00000 2427214.62500 6567997.93750
 17819.00000 1387434.35714 7006719.46667
 17822.00000 1340094.29310 7007589.46667
 17825.00000 2507786.19355 4043708.57692
 17828.00000 -9999.00000 6185333.47059
 17831.00000 4573485.94118 8763376.25000
 17834.00000 3887926.55000 7011505.00000
 17837.00000 -9999.00000 8765170.75000
 17840.00000 1994349.58974 3896431.00000
 17843.00000 2047409.39474 3628540.68966
 17846.00000 2593978.73333 3758989.92857
 17849.00000 4864309.62500 3396103.70968
 17852.00000 3892032.20000 2632905.87500
 17855.00000 5988307.84615 3098464.82353
 17858.00000 3114485.08000 3399205.32258
 17861.00000 1416266.76364 4582394.60870
 17864.00000 1367215.19298 3635139.96552
 17867.00000 2227286.60000 4217586.36000
 17870.00000 5997233.84615 3766547.60714
 17873.00000 7088330.00000 3767420.07143
 17876.00000 -9999.00000 3197500.84848
 17879.00000 15594989.00000 3404724.16129
 17882.00000 4874099.56250 3405655.16129
 17885.00000 6499474.91667 9598658.45455
 17888.00000 7091009.27273 7542704.57143
 17891.00000 5572169.78571 4224832.56000
 17894.00000 6001447.23077 4801886.59091
 17897.00000 8669390.44444 4802832.09091
 17900.00000 6002515.69231 2781494.50000
 17903.00000 1858568.02381 1678577.85714
 17906.00000 1473507.49057 1555920.94118
 17909.00000 1100685.22535 1392832.28947
 17912.00000 806452.06186 4234874.16000
 17915.00000 2301592.97059 1961284.44444
 17918.00000 3261342.58333 1558234.08824
 17921.00000 7827928.70000 2163247.32653
 17924.00000 2007804.30769 4818972.27273
 17927.00000 3405147.86957 4819779.77273
 17930.00000 4351612.77778 11782474.88889
 17933.00000 3406181.00000 4820903.86364
 17936.00000 6529068.08333 3031074.42857
 17939.00000 4897355.56250 3315985.40625
 17942.00000 2375051.42424 3423663.67742
 17945.00000 2449879.28125 9649193.72727
 17948.00000 2529509.61290 5055031.57143
 17951.00000 3564841.50000 3661248.10345
 17954.00000 5228928.20000 3318738.59375
 17957.00000 3268547.62500 2591011.29268
 17960.00000 7131828.63636 850740.76000
 17963.00000 6035079.23077 2086010.74510
 17966.00000 5604494.50000 1867349.24561
 17969.00000 1706239.15217 4258444.36000
 17972.00000 3140015.04000 1836426.50000
 17975.00000 2707425.51724 1665194.93750
 17978.00000 5234848.00000 1903985.60714
 17981.00000 1671201.25532 4443547.58333
 17984.00000 734624.05607 3809691.57143
 17987.00000 1062830.17568 3556670.63333
 17990.00000 1124204.82857 1271169.01190
 17993.00000 2018476.53846 2094542.13725
 17996.00000 1789760.70455 2544166.14286
 17999.00000 1969351.32500 2137842.04000
 18002.00000 2251266.22857 2486552.97674
 18005.00000 4635516.94118 4649428.21739
 18008.00000 3426809.65217 8912053.58333
 18011.00000 1460145.57407 8912714.08333
 18014.00000 1383902.77193 8227794.69231
 18017.00000 2076459.65789 6685773.68750
 18020.00000 2545912.74194 15282467.42857
 18023.00000 2255497.28571 6686782.00000
 18026.00000 2322353.94118 5350142.10000
 18029.00000 2134542.97297 13376082.75000
 18032.00000 3159598.60000 8918120.00000
 18035.00000 2194646.19444 5096813.57143
 18038.00000 1837880.20930 5097579.57143
 18041.00000 2026908.74359 5947958.66667
 18044.00000 2325538.08824 4461766.50000
 18047.00000 4162054.21053 11898856.00000
 18050.00000 3295507.08333 6300214.35294
 18053.00000 3296027.58333 5637857.89474
 18056.00000 2825663.00000 8927428.83333
 18059.00000 7912338.90000 3694910.48276
 18062.00000 4945697.31250 5103264.42857
 18065.00000 3165742.28000 4872039.36364
 18068.00000 3044493.46154 6699774.62500
 18071.00000 4947822.37500 9745835.72727
 18074.00000 2554224.77419 7147643.20000
 18077.00000 5656279.92857 8247963.61538
 18080.00000 3300002.12500 11914395.22222
 18083.00000 4950523.68750 4874724.27273
 18086.00000 2640790.80000 5958629.94444
