~Version ---------------------------------------------------
VERS.   2.0 : CWLS log ASCII Standard -VERSION 2.0
WRAP.    NO : One line per depth step
DLM . SPACE : Column Data Section Delimiter
~Well ------------------------------------------------------
STRT..M  1061.00000 : START DEPTH
STOP..M 31307.00000 : STOP DEPTH
STEP..M     3.00000 : STEP
NULL.      -9999.25 : NULL VALUE
COMP.               : COMPANY
WELL.               : WELL
FLD .               : FIELD
LOC .               : LOCATION
PROV.               : PROVINCE
CNTY.               : COUNTY
STAT.               : STATE
CTRY.               : COUNTRY
SRVC.               : SERVICE COMPANY
DATE.               : DATE
UWI .               : UNIQUE WELL ID
API .               : API NUMBER
~Curve Information -----------------------------------------
DEPTH..M       : Depth
ГК   .имп/мин  : описание 1
НГК  .усл. ед  : описание 2
~Params ----------------------------------------------------
..M    0.0 : Start depth
..M 1920.0 : Stop depth
..M    0.2 : Step
..   -9999 : Null value
~Other -----------------------------------------------------
~ASCII -----------------------------------------------------
# ...
 24668.00000  296.00000  910.00000
 24671.00000  302.00000  922.00000
 24674.00000  310.00000  949.00000
 24677.00000  318.00000  984.00000
 24680.00000  320.00000 1016.00000
 24683.00000  444.00000 1064.00000
 24686.00000  318.00000 1088.00000
 24689.00000  326.00000 1096.00000
 24692.00000  336.00000 1122.00000
 24695.00000  337.00000 1189.00000
 24698.00000  325.00000 1221.00000
 24701.00000  308.00000 1232.00000
 24704.00000  299.00000 1212.00000
 24707.00000  300.00000 1171.00000
 24710.00000  303.00000 1149.00000
 24713.00000  302.00000 1163.00000
 24716.00000  294.00000 1158.00000
 24719.00000  293.00000 1139.00000
 24722.00000  630.00000 1075.00000
 24725.00000  304.00000  939.00000
 24728.00000  302.00000  841.00000
 24731.00000  296.00000  801.00000
 24734.00000  290.00000  794.00000
 24737.00000  292.00000  820.00000
 24740.00000  307.00000  828.00000
 24743.00000  314.00000  832.00000
 24746.00000  310.00000  866.00000
 24749.00000  302.00000  879.00000
 24752.00000  297.00000  896.00000
 24755.00000  296.00000  921.00000
 24758.00000  300.00000  936.00000
 24761.00000  302.00000  948.00000
 24764.00000  303.00000  940.00000
 24767.00000  490.00000  890.00000
 24770.00000  300.00000  830.00000
 24773.00000  298.00000  786.00000
 24776.00000  298.00000  750.00000
 24779.00000  296.00000  718.00000
 24782.00000  296.00000  708.00000
 24785.00000  294.00000  730.00000
 24788.00000  293.00000  779.00000
 24791.00000  293.00000  821.00000
 24794.00000  293.00000  837.00000
 24797.00000  294.00000  842.00000
 24800.00000  300.00000  863.00000
 24803.00000  308.00000  893.00000
 24806.00000  314.00000  906.00000
 24809.00000  322.00000  913.00000
 24812.00000  336.00000  937.00000
 24815.00000  342.00000  986.00000
 24818.00000  339.00000 1047.00000
 24821.00000  324.00000 1107.00000
 24824.00000  315.00000 1160.00000
 24827.00000  314.00000 1204.00000
 24830.00000  316.00000 1233.00000
 24833.00000  317.00000 1230.00000
 24836.00000  315.00000 1193.00000
 24839.00000  312.00000 1170.00000
 24842.00000  308.00000 1133.00000
 24845.00000  394.00000 1049.00000
 24848.00000  298.00000  995.00000
 24851.00000  296.00000  979.00000
 24854.00000  302.00000 1000.00000
 24857.00000  310.00000 1026.00000
 24860.00000  319.00000 1054.00000
 24863.00000  387.00000 1082.00000
 24866.00000  334.00000 1092.00000
 24869.00000  350.00000 1076.00000
 24872.00000  354.00000 1038.00000
 24875.00000  344.00000 1024.00000
 24878.00000  333.00000 1042.00000
 24881.00000  332.00000 1044.00000
 24884.00000  322.00000 1016.00000
 24887.00000  301.00000  992.00000
 24890.00000  293.00000 1011.00000
 24893.00000  295.00000 1040.00000
 24896.00000  298.00000 1070.00000
 24899.00000  300.00000 1074.00000
 24902.00000  298.00000 1053.00000
 24905.00000  291.00000 1042.00000
 24908.00000  284.00000 1050.00000
 24911.00000  278.00000  997.00000
 24914.00000  280.00000  916.00000
 24917.00000  284.00000  866.00000
 24920.00000  290.00000  838.00000
 24923.00000  292.00000  824.00000
 24926.00000  287.00000  829.00000
 24929.00000  282.00000  881.00000
 24932.00000  282.00000  868.00000
 24935.00000  287.00000  892.00000
 24938.00000  294.00000  912.00000
 24941.00000  300.00000  934.00000
 24944.00000  305.00000  954.00000
 24947.00000  306.00000  964.00000
 24950.00000  300.00000  958.00000
 24953.00000  290.00000  948.00000
 24956.00000  289.00000  949.00000
 24959.00000  295.00000  964.00000
 24962.00000  303.00000  972.00000
 24965.00000  312.00000  969.00000
 24968.00000  322.00000  972.00000
 24971.00000  325.00000  982.00000
 24974.00000  320.00000 1000.00000
 24977.00000  306.00000 1006.00000
 24980.00000  304.00000  998.00000
 24983.00000  308.00000  990.00000
 24986.00000  310.00000  992.00000
 24989.00000  309.00000  975.00000
 24992.00000  302.00000  987.00000
 24995.00000  296.00000  966.00000
 24998.00000  288.00000  948.00000
 25001.00000  286.00000  894.00000
 25004.00000  294.00000  863.00000
 25007.00000  302.00000  872.00000
 25010.00000  306.00000  874.00000
 25013.00000  302.00000  858.00000
 25016.00000  298.00000  856.00000
 25019.00000  292.00000  868.00000
 25022.00000  290.00000  892.00000
 25025.00000  292.00000  910.00000
 25028.00000  294.00000  892.00000
 25031.00000  300.00000  847.00000
 25034.00000  308.00000  820.00000
 25037.00000  315.00000  807.00000
 25040.00000  322.00000  801.00000
 25043.00000  321.00000  801.00000
 25046.00000  316.00000  813.00000
 25049.00000  310.00000  830.00000
 25052.00000  302.00000  835.00000
 25055.00000  298.00000  845.00000
 25058.00000  300.00000  865.00000
 25061.00000  302.00000  902.00000
 25064.00000  306.00000  918.00000
 25067.00000  308.00000  908.00000
 25070.00000  310.00000  878.00000
 25073.00000  311.00000  860.00000
 25076.00000  314.00000  870.00000
 25079.00000  317.00000  892.00000
 25082.00000  320.00000  920.00000
 25085.00000  323.00000  947.00000
 25088.00000  324.00000  974.00000
 25091.00000  322.00000 1002.00000
 25094.00000  318.00000 1030.00000
 25097.00000  314.00000 1042.00000
 25100.00000  309.00000 1045.00000
 25103.00000  304.00000 1071.00000
 25106.00000  301.00000 1076.00000
 25109.00000  303.00000 1086.00000
 25112.00000  306.00000 1108.00000
 25115.00000  308.00000 1092.00000
 25118.00000  312.00000 1068.00000
 25121.00000  314.00000 1012.00000
 25124.00000  313.00000  970.00000
 25127.00000  308.00000  968.00000
 25130.00000  302.00000  990.00000
 25133.00000  302.00000 1021.00000
 25136.00000  306.00000 1030.00000
 25139.00000  313.00000 1007.00000
 25142.00000  322.00000  966.00000
 25145.00000  330.00000  966.00000
 25148.00000  340.00000 1004.00000
 25151.00000  338.00000 1050.00000
 25154.00000  326.00000 1087.00000
 25157.00000  326.00000 1137.00000
 25160.00000  334.00000 1160.00000
 25163.00000  344.00000 1136.00000
 25166.00000  338.00000 1147.00000
 25169.00000  310.00000 1146.00000
 25172.00000  296.00000 1166.00000
 25175.00000  291.00000 1192.00000
 25178.00000  293.00000 1181.00000
 25181.00000  297.00000 1154.00000
 25184.00000  306.00000 1091.00000
 25187.00000  319.00000 1094.00000
 25190.00000  336.00000 1140.00000
 25193.00000  358.00000 1173.00000
 25196.00000  393.00000 1104.00000
 25199.00000  408.00000 1025.00000
 25202.00000  388.00000  968.00000
 25205.00000  347.00000  895.00000
 25208.00000  326.00000  846.00000
 25211.00000  320.00000  860.00000
 25214.00000  314.00000  898.00000
 25217.00000  310.00000  942.00000
 25220.00000  307.00000  960.00000
 25223.00000  456.00000  918.00000
 25226.00000  302.00000  897.00000
 25229.00000  301.00000  942.00000
 25232.00000  300.00000  933.00000
 25235.00000  299.00000  898.00000
 25238.00000  298.00000  904.00000
 25241.00000  300.00000  948.00000
 25244.00000  304.00000 1001.00000
 25247.00000  402.00000 1067.00000
 25250.00000  300.00000 1124.00000
 25253.00000  294.00000 1111.00000
 25256.00000  293.00000  994.00000
 25259.00000  293.00000  893.00000
 25262.00000  296.00000  848.00000
 25265.00000  298.00000  773.00000
 25268.00000  298.00000  784.00000
 25271.00000  297.00000  784.00000
 25274.00000  296.00000  802.00000
 25277.00000  300.00000  836.00000
 25280.00000  307.00000  868.00000
 25283.00000  313.00000  937.00000
 25286.00000  313.00000  970.00000
 25289.00000  310.00000  972.00000
 25292.00000  310.00000  985.00000
 25295.00000  312.00000  982.00000
 25298.00000  316.00000  930.00000
 25301.00000  322.00000  898.00000
 25304.00000  329.00000  932.00000
 25307.00000  334.00000  987.00000
 25310.00000  331.00000  994.00000
 25313.00000  322.00000  952.00000
 25316.00000  310.00000  962.00000
 25319.00000  300.00000 1013.00000
 25322.00000  292.00000 1012.00000
 25325.00000  287.00000  898.00000
 25328.00000  284.00000  794.00000
 25331.00000  284.00000  772.00000
 25334.00000  288.00000  788.00000
 25337.00000  296.00000  815.00000
 25340.00000  299.00000  848.00000
 25343.00000  296.00000  864.00000
 25346.00000  290.00000  854.00000
 25349.00000  284.00000  827.00000
 25352.00000  284.00000  806.00000
