~Version ---------------------------------------------------
VERS.   2.0 : CWLS log ASCII Standard -VERSION 2.0
WRAP.    NO : One line per depth step
DLM . SPACE : Column Data Section Delimiter
~Well ------------------------------------------------------
STRT..M  1061.00000 : START DEPTH
STOP..M 31307.00000 : STOP DEPTH
STEP..M     3.00000 : STEP
NULL.      -9999.25 : NULL VALUE
COMP.               : COMPANY
WELL.               : WELL
FLD .               : FIELD
LOC .               : LOCATION
PROV.               : PROVINCE
CNTY.               : COUNTY
STAT.               : STATE
CTRY.               : COUNTRY
SRVC.               : SERVICE COMPANY
DATE.               : DATE
UWI .               : UNIQUE WELL ID
API .               : API NUMBER
~Curve Information -----------------------------------------
DEPTH..M       : Depth
ГК   .имп/мин  : описание 1
НГК  .усл. ед  : описание 2
~Params ----------------------------------------------------
..M    0.0 : Start depth
..M 1920.0 : Stop depth
..M    0.2 : Step
..   -9999 : Null value
~Other -----------------------------------------------------
~ASCII -----------------------------------------------------
# ...
 15050.00000  522.00000  938.00000
 15053.00000  540.00000  920.00000
 15056.00000  546.00000  922.00000
 15059.00000  528.00000  938.00000
 15062.00000  512.00000  960.00000
 15065.00000  508.00000  980.00000
 15068.00000  516.00000  994.00000
 15071.00000  532.00000 1009.00000
 15074.00000  564.00000 1012.00000
 15077.00000  593.00000 1012.00000
 15080.00000  689.00000 1022.00000
 15083.00000  762.00000 1020.00000
 15086.00000  812.00000 1007.00000
 15089.00000  799.00000  986.00000
 15092.00000  717.00000  988.00000
 15095.00000  636.00000 1010.00000
 15098.00000  574.00000 1028.00000
 15101.00000  535.00000  996.00000
 15104.00000  532.00000  959.00000
 15107.00000  554.00000  891.00000
 15110.00000  586.00000  827.00000
 15113.00000  613.00000  788.00000
 15116.00000  618.00000  766.00000
 15119.00000  584.00000  766.00000
 15122.00000  539.00000  780.00000
 15125.00000  506.00000  786.00000
 15128.00000  473.00000  762.00000
 15131.00000  445.00000  728.00000
 15134.00000  420.00000  708.00000
 15137.00000  400.00000  688.00000
 15140.00000  401.00000  698.00000
 15143.00000  412.00000  703.00000
 15146.00000  430.00000  680.00000
 15149.00000  444.00000  695.00000
 15152.00000  465.00000  715.00000
 15155.00000  477.00000  720.00000
 15158.00000  474.00000  697.00000
 15161.00000  444.00000  688.00000
 15164.00000  436.00000  698.00000
 15167.00000  446.00000  716.00000
 15170.00000  462.00000  741.00000
 15173.00000  464.00000  769.00000
 15176.00000  457.00000  796.00000
 15179.00000  441.00000  801.00000
 15182.00000 -9999.00000  779.00000
 15185.00000 -9999.00000  757.00000
 15188.00000  458.00000  736.00000
 15191.00000  471.00000  716.00000
 15194.00000  478.00000  730.00000
 15197.00000  488.00000  771.00000
 15200.00000  512.00000  818.00000
 15203.00000  533.00000  875.00000
 15206.00000  556.00000  920.00000
 15209.00000  564.00000  944.00000
 15212.00000  544.00000  933.00000
 15215.00000  510.00000  914.00000
 15218.00000  518.00000  894.00000
 15221.00000  549.00000  874.00000
 15224.00000  590.00000  855.00000
 15227.00000  628.00000  838.00000
 15230.00000  639.00000  894.00000
 15233.00000  616.00000  890.00000
 15236.00000  622.00000  925.00000
 15239.00000  648.00000  961.00000
 15242.00000  656.00000  991.00000
 15245.00000  603.00000 1022.00000
 15248.00000  532.00000 1048.00000
 15251.00000  488.00000 1069.00000
 15254.00000  466.00000 1082.00000
 15257.00000  466.00000 1098.00000
 15260.00000  481.00000 1090.00000
 15263.00000  528.00000 1047.00000
 15266.00000  572.00000  996.00000
 15269.00000  578.00000  936.00000
 15272.00000  533.00000  892.00000
 15275.00000  508.00000  860.00000
 15278.00000  482.00000  818.00000
 15281.00000  465.00000  787.00000
 15284.00000  448.00000  790.00000
 15287.00000  444.00000  818.00000
 15290.00000  458.00000  862.00000
 15293.00000  492.00000  907.00000
 15296.00000  550.00000  946.00000
 15299.00000  596.00000  976.00000
 15302.00000  604.00000 1005.00000
 15305.00000  555.00000 1030.00000
 15308.00000  526.00000 1054.00000
 15311.00000  496.00000 1078.00000
 15314.00000  486.00000 1098.00000
 15317.00000  495.00000 1117.00000
 15320.00000  515.00000 1128.00000
 15323.00000  519.00000 1127.00000
 15326.00000  530.00000 1124.00000
 15329.00000  549.00000 1132.00000
 15332.00000  574.00000 1147.00000
 15335.00000  566.00000 1165.00000
 15338.00000  532.00000 1174.00000
 15341.00000  496.00000 1144.00000
 15344.00000  477.00000 1082.00000
 15347.00000  494.00000 1026.00000
 15350.00000  532.00000  988.00000
 15353.00000  561.00000  935.00000
 15356.00000  544.00000  879.00000
 15359.00000  494.00000  827.00000
 15362.00000  516.00000  798.00000
 15365.00000  552.00000  823.00000
 15368.00000  581.00000  870.00000
 15371.00000  612.00000  914.00000
 15374.00000  637.00000  953.00000
 15377.00000  628.00000  990.00000
 15380.00000  602.00000 1013.00000
 15383.00000  578.00000 1017.00000
 15386.00000  556.00000 1029.00000
 15389.00000  533.00000 1052.00000
 15392.00000  522.00000 1081.00000
 15395.00000  513.00000 1108.00000
 15398.00000  510.00000 1130.00000
 15401.00000  525.00000 1146.00000
 15404.00000  536.00000 1129.00000
 15407.00000  509.00000 1099.00000
 15410.00000  488.00000 1072.00000
 15413.00000  494.00000 1057.00000
 15416.00000  499.00000 1053.00000
 15419.00000  497.00000 1044.00000
 15422.00000  531.00000 1028.00000
 15425.00000  564.00000 1007.00000
 15428.00000  610.00000  988.00000
 15431.00000  609.00000  976.00000
 15434.00000  547.00000  971.00000
 15437.00000  504.00000  960.00000
 15440.00000  502.00000  944.00000
 15443.00000  514.00000  926.00000
 15446.00000  537.00000  916.00000
 15449.00000  561.00000  933.00000
 15452.00000  561.00000  966.00000
 15455.00000  545.00000  993.00000
 15458.00000  529.00000 1022.00000
 15461.00000  516.00000 1057.00000
 15464.00000  512.00000 1086.00000
 15467.00000  516.00000 1101.00000
 15470.00000  529.00000 1113.00000
 15473.00000  544.00000 1134.00000
 15476.00000  554.00000 1124.00000
 15479.00000  558.00000 1072.00000
 15482.00000  564.00000 1064.00000
 15485.00000  581.00000 1076.00000
 15488.00000  597.00000 1074.00000
 15491.00000  591.00000 1035.00000
 15494.00000  574.00000  950.00000
 15497.00000  594.00000  857.00000
 15500.00000  532.00000  804.00000
 15503.00000  530.00000  772.00000
 15506.00000  548.00000  744.00000
 15509.00000  574.00000  745.00000
 15512.00000  598.00000  776.00000
 15515.00000  617.00000  846.00000
 15518.00000  616.00000  884.00000
 15521.00000  593.00000  947.00000
 15524.00000  604.00000  983.00000
 15527.00000  610.00000 1016.00000
 15530.00000  582.00000 1044.00000
 15533.00000  560.00000 1070.00000
 15536.00000  546.00000 1090.00000
 15539.00000  536.00000 1072.00000
 15542.00000  528.00000 1020.00000
 15545.00000  545.00000  971.00000
 15548.00000  586.00000  978.00000
 15551.00000  630.00000 1006.00000
 15554.00000  682.00000 1038.00000
 15557.00000  728.00000 1052.00000
 15560.00000  746.00000 1022.00000
 15563.00000  696.00000  987.00000
 15566.00000  655.00000  993.00000
 15569.00000  625.00000 1008.00000
 15572.00000  600.00000 1024.00000
 15575.00000  576.00000 1009.00000
 15578.00000  562.00000  966.00000
 15581.00000  546.00000  882.00000
 15584.00000  528.00000  832.00000
 15587.00000  512.00000  783.00000
 15590.00000  508.00000  754.00000
 15593.00000  522.00000  765.00000
 15596.00000  558.00000  787.00000
 15599.00000  602.00000  798.00000
 15602.00000  681.00000  809.00000
 15605.00000  797.00000  826.00000
 15608.00000  861.00000  840.00000
 15611.00000  902.00000  858.00000
 15614.00000  805.00000  874.00000
 15617.00000  699.00000  875.00000
 15620.00000  584.00000  825.00000
 15623.00000  511.00000  787.00000
 15626.00000  498.00000  806.00000
 15629.00000  485.00000  712.00000
 15632.00000  464.00000  686.00000
 15635.00000  452.00000  696.00000
 15638.00000  477.00000  740.00000
 15641.00000  538.00000  800.00000
 15644.00000  598.00000  847.00000
 15647.00000  667.00000  908.00000
 15650.00000  722.00000  961.00000
 15653.00000  703.00000 1004.00000
 15656.00000  650.00000 1044.00000
 15659.00000  596.00000 1054.00000
 15662.00000  569.00000 1032.00000
 15665.00000  579.00000 1005.00000
 15668.00000  606.00000  981.00000
 15671.00000  608.00000  965.00000
 15674.00000  576.00000  984.00000
 15677.00000  556.00000 1026.00000
 15680.00000  535.00000 1068.00000
 15683.00000  519.00000 1105.00000
 15686.00000  510.00000 1136.00000
 15689.00000  515.00000 1165.00000
 15692.00000  528.00000 1183.00000
 15695.00000  535.00000 1180.00000
 15698.00000  531.00000 1164.00000
 15701.00000  532.00000 1149.00000
 15704.00000  529.00000 1154.00000
 15707.00000  501.00000 1111.00000
 15710.00000  487.00000 1118.00000
 15713.00000  494.00000 1138.00000
 15716.00000  512.00000 1153.00000
 15719.00000  528.00000 1169.00000
 15722.00000  532.00000 1184.00000
 15725.00000  528.00000 1180.00000
 15728.00000  520.00000 1164.00000
 15731.00000  520.00000 1136.00000
 15734.00000  534.00000 1098.00000
