~Version ---------------------------------------------------
VERS.   2.0 : CWLS log ASCII Standard -VERSION 2.0
WRAP.    NO : One line per depth step
DLM . SPACE : Column Data Section Delimiter
~Well ------------------------------------------------------
STRT..M  1061.00000 : START DEPTH
STOP..M 31307.00000 : STOP DEPTH
STEP..M     3.00000 : STEP
NULL.      -9999.25 : NULL VALUE
COMP.               : COMPANY
WELL.               : WELL
FLD .               : FIELD
LOC .               : LOCATION
PROV.               : PROVINCE
CNTY.               : COUNTY
STAT.               : STATE
CTRY.               : COUNTRY
SRVC.               : SERVICE COMPANY
DATE.               : DATE
UWI .               : UNIQUE WELL ID
API .               : API NUMBER
~Curve Information -----------------------------------------
DEPTH..M       : Depth
ГК   .имп/мин  : описание 1
НГК  .усл. ед  : описание 2
~Params ----------------------------------------------------
..M    0.0 : Start depth
..M 1920.0 : Stop depth
..M    0.2 : Step
..   -9999 : Null value
~Other -----------------------------------------------------
~ASCII -----------------------------------------------------
# ...
 30845.00000 7977013.00000 6786783.88889
 30848.00000 11045856.23077 9773635.80000
 30851.00000 8975559.68750 9050353.77778
 30854.00000 10258584.00000 30545647.25000
 30857.00000 8977052.50000 15273531.12500
 30860.00000 5320531.81481 7883833.83871
 30863.00000 8979226.93750 13578442.33333
 30866.00000 4635255.61290 6432595.02632
 30869.00000 6532252.45455 7639362.21875
 30872.00000 5133247.57143 27162813.77778
 30875.00000 13067222.36364 12223912.70000
 30878.00000 3686420.82051 22225953.81818
 30881.00000 1892547.46053 9780067.68000
 30884.00000 3425486.19048 9404529.53846
 30887.00000 7993700.61111 34931720.71429
 30890.00000 2321676.29032 12226703.75000
 30893.00000 1920227.40000 17467303.14286
 30896.00000 2323836.22581 16303400.26667
 30899.00000 3351611.58140 34936455.71429
 30902.00000 2529406.91228 16304270.33333
 30905.00000 2152876.13433 9406894.30769
 30908.00000 12021174.00000 4796284.60784
 30911.00000 1046197.66667 7644778.06250
 30914.00000 4125788.05714 2146614.11404
 30917.00000 24067857.50000 2353831.75000
 30920.00000 2888881.32000 11657924.52381
 30923.00000 1700022.87059 9416851.46154
 30926.00000 1606186.65556 11659822.66667
 30929.00000 2891687.48000 7420743.15152
 30932.00000 7610223.89474 6122917.72500
 30935.00000 10328738.64286 5832104.71429
 30938.00000 7611163.52632 8447203.24138
 30941.00000 8507147.00000 10651491.52174
 30944.00000 6887323.04762 12249859.75000
 30947.00000 8035811.61111 8167221.66667
 30950.00000 12054320.91667 40836769.83333
 30953.00000 4520954.84375 24502719.40000
 30956.00000 3910602.00000 17502590.92857
 30959.00000 10335791.07143 17503234.42857
 30962.00000 -9999.00000 7207875.55882
 30965.00000 4824023.93333 30634145.62500
 30968.00000 5169219.71429 4539090.50000
 30971.00000 3290120.00000 1900849.39535
 30974.00000 2585630.05357 3893066.09524
 30977.00000 3532071.26829 5110544.77083
 30980.00000 10344376.50000 10222014.04167
 30983.00000 13166021.09091 8762645.82143
 30986.00000 6034887.91667 10223968.54167
 30989.00000 3219104.35556 16359211.66667
 30992.00000 6898603.76190 5577885.47727
 30995.00000 6899124.76190 7917928.70968
 30998.00000 4674098.64516 14439524.88235
 31001.00000 9660370.26667 3897294.23810
 31004.00000 5796712.68000 5846780.97619
 31007.00000 5176174.82143 6463012.78947
 31010.00000 14493838.00000 8469560.37931
 31013.00000 8052686.72222 12281651.05000
 31016.00000 3294858.70455 6299039.69231
 31019.00000 4393753.84848 7925303.41935
 31022.00000 2636904.29091 35098455.28571
 31025.00000 2901294.62000 10237740.95833
 31028.00000 6045082.29167 7926710.67742
 31031.00000 1134098.42969 4096220.98333
 31034.00000 1466874.03030 12289459.80000
 31037.00000 16136128.33333 11705070.57143
 31040.00000 9682185.00000 27312614.33333
 31043.00000 8068985.00000 12291464.95000
 31046.00000 8544113.17647 17560041.14286
 31049.00000 5587020.03846 18911625.53846
 31052.00000 4686388.77419 5854393.88095
 31055.00000 5010114.00000 5855154.66667
 31058.00000 4540966.31250 15370526.50000
 31061.00000 4844266.90000 4730119.26923
 31064.00000 8074354.66667 8482273.10345
 31067.00000 4404761.45455 12947292.89474
 31070.00000 3093279.85106 11182434.45455
 31073.00000 3093863.72340 8483934.13793
 31076.00000 4847609.66667 14473316.52941
 31079.00000 2744497.24528 9113542.92593
 31082.00000 8081629.16667 18928818.61538
 31085.00000 48490367.66667 8789075.57143
 31088.00000 6061876.45833 13672615.77778
 31091.00000 3637736.32500 15382418.25000
 31094.00000 2172448.19403 9466816.03846
 31097.00000 4695996.41935 8488181.31034
 31100.00000 4160051.11429 12956298.15789
 31103.00000 1655332.28409 20514764.50000
 31106.00000 779845.76471 11723346.57143
 31109.00000 529388.20290 7942274.90323
 31112.00000 1198800.83607 8793931.14286
 31115.00000 2438764.16667 17588567.78571
 31118.00000 8130433.38889 17589262.50000
 31121.00000 5855118.04000 27361755.11111
 31124.00000 5228962.46429 24626245.10000
 31127.00000 3958207.67568 20522527.41667
 31130.00000 6103384.33333 9851481.56000
 31133.00000 2930779.10000 8796656.21429
 31136.00000 12212763.08333 24631343.90000
 31139.00000 6107556.04167 15395289.43750
 31142.00000 3576301.75610 16422330.06667
 31145.00000 12220159.50000 10264642.79167
 31148.00000 6111198.45833 5475221.15556
 31151.00000 6985374.80952 24639257.70000
 31154.00000 14670449.60000 12968778.36842
 31157.00000 14671604.50000 24641405.90000
 31160.00000 5060303.96552 17601714.71429
 31163.00000 6989140.80952 20536030.08333
 31166.00000 4448745.06061 16429517.06667
 31169.00000 5873480.48000 6161775.40000
 31172.00000 3264226.71111 8499739.24138
 31175.00000 3866726.13158 12974028.21053
 31178.00000 2261727.58462 16434504.06667
 31181.00000 2626345.05357 9482199.15385
 31184.00000 8652593.58824 17610582.92857
 31187.00000 5884861.80000 7953936.48387
 31190.00000 9809229.00000 15411502.43750
 31193.00000 4747517.12903 15412257.93750
 31196.00000 8658339.11765 11743404.33333
 31199.00000 5662331.23077 9485774.84615
 31202.00000 3272727.51111 8505252.65517
 31205.00000 4208990.94286 17618794.85714
 31208.00000 8185357.55556 18974843.76923
 31211.00000 5894652.44000 11747082.85714
 31214.00000 5895804.24000 14511883.35294
 31217.00000 5083804.37931 27412121.22222
 31220.00000 11342030.38462 11748826.95238
 31223.00000 6411942.82609 22430330.72727
 31226.00000 5268115.96429 17624563.78571
 31229.00000 10537402.42857 9139401.70370
 31232.00000 -9999.00000 9491688.65385
 31235.00000 12294755.25000 22435693.45455
 31238.00000 9222173.93750 12989872.68421
 31241.00000 6708149.09091 12990635.68421
 31244.00000 7380076.50000 12991387.68421
 31247.00000 9226182.12500 17631941.50000
 31250.00000 7382033.20000 18989033.69231
 31253.00000 7031616.52381 8817116.57143
 31256.00000 4475820.06061 20574026.50000
 31259.00000 6714896.59091 30861801.25000
 31262.00000 8691019.17647 27433473.22222
 31265.00000 18469564.25000 17636555.71429
 31268.00000 8692702.64706 30864703.00000
 31271.00000 4223288.94286 12346607.70000
 31274.00000 7039907.90476 16462893.60000
 31277.00000 4929034.03333 22450169.36364
 31280.00000 4482064.03030 18997063.15385
 31283.00000 5283581.10714 20580911.25000
 31286.00000 6165349.45833 11761300.57143
 31289.00000 6166547.70833 18999821.00000
 31292.00000 10572432.14286 9148846.96296
 31295.00000 6436594.47826 13001753.05263
 31298.00000 7792849.00000 15440342.87500
 31301.00000 9255186.68750 27450272.33333
 31304.00000 7405338.85000 9502781.84615
 31307.00000 13465457.36364 17648768.92857
