~Version ---------------------------------------------------
VERS.   2.0 : CWLS log ASCII Standard -VERSION 2.0
WRAP.    NO : One line per depth step
DLM . SPACE : Column Data Section Delimiter
~Well ------------------------------------------------------
STRT..M  1061.00000 : START DEPTH
STOP..M 31307.00000 : STOP DEPTH
STEP..M     3.00000 : STEP
NULL.      -9999.25 : NULL VALUE
COMP.               : COMPANY
WELL.               : WELL
FLD .               : FIELD
LOC .               : LOCATION
PROV.               : PROVINCE
CNTY.               : COUNTY
STAT.               : STATE
CTRY.               : COUNTRY
SRVC.               : SERVICE COMPANY
DATE.               : DATE
UWI .               : UNIQUE WELL ID
API .               : API NUMBER
~Curve Information -----------------------------------------
DEPTH..M       : Depth
ГК   .имп/мин  : описание 1
НГК  .усл. ед  : описание 2
~Params ----------------------------------------------------
..M    0.0 : Start depth
..M 1920.0 : Stop depth
..M    0.2 : Step
..   -9999 : Null value
~Other -----------------------------------------------------
~ASCII -----------------------------------------------------
# ...
 26729.00000  318.00000  882.00000
 26732.00000  320.00000  924.00000
 26735.00000  318.00000  940.00000
 26738.00000  321.00000  968.00000
 26741.00000  331.00000 1012.00000
 26744.00000  334.00000 1064.00000
 26747.00000  330.00000 1110.00000
 26750.00000  328.00000 1105.00000
 26753.00000  321.00000 1105.00000
 26756.00000  306.00000 1133.00000
 26759.00000  299.00000 1128.00000
 26762.00000  300.00000 1042.00000
 26765.00000  310.00000 1025.00000
 26768.00000  320.00000 1043.00000
 26771.00000  313.00000 1060.00000
 26774.00000  298.00000 1040.00000
 26777.00000  297.00000 1002.00000
 26780.00000  306.00000 1006.00000
 26783.00000  320.00000  976.00000
 26786.00000  319.00000  963.00000
 26789.00000  308.00000 1030.00000
 26792.00000  312.00000 1094.00000
 26795.00000  310.00000 1116.00000
 26798.00000  295.00000 1122.00000
 26801.00000  293.00000 1166.00000
 26804.00000  302.00000 1164.00000
 26807.00000  356.00000 1134.00000
 26810.00000  369.00000 1148.00000
 26813.00000  322.00000 1134.00000
 26816.00000  312.00000 1084.00000
 26819.00000  300.00000 1114.00000
 26822.00000  296.00000 1125.00000
 26825.00000  304.00000 1112.00000
 26828.00000  314.00000 1098.00000
 26831.00000  312.00000 1113.00000
 26834.00000  314.00000 1113.00000
 26837.00000  312.00000 1114.00000
 26840.00000  298.00000 1128.00000
 26843.00000  293.00000 1060.00000
 26846.00000  302.00000 1058.00000
 26849.00000  308.00000 1018.00000
 26852.00000  304.00000 1030.00000
 26855.00000  298.00000 1002.00000
 26858.00000  306.00000 1011.00000
 26861.00000  307.00000 1059.00000
 26864.00000  304.00000 1084.00000
 26867.00000  310.00000 1062.00000
 26870.00000  300.00000 1046.00000
 26873.00000  299.00000 1066.00000
 26876.00000  312.00000 1088.00000
 26879.00000  324.00000 1066.00000
 26882.00000  325.00000 1054.00000
 26885.00000  317.00000 1076.00000
 26888.00000  312.00000 1113.00000
 26891.00000  418.00000 1148.00000
 26894.00000  309.00000 1134.00000
 26897.00000  300.00000 1102.00000
 26900.00000  465.00000 1126.00000
 26903.00000  304.00000 1132.00000
 26906.00000  354.00000 1132.00000
 26909.00000  306.00000 1085.00000
 26912.00000  302.00000 1046.00000
 26915.00000  306.00000 1036.00000
 26918.00000  316.00000  993.00000
 26921.00000  451.00000 1031.00000
 26924.00000  542.00000 1086.00000
 26927.00000  328.00000 1076.00000
 26930.00000  303.00000 1052.00000
 26933.00000  340.00000 1063.00000
 26936.00000  457.00000 1094.00000
 26939.00000  308.00000 1052.00000
 26942.00000  298.00000 1084.00000
 26945.00000  298.00000 1093.00000
 26948.00000  306.00000 1126.00000
 26951.00000  314.00000 1098.00000
 26954.00000  612.00000 1125.00000
 26957.00000  313.00000 1204.00000
 26960.00000  322.00000 1174.00000
 26963.00000  319.00000 1132.00000
 26966.00000  304.00000 1152.00000
 26969.00000  304.00000 1172.00000
 26972.00000  312.00000 1174.00000
 26975.00000  322.00000 1200.00000
 26978.00000  318.00000 1128.00000
 26981.00000  304.00000 1138.00000
 26984.00000  304.00000 1115.00000
 26987.00000  316.00000 1109.00000
 26990.00000  322.00000 1144.00000
 26993.00000  310.00000 1191.00000
 26996.00000  306.00000 1226.00000
 26999.00000  318.00000 1175.00000
 27002.00000  324.00000 1164.00000
 27005.00000  375.00000 1158.00000
 27008.00000  326.00000 1135.00000
 27011.00000  328.00000 1188.00000
 27014.00000  600.00000 1169.00000
 27017.00000  320.00000 1154.00000
 27020.00000  326.00000 1224.00000
 27023.00000  310.00000 1224.00000
 27026.00000  293.00000 1163.00000
 27029.00000  539.00000 1198.00000
 27032.00000  306.00000 1226.00000
 27035.00000  308.00000 1198.00000
 27038.00000  297.00000 1227.00000
 27041.00000  295.00000 1228.00000
 27044.00000  304.00000 1179.00000
 27047.00000  312.00000 1216.00000
 27050.00000  310.00000 1222.00000
 27053.00000  313.00000 1240.00000
 27056.00000  321.00000 1254.00000
 27059.00000  310.00000 1224.00000
 27062.00000  303.00000 1219.00000
 27065.00000  358.00000 1177.00000
 27068.00000  314.00000 1169.00000
 27071.00000  296.00000 1197.00000
 27074.00000  296.00000 1258.00000
 27077.00000  305.00000 1224.00000
 27080.00000  317.00000 1178.00000
 27083.00000  322.00000 1207.00000
 27086.00000  327.00000 1188.00000
 27089.00000  334.00000 1196.00000
 27092.00000  322.00000 1239.00000
 27095.00000  310.00000 1236.00000
 27098.00000  364.00000 1193.00000
 27101.00000  323.00000 1176.00000
 27104.00000  323.00000 1208.00000
 27107.00000  321.00000 1198.00000
 27110.00000  306.00000 1180.00000
 27113.00000  292.00000 1221.00000
 27116.00000  300.00000 1209.00000
 27119.00000  314.00000 1173.00000
 27122.00000  314.00000 1166.00000
 27125.00000  311.00000 1122.00000
 27128.00000  318.00000 1086.00000
 27131.00000  391.00000 1119.00000
 27134.00000  333.00000 1153.00000
 27137.00000  340.00000 1152.00000
 27140.00000  330.00000 1108.00000
 27143.00000  310.00000 1086.00000
 27146.00000  308.00000 1089.00000
 27149.00000  317.00000 1072.00000
 27152.00000  320.00000 1145.00000
 27155.00000  322.00000 1156.00000
 27158.00000  424.00000 1102.00000
 27161.00000  408.00000 1070.00000
 27164.00000  317.00000 1074.00000
 27167.00000  321.00000 1112.00000
 27170.00000  308.00000 1126.00000
 27173.00000  294.00000 1154.00000
 27176.00000  306.00000 1214.00000
 27179.00000  314.00000 1225.00000
 27182.00000  298.00000 1198.00000
 27185.00000  285.00000 1128.00000
 27188.00000  336.00000 1092.00000
 27191.00000  314.00000 1080.00000
 27194.00000  310.00000 1135.00000
 27197.00000  310.00000 1180.00000
 27200.00000  314.00000 1164.00000
 27203.00000  306.00000 1144.00000
 27206.00000  299.00000 1092.00000
 27209.00000  305.00000 1082.00000
 27212.00000  318.00000 1123.00000
 27215.00000  316.00000 1140.00000
 27218.00000  306.00000 1131.00000
 27221.00000  310.00000 1134.00000
 27224.00000  316.00000 1176.00000
 27227.00000  306.00000 1182.00000
 27230.00000  294.00000 1176.00000
 27233.00000  523.00000 1198.00000
 27236.00000  304.00000 1225.00000
 27239.00000  307.00000 1212.00000
 27242.00000  304.00000 1194.00000
 27245.00000  299.00000 1212.00000
 27248.00000  303.00000 1224.00000
 27251.00000  312.00000 1209.00000
 27254.00000  320.00000 1165.00000
 27257.00000  562.00000 1132.00000
 27260.00000  318.00000 1106.00000
 27263.00000  524.00000 1103.00000
 27266.00000  306.00000 1026.00000
 27269.00000  302.00000  902.00000
 27272.00000  306.00000  844.00000
 27275.00000  312.00000  839.00000
 27278.00000  313.00000  822.00000
 27281.00000  305.00000  794.00000
 27284.00000  308.00000  780.00000
 27287.00000  314.00000  836.00000
 27290.00000  314.00000  861.00000
 27293.00000  301.00000  884.00000
 27296.00000  335.00000  950.00000
 27299.00000  300.00000 1013.00000
 27302.00000  312.00000 1061.00000
 27305.00000  339.00000 1036.00000
 27308.00000  295.00000 1037.00000
 27311.00000  299.00000 1074.00000
 27314.00000  306.00000 1065.00000
 27317.00000  307.00000 1002.00000
 27320.00000  314.00000 1010.00000
 27323.00000  322.00000 1030.00000
 27326.00000  424.00000 1070.00000
 27329.00000  433.00000 1052.00000
 27332.00000  347.00000  946.00000
 27335.00000  313.00000  922.00000
 27338.00000  319.00000  934.00000
 27341.00000  357.00000  960.00000
 27344.00000  310.00000  967.00000
 27347.00000  318.00000  970.00000
 27350.00000  324.00000 1000.00000
 27353.00000  314.00000  992.00000
 27356.00000  302.00000  987.00000
 27359.00000  288.00000 1012.00000
 27362.00000  286.00000 1004.00000
 27365.00000  313.00000  948.00000
 27368.00000  315.00000  933.00000
 27371.00000  322.00000  959.00000
 27374.00000  316.00000  949.00000
 27377.00000  311.00000  964.00000
 27380.00000  314.00000  986.00000
 27383.00000  315.00000  976.00000
 27386.00000  306.00000  928.00000
 27389.00000  300.00000  938.00000
 27392.00000  302.00000  908.00000
 27395.00000  306.00000  905.00000
 27398.00000  310.00000  936.00000
 27401.00000  386.00000  943.00000
 27404.00000  298.00000  984.00000
 27407.00000  303.00000  992.00000
 27410.00000  314.00000  940.00000
 27413.00000  353.00000  930.00000
