~Version ---------------------------------------------------
VERS.   2.0 : CWLS log ASCII Standard -VERSION 2.0
WRAP.    NO : One line per depth step
DLM . SPACE : Column Data Section Delimiter
~Well ------------------------------------------------------
STRT..M  1061.00000 : START DEPTH
STOP..M 31307.00000 : STOP DEPTH
STEP..M     3.00000 : STEP
NULL.      -9999.25 : NULL VALUE
COMP.               : COMPANY
WELL.               : WELL
FLD .               : FIELD
LOC .               : LOCATION
PROV.               : PROVINCE
CNTY.               : COUNTY
STAT.               : STATE
CTRY.               : COUNTRY
SRVC.               : SERVICE COMPANY
DATE.               : DATE
UWI .               : UNIQUE WELL ID
API .               : API NUMBER
~Curve Information -----------------------------------------
DEPTH..M       : Depth
ГК   .имп/мин  : описание 1
НГК  .усл. ед  : описание 2
~Params ----------------------------------------------------
..M    0.0 : Start depth
..M 1920.0 : Stop depth
..M    0.2 : Step
..   -9999 : Null value
~Other -----------------------------------------------------
~ASCII -----------------------------------------------------
# ...
 11615.00000 2604955.07143 1481821.69444
 11618.00000 1013458.58333 2223431.04167
 11621.00000 1013902.08333 1525360.42857
 11624.00000 1259107.06897 1047568.98039
 11627.00000 630067.75862 1406741.34211
 11630.00000 1142532.31250 4455487.41667
 11633.00000 892259.17073 2674084.95000
 11636.00000 1261962.86207 2431756.81818
 11639.00000 1307526.46429 1139049.14894
 11642.00000 893476.90244 1623125.87879
 11645.00000 1221653.26667 974725.45455
 11648.00000 965057.60526 2234626.25000
 11651.00000 1146624.40625 1412192.86842
 11654.00000 622547.98305 3157483.41176
 11657.00000 633971.06897 1167730.54348
 11660.00000 943555.76923 1194552.64444
 11663.00000 1753060.85714 2068400.38462
 11666.00000 1116339.18182 2988614.94444
 11669.00000 784596.61702 1993323.96296
 11672.00000 1366584.29630 3166758.47059
 11675.00000 365954.85149 2991696.94444
 11678.00000 711329.53846 2835089.21053
 11681.00000 1423172.57692 2155495.80000
 11684.00000 771420.64583 5988301.33333
 11687.00000 1195015.77419 2695540.10000
 11690.00000 726928.13725 3594839.46667
 11693.00000 1373593.92593 4494328.83333
 11696.00000 1279342.31034 1284891.45238
 11699.00000 4122787.22222 1349967.52500
 11702.00000 2061860.11111 1125844.43750
 11705.00000 1687451.86364 1689715.75000
 11708.00000 1125433.90909 1176344.93478
 11711.00000 1486004.96000 2460484.81818
 11714.00000 1769458.52381 1425315.71053
 11717.00000 1858324.95000 1062779.09804
 11720.00000 1093533.82353 1043066.40385
 11723.00000 1377470.59259 969269.16071
 11726.00000 2479883.06667 1324630.04878
 11729.00000 2657451.07143 1697966.75000
 11732.00000 1550622.29167 921751.11864
 11735.00000 2658658.14286 1236850.95455
 11738.00000 1959442.26316 2016499.85185
 11741.00000 1095386.91176 1238278.13636
 11744.00000 1619643.60870 2180212.52000
 11747.00000 2865894.30769 1817661.26667
 11750.00000 2070192.05556 2597453.09524
 11753.00000 1694186.00000 2728116.25000
 11756.00000 1962095.05263 1516433.69444
 11759.00000 2071505.83333 4963705.90909
 11762.00000 1554016.87500 3034208.33333
 11765.00000 2194272.17647 1884148.72414
 11768.00000 1554639.62500 4968247.72727
 11771.00000 1008792.89189 3215601.52941
 11774.00000 868437.09302 4556273.00000
 11777.00000 830273.88889 2604421.57143
 11780.00000 1205693.29032 1609475.52941
 11783.00000 2670178.07143 1303767.26190
 11786.00000 1384927.77778 1956474.42857
 11789.00000 1385292.77778 1405437.30769
 11792.00000 4156226.33333 2284595.16667
 11795.00000 2494086.80000 7833645.71429
 11798.00000 1870925.60000 3656456.33333
 11801.00000 2079181.72222 3918434.78571
 11804.00000 2079570.22222 4220632.84615
 11807.00000 2495881.26667 3919952.57143
 11810.00000 1872304.45000 4989816.54545
 11813.00000 1783524.09524 2495697.77273
 11816.00000 1498508.24000 1664618.45455
 11819.00000 2882082.61538 2113635.46154
 11822.00000 1561468.58333 1895862.51724
 11825.00000 1441713.11538 2391338.34783
 11828.00000 4165319.00000 5000991.09091
 11831.00000 1442220.69231 2620472.76190
 11834.00000 1442623.19231 2897191.00000
 11837.00000 1172533.84375 2202714.16000
 11840.00000 1631722.43478 1669526.84848
 11843.00000 1787473.57143 5009356.54545
 11846.00000 2502791.00000 3444714.06250
 11849.00000 5363438.57143 5512325.00000
 11852.00000 7509127.00000 4594375.66667
 11855.00000 5363976.14286 6126590.22222
 11858.00000 3755099.80000 7877789.57143
 11861.00000 2888859.30769 3677032.80000
 11864.00000 3129927.08333 3245150.70588
 11867.00000 4173571.11111 3245850.70588
 11870.00000 4173909.11111 968796.73684
 11873.00000 2683569.78571 767761.54167
 11876.00000 2348475.06250 601729.26087
 11879.00000 1978024.21053 1319008.04762
 11882.00000 1789998.95238 1979470.57143
 11885.00000 4177004.22222 2520303.68182
 11888.00000 5370766.00000 3697423.40000
 11891.00000 3759869.70000 4267221.76923
 11894.00000 2892550.46154 2642578.47619
 11897.00000 2892910.46154 6166980.44444
 11900.00000 1979735.78947 974721.75439
 11903.00000 2213019.88235 1425626.33333
 11906.00000 4180499.66667 1184038.51064
 11909.00000 4703404.62500 1427965.20513
 11912.00000 2894758.84615 1857356.26667
 11915.00000 1710909.81818 2787009.90000
 11918.00000 1255062.70000 2230606.92000
 11921.00000 991257.47368 6971661.12500
 11924.00000 1982941.94737 2536150.00000
 11927.00000 2355157.06250 11160042.00000
 11930.00000 2692002.78571 1925140.17241
 11933.00000 3426563.36364 1745686.78125
 11936.00000 5384967.57143 1164859.66667
 11939.00000 4712211.12500 1554250.61111
 11942.00000 1346719.53571 2665564.47619
 11945.00000 4713901.87500 875700.20312
 11948.00000 5387697.42857 1402113.95000
 11951.00000 2694233.21429 2337810.08333
 11954.00000 993016.73684 1247742.02222
 11957.00000 1398009.96296 1560537.11111
 11960.00000 1987036.21053 2161566.19231
 11963.00000 1641829.69565 2082303.18519
 11966.00000 2360474.68750 4325556.53846
 11969.00000 3433749.72727 3749587.66667
 11972.00000 3777444.20000 2679060.90476
 11975.00000 5396659.85714 3126370.55556
 11978.00000 2518755.26667 2447539.78261
 11981.00000 2361655.56250 2085778.29630
 11984.00000 3778978.40000 3755253.93333
 11987.00000 1574912.83333 3130213.77778
 11990.00000 1260290.76667 2450576.52174
 11993.00000 1644237.52174 3316350.88235
 11996.00000 1401046.77778 3759411.00000
 11999.00000 1351428.89286 5127357.54545
 12002.00000 2365425.06250 1410882.82500
 12005.00000 2911713.53846 1201548.46809
 12008.00000 1147479.66667 1153253.26531
 12011.00000 1306224.65517 1487830.23684
 12014.00000 1894511.25000 2019968.60714
 12017.00000 1052969.30556 2459885.21739
 12020.00000 1723464.18182 2176864.80769
 12023.00000 2528149.46667 2573491.90909
 12026.00000 4213972.44444 2980666.73684
 12029.00000 1517427.12000 2981468.78947
 12032.00000 1459480.03846 2982255.78947
 12035.00000 2710895.42857 1259989.66667
 12038.00000 6325859.16667 886793.73438
 12041.00000 3163369.08333 737998.28571
 12044.00000 3796483.40000 1209995.02128
 12047.00000 2712206.35714 1580595.22222
 12050.00000 3164660.25000 791177.11111
 12053.00000 3452767.63636 1357237.11905
 12056.00000 1999388.52632 3801219.93333
 12059.00000 1461544.11538 2037311.32143
 12062.00000 1727748.90909 1967960.20690
 12065.00000 2001013.47368 1968824.27586
 12068.00000 6336982.16667 3359443.47059
 12071.00000 3802615.40000 2720359.47619
 12074.00000 2925495.92308 2857166.95000
 12077.00000 3803542.20000 2117184.96296
 12080.00000 2237782.76471 1971907.20690
 12083.00000 2002647.68421 2118705.40741
 12086.00000 2114347.38889 1331104.90698
 12089.00000 2718907.14286 1735258.03030
 12092.00000 3806941.40000 1909595.33333
 12095.00000 6345374.83333 2604826.13636
 12098.00000 2719923.85714 3821256.66667
 12101.00000 1656096.82609 4777424.33333
 12104.00000 1656602.82609 4095784.64286
 12107.00000 1155100.93939 2867880.75000
 12110.00000 1815623.61905 3824650.00000
 12113.00000 1733532.77273 5216223.81818
 12116.00000 1907295.55000 5738634.70000
 12119.00000 1589825.45833 11478058.40000
 12122.00000 3469131.09091 7174570.00000
 12125.00000 2385451.12500 7175345.50000
 12128.00000 1590739.25000 9567896.83333
 12131.00000 1414461.55556 7176688.12500
 12134.00000 1317404.48276 4417179.46154
 12137.00000 1819782.85714 3023020.68421
 12140.00000 1737571.95455 2611509.09091
 12143.00000 1529571.32000 1690487.50000
 12146.00000 1195514.09375 1554107.94595
 12149.00000 2014049.42105 1554821.94595
 12152.00000 957213.97500 1856497.22581
 12155.00000 1740893.54545 1556212.56757
 12158.00000 1665681.52174 2215404.69231
 12161.00000 2254029.11765 2880821.60000
 12164.00000 2017204.89474 2881596.10000
 12167.00000 1322059.00000 3842881.13333
 12170.00000 1065457.47222 3034590.52632
 12173.00000 1096393.11429 2746291.19048
 12176.00000 872656.38636 6408707.77778
 12179.00000 651358.61017 1697102.14706
 12182.00000 641119.43333 4439234.84615
 12185.00000 962325.85000 1519365.10526
 12188.00000 875495.18182 1155431.98000
 12191.00000 1427343.85185 1521054.00000
 12194.00000 676674.29825 2513807.73913
 12197.00000 756795.03922 2224493.50000
 12200.00000 839513.86957 2142818.85185
